[
  {
    "name": "Ratneshwar Bhavan Ram Mandir",
    "lat": 25.1760842,
    "lng": 80.870361,
    "url": "https://www.google.com/maps/place/Ratneshwar+Bhavan+Ram+Mandir+Ramghat+Chitrakoot/@25.1760842,80.870361,17z/data=!3m1!4b1!4m6!3m5!1s0x3984a750667603d9:0xe461c2af4b2df42e!8m2!3d25.1760842!4d80.870361!16s%2Fg%2F11llbj4lcx?entry=ttu&g_ep=EgoyMDI1MDgwMy4wIKXMDSoASAFQAw%3D%3D"
  },
  {
    "name": "Someshwar Temple",
    "lat": 17.6883523,
    "lng": 74.0482271,
    "url": "https://www.google.com/maps/place/Someshwar+Temple/@17.6883523,74.0482271,17z/data=!3m1!4b1!4m6!3m5!1s0x3bc23746ac2b5517:0x31f0036822efbdf5!8m2!3d17.6883523!4d74.0482271!16s%2Fg%2F11dxj0ljtf?entry=ttu&g_ep=EgoyMDI1MDgwMy4wIKXMDSoASAFQAw%3D%3D"
  },
  {
    "name": "RAMNATH MANDIR",
    "lat": 24.3494254,
    "lng": 73.6955065,
    "url": "https://www.google.com/maps/place/RAMNATH+MANDIR/@24.3494254,73.6955065,17z/data=!3m1!4b1!4m6!3m5!1s0x396793e85988613f:0xc3f49baa915ac61d!8m2!3d24.3494254!4d73.6955065!16s%2Fg%2F11r_wjq8_k?entry=ttu&g_ep=EgoyMDI1MDgwMy4wIKXMDSoASAFQAw%3D%3D"
  },
  {
    "name": "Mrugvyadheshwar mandir",
    "lat": 20.0126173,
    "lng": 74.1506196,
    "url": "https://www.google.com/maps/place/Mrugvyadheshwar+mandir/@20.0126173,74.1506196,17z/data=!3m1!4b1!4m6!3m5!1s0x3bddca41ca560bff:0x2247173ba47073ba!8m2!3d20.0126173!4d74.1506196!16s%2Fg%2F11cs6999n4?entry=ttu&g_ep=EgoyMDI1MDgwMy4wIKXMDSoASAFQAw%3D%3D"
  },
  {
    "name": "Sarvapaapa Vinasheshwara Temple",
    "lat": 14.594501,
    "lng": 78.7605335,
    "url": "https://www.google.com/maps/place/Sarvapaapa+Vinasheshwara+Temple/@14.594501,78.7605335,17z/data=!3m1!4b1!4m6!3m5!1s0x3bb37a17c078741b:0xc5bc97e477857fc9!8m2!3d14.594501!4d78.7605335!16s%2Fg%2F11gfhcvgb3?entry=ttu&g_ep=EgoyMDI1MDgwMy4wIKXMDSoASAFQAw%3D%3D"
  },
  {
    "name": "Ram Janki Mandir",
    "lat": 25.4446475,
    "lng": 81.8707484,
    "url": "https://www.google.com/maps/place/Shri+Ram+Janki+Mandir/@25.4446475,81.8707484,17z/data=!3m1!4b1!4m6!3m5!1s0x399ab556ba2b3e8f:0xcff535f4368750c2!8m2!3d25.4446475!4d81.8707484!16s%2Fg%2F11b7lfd9ks?entry=ttu&g_ep=EgoyMDI1MDgwMy4wIKXMDSoASAFQAw%3D%3D"
  },
  {
    "name": "shree Vashupujya swami mandir tinwari",
    "lat": 26.5498458,
    "lng": 72.8852229,
    "url": "https://www.google.com/maps/place/shree+Vashupujya+swami+mandir+tinwari/@26.5498458,72.8852229,17z/data=!3m1!4b1!4m6!3m5!1s0x3941a35ce4bc41d5:0x48d4a775ef4a32ac!8m2!3d26.5498458!4d72.8852229!16s%2Fg%2F11ptyh_2lr?entry=ttu&g_ep=EgoyMDI1MDgwMy4wIKXMDSoASAFQAw%3D%3D"
  },
  {
    "name": "Bhadrakaali Mandir",
    "lat": 24.520473,
    "lng": 72.7740544,
    "url": "https://www.google.com/maps/place/Bhadrakaali+Mandir/@24.520473,72.7740544,17z/data=!3m1!4b1!4m6!3m5!1s0x395d291bdd469ccd:0x7286098a046de763!8m2!3d24.520473!4d72.7740544!16s%2Fg%2F1tdhk6z1?entry=ttu&g_ep=EgoyMDI1MDgwMy4wIKXMDSoASAFQAw%3D%3D"
  },
  {
    "name": "Panchganga Ghat",
    "lat": 16.7045837,
    "lng": 74.2160331,
    "url": "https://www.google.com/maps/place/Panchganga+Ghat/@16.7045837,74.2160331,17z/data=!3m1!4b1!4m6!3m5!1s0x3bc1aa9de9220123:0x9ec025b576783184!8m2!3d16.7045837!4d74.2160331!16s%2Fg%2F11g697lw2_?entry=ttu&g_ep=EgoyMDI1MDgwMy4wIKXMDSoASAFQAw%3D%3D"
  },
  {
    "name": "PRACHEEN SHIV MANDIR",
    "lat": 27.7812902,
    "lng": 80.920242,
    "url": "https://www.google.com/maps/place/PRACHEEN+SHIV+MANDIR/@27.7812902,80.920242,17z/data=!3m1!4b1!4m6!3m5!1s0x3998d1f2c73d5ff5:0xd7b633d98fded2fa!8m2!3d27.7812902!4d80.920242!16s%2Fg%2F11rqyvhxm0?entry=ttu&g_ep=EgoyMDI1MDgwMy4wIKXMDSoASAFQAw%3D%3D"
  },
  {
    "name": "Delwada Mevad Tirth",
    "lat": 24.7759374,
    "lng": 73.7500834,
    "url": "https://www.google.com/maps/place/Shri+Delwada+Mevad+Tirth/@24.7759374,73.7500834,17z/data=!3m1!4b1!4m6!3m5!1s0x39680b1441aae3b9:0xdad0c113e9e40bd4!8m2!3d24.7759374!4d73.7500834!16s%2Fg%2F11h5_w22dr?entry=ttu&g_ep=EgoyMDI1MDgwMy4wIKXMDSoASAFQAw%3D%3D"
  },
  {
    "name": "Narthamalai Shri Sivan Kovil",
    "lat": 10.504826,
    "lng": 78.7577401,
    "url": "https://www.google.com/maps/place/Narthamalai+Shri+Sivan+Kovil/@10.504826,78.7577401,17z/data=!3m1!4b1!4m6!3m5!1s0x3baa840b0b1408a3:0x6b808ae0093288f6!8m2!3d10.504826!4d78.7577401!16s%2Fg%2F1hc90ljg0?entry=ttu&g_ep=EgoyMDI1MDgwMy4wIKXMDSoASAFQAw%3D%3D"
  },
  {
    "name": "Kasi Viswanatha Swamy Temple",
    "lat": 14.5811141,
    "lng": 78.7635809,
    "url": "https://www.google.com/maps/place/Kasi+Viswanatha+Swamy+Temple/@14.5811141,78.7635809,17z/data=!3m1!4b1!4m6!3m5!1s0x3bb37a0e8e747c9f:0x884b27a63c579f56!8m2!3d14.5811141!4d78.7635809!16s%2Fg%2F11f_4rw4b6?entry=ttu&g_ep=EgoyMDI1MDgwMy4wIKXMDSoASAFQAw%3D%3D"
  },
  {
    "name": "Shree Biroba Temple Arewadi",
    "lat": 17.1236706,
    "lng": 74.9651947,
    "url": "https://www.google.com/maps/place/Shree+Biroba+Temple+Arewadi/@17.1236706,74.9651947,17z/data=!3m1!4b1!4m6!3m5!1s0x3bc14aca8f6d3939:0xd93893d371897c37!8m2!3d17.1236706!4d74.9651947!16s%2Fg%2F11xklh82_?entry=ttu&g_ep=EgoyMDI1MDgwNC4wIKXMDSoASAFQAw%3D%3D"
  },
  {
    "name": "Shri Ramalingeshwara Swami Temple",
    "lat": 13.106508,
    "lng": 78.3267142,
    "url": "https://www.google.com/maps/place/Shri+Ramalingeshwara+Swami+Temple/@13.106508,78.3267142,17z/data=!3m1!4b1!4m6!3m5!1s0x3bad8d6e2dc08559:0x385cabb4b582127f!8m2!3d13.106508!4d78.3267142!16s%2Fm%2F0zrncls?entry=ttu&g_ep=EgoyMDI1MDgwMy4wIKXMDSoASAFQAw%3D%3D"
  },
  {
    "name": "Khalia Raja Ram Temple",
    "lat": 23.2236538,
    "lng": 90.0052612,
    "url": "https://www.google.com/maps/place/Khalia+Raja+Ram+Temple/@23.2236538,90.0052612,17z/data=!3m1!4b1!4m6!3m5!1s0x37557de494252d85:0xbc1f4eba6b7836a8!8m2!3d23.2236538!4d90.0052612!16s%2Fg%2F11c2y89szq?entry=ttu&g_ep=EgoyMDI1MDgwMy4wIKXMDSoASAFQAw%3D%3D"
  },
  {
    "name": "Amka Jhamka Mandir",
    "lat": 22.5469097,
    "lng": 75.1145128,
    "url": "https://www.google.com/maps/place/Amka+Jhamka+Mandir/@22.5469097,75.1145128,17z/data=!3m1!4b1!4m6!3m5!1s0x39622e5125a36fe1:0xa7059c7c00fd10ed!8m2!3d22.5469097!4d75.1145128!16s%2Fg%2F11bwfkt1nm?entry=ttu&g_ep=EgoyMDI1MDgwMy4wIKXMDSoASAFQAw%3D%3D"
  },
  {
    "name": "Kodavooru Shankaranarayana Temple, \u0c95\u0cca\u0ca1\u0cb5\u0cc2\u0cb0\u0cc1 \u0cb6\u0c82\u0c95\u0cb0\u0ca8\u0cbe\u0cb0\u0cbe\u0caf\u0ca3 \u0ca6\u0cc7\u0cb5\u0cb8\u0ccd\u0ca5\u0cbe\u0ca8",
    "lat": 13.3564479,
    "lng": 74.7155339,
    "url": "https://www.google.com/maps/place/Mahathobara+Shree+Shankaranarayana+Temple+Kodavoor,+%E0%B2%AE%E0%B2%B9%E0%B2%A4%E0%B3%8B%E0%B2%AC%E0%B2%BE%E0%B2%B0+%E0%B2%B6%E0%B3%8D%E0%B2%B0%E0%B3%80+%E0%B2%B6%E0%B2%82%E0%B2%95%E0%B2%B0%E0%B2%A8%E0%B2%BE%E0%B2%B0%E0%B2%BE%E0%B2%AF%E0%B2%A3+%E0%B2%A6%E0%B3%87%E0%B2%B5%E0%B2%B8%E0%B3%8D%E0%B2%A5%E0%B2%BE%E0%B2%A8+%E0%B2%95%E0%B3%8A%E0%B2%A1%E0%B2%B5%E0%B3%82%E0%B2%B0%E0%B3%81/@13.3564479,74.7155339,17z/data=!3m1!4b1!4m6!3m5!1s0x3bbcbc73f991504f:0x9fd2b33dcf7a53be!8m2!3d13.3564479!4d74.7155339!16s%2Fg%2F1tgcwhw1?entry=ttu&g_ep=EgoyMDI1MDgwMy4wIKXMDSoASAFQAw%3D%3D"
  },
  {
    "name": "Gangoli Shivala",
    "lat": 25.4387309,
    "lng": 81.9029659,
    "url": "https://www.google.com/maps/place/Gangoli+Shivalay/@25.4387309,81.9029659,17z/data=!3m1!4b1!4m6!3m5!1s0x39854ad337f9959b:0x5ee5ae267ea6af40!8m2!3d25.4387309!4d81.9029659!16s%2Fg%2F11b7q4gw9k?entry=ttu&g_ep=EgoyMDI1MDgwMy4wIKXMDSoASAFQAw%3D%3D"
  },
  {
    "name": "Vontimitta Kodanda Rama Swamy Temple",
    "lat": 14.3937623,
    "lng": 79.0262377,
    "url": "https://www.google.com/maps/place/Sri+Vontimitta+Kodanda+Rama+Swamy+Temple/@14.3937623,79.0262377,17z/data=!3m1!4b1!4m6!3m5!1s0x3bb33f9dc5df8e8d:0xe9d6e0dfcd55472e!8m2!3d14.3937623!4d79.0262377!16s%2Fm%2F012w43rv?entry=ttu&g_ep=EgoyMDI1MDgwMy4wIKXMDSoASAFQAw%3D%3D"
  },
  {
    "name": "108 Shri Swayambhu Parshvanath Jain Tirth, Kaparda",
    "lat": 26.2710115,
    "lng": 73.4790382,
    "url": "https://www.google.com/maps/place/108+Shri+Swayambhu+Parshwanath+Shwetambar+Jain+Derasar+Tirth,+Kaparda/@26.2710115,73.4790382,17z/data=!3m1!4b1!4m6!3m5!1s0x396a0097badfcb11:0x8c7b139de38fe146!8m2!3d26.2710115!4d73.4790382!16s%2Fg%2F11c5fyjy6q?entry=ttu&g_ep=EgoyMDI1MDgwMy4wIKXMDSoASAFQAw%3D%3D"
  },
  {
    "name": "Sri varadarajula Swami Vari Temple",
    "lat": 14.1740822,
    "lng": 79.3256165,
    "url": "https://www.google.com/maps/place/Sri+varadarajula+Swami+Vari+Temple/@14.1740822,79.3256165,17z/data=!3m1!4b1!4m6!3m5!1s0x3bb32de1a4fd7489:0x51ea1e9241688a47!8m2!3d14.1740822!4d79.3256165!16s%2Fg%2F11fgkndsl9?entry=ttu&g_ep=EgoyMDI1MDgwMy4wIKXMDSoASAFQAw%3D%3D"
  },
  {
    "name": "Chaturmukha Nath",
    "lat": 24.3992734,
    "lng": 80.4471403,
    "url": "https://www.google.com/maps/place/Ancient+Chalukya+era+Shri+Choumukh+Nath+Temple/@24.3992734,80.4471403,17z/data=!3m1!4b1!4m6!3m5!1s0x398397d976aa86b9:0xe28f353beea0a89e!8m2!3d24.3992734!4d80.4471403!16s%2Fg%2F11fy4mds02?entry=ttu&g_ep=EgoyMDI1MDgwNC4wIKXMDSoASAFQAw%3D%3D"
  },
  {
    "name": "SHIV TEMPLE",
    "lat": 25.8452188,
    "lng": 83.3048469,
    "url": "https://www.google.com/maps/place/SHIV+TEMPLE/@25.8452188,83.3048469,17z/data=!3m1!4b1!4m6!3m5!1s0x3991eb08b040936f:0x798a6ea7e0600b2e!8m2!3d25.8452188!4d83.3048469!16s%2Fg%2F11cn677y5r?entry=ttu&g_ep=EgoyMDI1MDgwMy4wIKXMDSoASAFQAw%3D%3D"
  },
  {
    "name": "Shri Vishnu Mandir Wai",
    "lat": 17.9539582,
    "lng": 73.8886299,
    "url": "https://www.google.com/maps/place/Shri+Vishnu+Mandir+Wai/@17.9539582,73.8886299,17z/data=!3m1!4b1!4m6!3m5!1s0x3bc25d20812533f5:0x7dc404b55f848d01!8m2!3d17.9539582!4d73.8886299!16s%2Fg%2F1tct750z?entry=ttu&g_ep=EgoyMDI1MDgwMy4wIKXMDSoASAFQAw%3D%3D"
  },
  {
    "name": "YamaiTemple/ Sakhargadh, Kinhai, Satara",
    "lat": 17.7892788,
    "lng": 74.1825199,
    "url": "https://www.google.com/maps/place/Yamai+devi+%2F+Sakhargadh+Niwasini+Temple,+Kinhai,+Satara/@17.7892788,74.1825199,17z/data=!3m1!4b1!4m6!3m5!1s0x3bc24a8e297fb9d9:0xb986da1f957fadb5!8m2!3d17.7892788!4d74.1825199!16s%2Fg%2F11xkmg2bz?entry=ttu&g_ep=EgoyMDI1MDgwMy4wIKXMDSoASAFQAw%3D%3D"
  },
  {
    "name": "Sri Moolanathar Temple",
    "lat": 11.8070229,
    "lng": 79.7424559,
    "url": "https://www.google.com/maps/place/Sri+Moolanathar+Temple/@11.8070229,79.7424559,17z/data=!3m1!4b1!4m6!3m5!1s0x3a549f59cd5c8ab9:0x7bc771f336d65b6e!8m2!3d11.8070229!4d79.7424559!16s%2Fg%2F1tlgwc_7?entry=ttu&g_ep=EgoyMDI1MDgwMy4wIKXMDSoASAFQAw%3D%3D"
  },
  {
    "name": "Goddess Saraswati Temple",
    "lat": 25.3647445,
    "lng": 75.6754814,
    "url": "https://www.google.com/maps/place/Goddess+Saraswati+Temple/@25.3647445,75.6754814,17z/data=!3m1!4b1!4m6!3m5!1s0x396f0ae4370fd1f3:0x880101617a82ee33!8m2!3d25.3647445!4d75.6754814!16s%2Fg%2F11c6_wn81g?entry=ttu&g_ep=EgoyMDI1MDgwNC4wIKXMDSoASAFQAw%3D%3D"
  },
  {
    "name": "Shri Nageshwar Temple, Dhamantri",
    "lat": 21.0206375,
    "lng": 78.1419531,
    "url": "https://www.google.com/maps/place/Shri+Nageshwar+Mahadev+Temple,+Dhamantri/@21.0206375,78.1419531,17z/data=!3m1!4b1!4m6!3m5!1s0x3bd417a4e110043f:0x6c7832509890947e!8m2!3d21.0206375!4d78.1419531!16s%2Fg%2F11hbsymh4h?entry=ttu&g_ep=EgoyMDI1MDgwMy4wIKXMDSoASAFQAw%3D%3D"
  },
  {
    "name": "Lord Aranganathar Temple",
    "lat": 13.0899631,
    "lng": 79.2625645,
    "url": "https://www.google.com/maps/place/Aranganathar+Temple,+Erukkampattu/@13.0899631,79.2625645,17z/data=!3m1!4b1!4m6!3m5!1s0x3bad4e5f0762e5af:0x60e931d0d455e761!8m2!3d13.0899631!4d79.2625645!16s%2Fg%2F1hm3mcsb3?entry=ttu&g_ep=EgoyMDI1MDgwMy4wIKXMDSoASAFQAw%3D%3D"
  },
  {
    "name": "Lord Shiva Temple",
    "lat": 44.2423649,
    "lng": -119.8093025,
    "url": "https://www.google.com/maps/place//@44.2423649,-119.8093025,3z/data=!3m1!4b1?entry=ttu&g_ep=EgoyMDI1MDgwMy4wIKXMDSoASAFQAw%3D%3D"
  },
  {
    "name": "Shri Kalleshwara Swamy Temple,Baagali",
    "lat": 14.84769,
    "lng": 75.9846929,
    "url": "https://www.google.com/maps/place/Ancient+Shri+Kalleshwara+Temple+(Bagali)/@14.84769,75.9846929,17z/data=!3m1!4b1!4m6!3m5!1s0x3bb9916449a28463:0x834770bb73981aff!8m2!3d14.84769!4d75.9846929!16s%2Fm%2F0k8_6dc?entry=ttu&g_ep=EgoyMDI1MDgwMy4wIKXMDSoASAFQAw%3D%3D"
  },
  {
    "name": "Arulmigu Shri Pushpakuja Ambal udanurai Shri Singeeshwarar Swamy Temple",
    "lat": 13.0302598,
    "lng": 79.8582973,
    "url": "https://www.google.com/maps/place/Singeeswarar+Temple/@13.0302598,79.8582973,17z/data=!3m1!4b1!4m6!3m5!1s0x3a5293a49a155555:0x2614524b1e284c43!8m2!3d13.0302598!4d79.8582973!16s%2Fg%2F11b6yc2zwg?entry=ttu&g_ep=EgoyMDI1MDgwMy4wIKXMDSoASAFQAw%3D%3D"
  },
  {
    "name": "Shri Naag Vasuki Mandir",
    "lat": 25.4570944,
    "lng": 81.8843481,
    "url": "https://www.google.com/maps/place/Shri+Nagvasuki+Mandir/@25.4570944,81.8843481,17z/data=!3m1!4b1!4m6!3m5!1s0x399ab5413b990cf9:0x784b8544788a324c!8m2!3d25.4570944!4d81.8843481!16s%2Fg%2F11c3k9xf7h?entry=ttu&g_ep=EgoyMDI1MDgwMy4wIKXMDSoASAFQAw%3D%3D"
  },
  {
    "name": "Prachin Gangvo Kund",
    "lat": 22.7674878,
    "lng": 71.7641216,
    "url": "https://www.google.com/maps/place/Gangavo+Kund/@22.7674878,71.7641216,17z/data=!3m1!4b1!4m6!3m5!1s0x395949006425bfb9:0x4b456bf3379d1f4f!8m2!3d22.7674878!4d71.7641216!16s%2Fg%2F11g0gbvlz3?entry=ttu&g_ep=EgoyMDI1MDgwNC4wIKXMDSoASAFQAw%3D%3D"
  }
]