[
  {
    "name": "Paragarh Fort",
    "lat": 25.2231711,
    "lng": 77.7051143,
    "url": "https://www.google.com/maps/place/Paragarh+Fort/@25.2231711,77.7051143,17z/data=!3m1!4b1!4m6!3m5!1s0x3970a66154b1a4fd:0x487edc3070750073!8m2!3d25.2231711!4d77.7051143!16s%2Fg%2F11css5kj0s?entry=ttu&g_ep=EgoyMDI1MDgwMy4wIKXMDSoASAFQAw%3D%3D"
  },
  {
    "name": "Kalan Kot Fort",
    "lat": 24.7063597,
    "lng": 67.8781703,
    "url": "https://www.google.com/maps/place/Ruins+of+Kalan+Kot+Fort/@24.7063597,67.8781703,17z/data=!3m1!4b1!4m6!3m5!1s0x394d1df306a2cd9d:0xa55687d0a52e8a6d!8m2!3d24.7063597!4d67.8781703!16s%2Fg%2F11b8c2jrmb?entry=ttu&g_ep=EgoyMDI1MDgwMy4wIKXMDSoASAFQAw%3D%3D"
  },
  {
    "name": "Qila Rai Pithora Main Fort",
    "lat": 28.5192327,
    "lng": 77.1930872,
    "url": "https://www.google.com/maps/place/Qila+Rai+Pithora+Fort+Delhi/@28.5192327,77.1930872,17z/data=!3m1!4b1!4m6!3m5!1s0x390d1e02eaaaaaab:0xe8fccfe0cc4aa57c!8m2!3d28.5192327!4d77.1930872!16zL20vMDh4M25t?entry=ttu&g_ep=EgoyMDI1MDgwMy4wIKXMDSoASAFQAw%3D%3D"
  },
  {
    "name": "Kangra Fort Himachal Pardesh",
    "lat": 44.2423649,
    "lng": -119.8093025,
    "url": "https://www.google.com/maps/place//@44.2423649,-119.8093025,3z/data=!3m1!4b1?entry=ttu&g_ep=EgoyMDI1MDgwMy4wIKXMDSoASAFQAw%3D%3D"
  },
  {
    "name": "Remains of a fort Bhismaknagar, Archaeological Survey of India",
    "lat": 28.0467581,
    "lng": 96.0051887,
    "url": "https://www.google.com/maps/place/Remains+of+a+fort+Bhismaknagar,+Archaeological+Survey+of+India/@28.0467581,96.0051887,17z/data=!3m1!4b1!4m6!3m5!1s0x373e43094d959a3f:0x4e4c2aa98a511c3c!8m2!3d28.0467581!4d96.0051887!16s%2Fg%2F11n05l5xpw?entry=ttu&g_ep=EgoyMDI1MDgwMy4wIKXMDSoASAFQAw%3D%3D"
  },
  {
    "name": "Khawaraoji Fort",
    "lat": 26.765953,
    "lng": 76.4893094,
    "url": "https://www.google.com/maps/place/Khawaraoji+Fort/@26.765953,76.4893094,17z/data=!3m1!4b1!4m6!3m5!1s0x39720993d5bcbc35:0xb55995fa509be67c!8m2!3d26.765953!4d76.4893094!16s%2Fg%2F11k6f8mj1x?entry=ttu&g_ep=EgoyMDI1MDgwMy4wIKXMDSoASAFQAw%3D%3D"
  },
  {
    "name": "Maharaja Uday Pratap Singh Palace",
    "lat": 25.6838015,
    "lng": 81.5661553,
    "url": "https://www.google.com/maps/place/Maharaja+Uday+Pratap+Singh+Palace/@25.6838015,81.5661553,17z/data=!3m1!4b1!4m6!3m5!1s0x399ad9ea9da653c1:0x223094baf3649bf0!8m2!3d25.6838015!4d81.5661553!16s%2Fg%2F11fll4p2rq?entry=ttu&g_ep=EgoyMDI1MDgwMy4wIKXMDSoASAFQAw%3D%3D"
  },
  {
    "name": "Fort Gugrood",
    "lat": 26.3756161,
    "lng": 76.1310218,
    "url": "https://www.google.com/maps/place/Fort+Gugrood/@26.3756161,76.1310218,17z/data=!3m1!4b1!4m6!3m5!1s0x396e0d031c6098e1:0xa160fd82b97c743!8m2!3d26.3756161!4d76.1310218!16s%2Fg%2F11h0gywwpw?entry=ttu&g_ep=EgoyMDI1MDgwMy4wIKXMDSoASAFQAw%3D%3D"
  },
  {
    "name": "Fort Bandanwara",
    "lat": 44.2423649,
    "lng": -119.8093025,
    "url": "https://www.google.com/maps/place//@44.2423649,-119.8093025,3z/data=!3m1!4b1?entry=ttu&g_ep=EgoyMDI1MDgwMy4wIKXMDSoASAFQAw%3D%3D"
  },
  {
    "name": "Mahimangad Fort",
    "lat": 17.7107159,
    "lng": 73.6097222,
    "url": "https://www.google.com/maps/place/Mahimandangad+Fort/@17.7107159,73.6097222,17z/data=!3m1!4b1!4m6!3m5!1s0x3bc20da8590c6e17:0x7df1e9c337209eb7!8m2!3d17.7107159!4d73.6097222!16s%2Fg%2F11jl__ndgj?entry=ttu&g_ep=EgoyMDI1MDgwMy4wIKXMDSoASAFQAw%3D%3D"
  },
  {
    "name": "Bonli Fort",
    "lat": 26.3347559,
    "lng": 76.2208063,
    "url": "https://www.google.com/maps/place/Bonli+Fort/@26.3347559,76.2208063,17z/data=!3m1!4b1!4m6!3m5!1s0x396e0e344da66d73:0xb08547e45eab50c2!8m2!3d26.3347559!4d76.2208063!16s%2Fg%2F11b7q745f4?entry=ttu&g_ep=EgoyMDI1MDgwMy4wIKXMDSoASAFQAw%3D%3D"
  },
  {
    "name": "\u091a\u094c\u092c\u0947 \u091a\u0947\u0924\u093e\u0935\u0928 \u0915\u093f\u0932\u093e",
    "lat": 25.6709644,
    "lng": 81.4269347,
    "url": "https://www.google.com/maps/place/%E0%A4%9A%E0%A5%8C%E0%A4%AC%E0%A5%87+%E0%A4%9A%E0%A5%87%E0%A4%A4%E0%A4%BE%E0%A4%B5%E0%A4%A8+%E0%A4%95%E0%A4%BF%E0%A4%B2%E0%A4%BE/@25.6709644,81.4269347,17z/data=!3m1!4b1!4m6!3m5!1s0x399b252cb016d697:0xd2bec0d92be78ece!8m2!3d25.6709644!4d81.4269347!16s%2Fg%2F11gy2rjcmv?entry=ttu&g_ep=EgoyMDI1MDgwMy4wIKXMDSoASAFQAw%3D%3D"
  },
  {
    "name": "Jhilai Old Fort",
    "lat": 26.3587194,
    "lng": 76.0078255,
    "url": "https://www.google.com/maps/place/Jhilai+Old+Fort/@26.3587194,76.0078255,17z/data=!3m1!4b1!4m6!3m5!1s0x396e73c3a2884b23:0xe80b5b455dfa4d83!8m2!3d26.3587194!4d76.0078255!16s%2Fg%2F11ckqs_l27?entry=ttu&g_ep=EgoyMDI1MDgwMy4wIKXMDSoASAFQAw%3D%3D"
  },
  {
    "name": "Korigad Fort",
    "lat": 18.6212339,
    "lng": 73.385737,
    "url": "https://www.google.com/maps/place/Korigad+Fort/@18.6212339,73.385737,17z/data=!3m1!4b1!4m6!3m5!1s0x3be81cb3cd6da0ef:0x67efdfcbe539cc5b!8m2!3d18.6212339!4d73.385737!16s%2Fm%2F05f498d?entry=ttu&g_ep=EgoyMDI1MDgwMy4wIKXMDSoASAFQAw%3D%3D"
  },
  {
    "name": "Nandpur Fort",
    "lat": 32.0099831,
    "lng": 76.1230391,
    "url": "https://www.google.com/maps/place/Nandpur+Fort/@32.0099831,76.1230391,17z/data=!3m1!4b1!4m6!3m5!1s0x391b41a4fec12cd1:0x176c20631e2c68b7!8m2!3d32.0099831!4d76.1230391!16s%2Fg%2F1q5bt44lf?entry=ttu&g_ep=EgoyMDI1MDgwNC4wIKXMDSoASAFQAw%3D%3D"
  },
  {
    "name": "Mehal Morian Fort, Hamirpur",
    "lat": 31.6239151,
    "lng": 76.59834,
    "url": "https://www.google.com/maps/place/Mehal+Morian+Fort,+Hamirpur/@31.6239151,76.59834,17z/data=!3m1!4b1!4m6!3m5!1s0x3905292ca452cc4d:0xaf966d6dec33bdc0!8m2!3d31.6239151!4d76.59834!16s%2Fg%2F11jcn0n4pp?entry=ttu&g_ep=EgoyMDI1MDgwMy4wIKXMDSoASAFQAw%3D%3D"
  },
  {
    "name": "Kakori Fort",
    "lat": 26.8627337,
    "lng": 80.7837151,
    "url": "https://www.google.com/maps/place/Kakori+Fort/@26.8627337,80.7837151,17z/data=!3m1!4b1!4m6!3m5!1s0x399c01ff80983c61:0x253763cb79a3c102!8m2!3d26.8627337!4d80.7837151!16s%2Fg%2F11hhn_7yk4?entry=ttu&g_ep=EgoyMDI1MDgwMy4wIKXMDSoASAFQAw%3D%3D"
  },
  {
    "name": "Gondhla Fort",
    "lat": 32.5091394,
    "lng": 77.0208251,
    "url": "https://www.google.com/maps/place/Gondhla+Fort/@32.5091394,77.0208251,17z/data=!3m1!4b1!4m6!3m5!1s0x39037b4f44276801:0x7f97e1f8f65baa1d!8m2!3d32.5091394!4d77.0208251!16s%2Fg%2F11bzwpbymd?entry=ttu&g_ep=EgoyMDI1MDgwMy4wIKXMDSoASAFQAw%3D%3D"
  },
  {
    "name": "Khairagarh Fort",
    "lat": 25.1820109,
    "lng": 82.0626891,
    "url": "https://www.google.com/maps/place/Khairagarh+Fort/@25.1820109,82.0626891,17z/data=!3m1!4b1!4m6!3m5!1s0x39855b69e0fe4515:0xb941beaf56d725ac!8m2!3d25.1820109!4d82.0626891!16s%2Fg%2F11c5_sx19f?entry=ttu&g_ep=EgoyMDI1MDgwNC4wIKXMDSoASAFQAw%3D%3D"
  },
  {
    "name": "Shiwar Fort",
    "lat": 26.1962365,
    "lng": 76.0310357,
    "url": "https://www.google.com/maps/place/Shiwar+Fort/@26.1962365,76.0310357,17z/data=!3m1!4b1!4m6!3m5!1s0x396e6b8437cb43ef:0x7a4fee4d4bfb4209!8m2!3d26.1962365!4d76.0310357!16s%2Fg%2F11fz9xmg29?entry=ttu&g_ep=EgoyMDI1MDgwMy4wIKXMDSoASAFQAw%3D%3D"
  },
  {
    "name": "Qila Lal Kot",
    "lat": 28.5285162,
    "lng": 77.1811324,
    "url": "https://www.google.com/maps/place/Qila+Lal+Kot,+Mehrauli,+New+Delhi,+Delhi+110030,+India/@28.5285162,77.1811324,17z/data=!3m1!4b1!4m6!3m5!1s0x390d1de29b8ca2d3:0xc243f0bb12136e38!8m2!3d28.5288244!4d77.1808679!16s%2Fg%2F11bvth6wcx?entry=ttu&g_ep=EgoyMDI1MDgwMy4wIKXMDSoASAFQAw%3D%3D"
  },
  {
    "name": "28\u00b016'09.6\"N 76\u00b008'47.4\"E",
    "lat": 28.269334,
    "lng": 76.146489,
    "url": "https://www.google.com/maps/place/28%C2%B016'09.6%22N+76%C2%B008'47.4%22E/@28.269334,76.146489,17z/data=!3m1!4b1!4m4!3m3!8m2!3d28.269334!4d76.146489?entry=ttu&g_ep=EgoyMDI1MDgwMy4wIKXMDSoASAFQAw%3D%3D"
  },
  {
    "name": "Mela Gate",
    "lat": 26.4908358,
    "lng": 77.0306396,
    "url": "https://www.google.com/maps/place/Mela+Gate/@26.4908358,77.0306396,17z/data=!3m1!4b1!4m6!3m5!1s0x3971860e5f65e67f:0xdd51fe66f13fa84c!8m2!3d26.4908358!4d77.0306396!16s%2Fg%2F1tfvfm69?entry=ttu&g_ep=EgoyMDI1MDgwMy4wIKXMDSoASAFQAw%3D%3D"
  },
  {
    "name": "Kille Dharur Fort",
    "lat": 18.8189095,
    "lng": 76.1036642,
    "url": "https://www.google.com/maps/place/Kille+Dharur+Fort/@18.8189095,76.1036642,17z/data=!3m1!4b1!4m6!3m5!1s0x3bc54790c5248a0f:0x3d14b05579ea5ce4!8m2!3d18.8189095!4d76.1036642!16s%2Fg%2F1tgf675j?entry=ttu&g_ep=EgoyMDI1MDgwNC4wIKXMDSoASAFQAw%3D%3D"
  },
  {
    "name": "Allah udal fort",
    "lat": 44.2423649,
    "lng": -119.8093025,
    "url": "https://www.google.com/maps/place//@44.2423649,-119.8093025,3z/data=!3m1!4b1?entry=ttu&g_ep=EgoyMDI1MDgwMy4wIKXMDSoASAFQAw%3D%3D"
  },
  {
    "name": "Nirmal Fort",
    "lat": 44.2423649,
    "lng": -119.8093025,
    "url": "https://www.google.com/maps/place//@44.2423649,-119.8093025,3z/data=!3m1!4b1?entry=ttu&g_ep=EgoyMDI1MDgwMy4wIKXMDSoASAFQAw%3D%3D"
  },
  {
    "name": "Suvarnadurga Fort",
    "lat": 17.8159553,
    "lng": 73.084429,
    "url": "https://www.google.com/maps/place/Suvarnadurga+Fort/@17.8159553,73.084429,17z/data=!3m1!4b1!4m6!3m5!1s0x3be9b880fbffffff:0x76371152d5c66d1b!8m2!3d17.8159553!4d73.084429!16zL20vMGNqNzNx?entry=ttu&g_ep=EgoyMDI1MDgwMy4wIKXMDSoASAFQAw%3D%3D"
  },
  {
    "name": "Mohangad Fort (Shirgaon Killa)",
    "lat": 18.0776679,
    "lng": 73.6206587,
    "url": "https://www.google.com/maps/place/Mohangad+(Shirgaon+Durg)/@18.0776679,73.6206587,17z/data=!3m1!4b1!4m6!3m5!1s0x3bc27d6dd7b6c4ef:0x8ea38312f307b1fb!8m2!3d18.0776679!4d73.6206587!16s%2Fg%2F11c32nxp8j?entry=ttu&g_ep=EgoyMDI1MDgwNC4wIKXMDSoASAFQAw%3D%3D"
  },
  {
    "name": "City Palace, Karauli",
    "lat": 26.4957206,
    "lng": 77.0299449,
    "url": "https://www.google.com/maps/place/City+Palace,+Karauli/@26.4957206,77.0299449,17z/data=!3m1!4b1!4m6!3m5!1s0x397187272fffafa3:0x1a644fb25452ab7b!8m2!3d26.4957206!4d77.0299449!16s%2Fg%2F11h45s68tq?entry=ttu&g_ep=EgoyMDI1MDgwMy4wIKXMDSoASAFQAw%3D%3D"
  },
  {
    "name": "Chiktan Fort",
    "lat": 34.4579378,
    "lng": 76.5194589,
    "url": "https://www.google.com/maps/place/Chiktan+Fort/@34.4579378,76.5194589,17z/data=!3m1!4b1!4m6!3m5!1s0x38fd2a715b948367:0x504140f82670a905!8m2!3d34.4579378!4d76.5194589!16s%2Fg%2F11c2g111_s?entry=ttu&g_ep=EgoyMDI1MDgwMy4wIKXMDSoASAFQAw%3D%3D"
  },
  {
    "name": "Jinti fort",
    "lat": 18.3155769,
    "lng": 74.8824932,
    "url": "https://www.google.com/maps/place/Jinti+fort/@18.3155769,74.8824932,17z/data=!3m1!4b1!4m6!3m5!1s0x3bc37deaf323f8d7:0x2b9d490ad560b502!8m2!3d18.3155769!4d74.8824932!16s%2Fg%2F11fl0t7s14?entry=ttu&g_ep=EgoyMDI1MDgwMy4wIKXMDSoASAFQAw%3D%3D"
  },
  {
    "name": "Sarsop Fort",
    "lat": 26.1801594,
    "lng": 76.063135,
    "url": "https://www.google.com/maps/place/Sarsop+Fort/@26.1801594,76.063135,17z/data=!3m1!4b1!4m6!3m5!1s0x396e6b3e31ff78e1:0x4a7323e0b0ec11dc!8m2!3d26.1801594!4d76.063135!16s%2Fg%2F11f7spqk24?entry=ttu&g_ep=EgoyMDI1MDgwMy4wIKXMDSoASAFQAw%3D%3D"
  },
  {
    "name": "25\u00b015'12.8\"N 79\u00b034'10.0\"E",
    "lat": 25.253555,
    "lng": 79.56943,
    "url": "https://www.google.com/maps/place/25%C2%B015'12.8%22N+79%C2%B034'10.0%22E/@25.253555,79.56943,17z/data=!3m1!4b1!4m4!3m3!8m2!3d25.253555!4d79.56943?entry=ttu&g_ep=EgoyMDI1MDgwMy4wIKXMDSoASAFQAw%3D%3D"
  },
  {
    "name": "Jawahar Gate Fort",
    "lat": 20.9318383,
    "lng": 77.750052,
    "url": "https://www.google.com/maps/place/Amravati+Fort/@20.9318383,77.750052,17z/data=!3m1!4b1!4m6!3m5!1s0x3bd6a4abc50ac69f:0xce034eaf08839794!8m2!3d20.9318383!4d77.750052!16s%2Fg%2F1tfcrpc8?entry=ttu&g_ep=EgoyMDI1MDgwMy4wIKXMDSoASAFQAw%3D%3D"
  },
  {
    "name": "Lonza Fort, Khandesh (MH)",
    "lat": 20.4206352,
    "lng": 75.204267,
    "url": "https://www.google.com/maps/place/Lonza+Fort,+Khandesh+(MH)/@20.4206352,75.204267,17z/data=!3m1!4b1!4m6!3m5!1s0x3bdbe259acef17a3:0x6e3e6110ec2480a8!8m2!3d20.4206352!4d75.204267!16s%2Fg%2F11d_2ljtxt?entry=ttu&g_ep=EgoyMDI1MDgwMy4wIKXMDSoASAFQAw%3D%3D"
  },
  {
    "name": "Queen Damyanti Museum And Fort",
    "lat": 23.8306211,
    "lng": 79.4420861,
    "url": "https://www.google.com/maps/place/Queen+Damyanti+Museum+And+Fort/@23.8306211,79.4420861,17z/data=!3m1!4b1!4m6!3m5!1s0x39820109816a0bfd:0x8afe121a1933b280!8m2!3d23.8306211!4d79.4420861!16s%2Fg%2F1tdm2424?entry=ttu&g_ep=EgoyMDI1MDgwMy4wIKXMDSoASAFQAw%3D%3D"
  },
  {
    "name": "Gadh Palara",
    "lat": 27.0679904,
    "lng": 74.8390538,
    "url": "https://www.google.com/maps/place/Gadh+Palara/@27.0679904,74.8390538,17z/data=!3m1!4b1!4m6!3m5!1s0x396b8366d12987e5:0x37a167a31f109b59!8m2!3d27.0679904!4d74.8390538!16s%2Fg%2F11qnt46m05?entry=ttu&g_ep=EgoyMDI1MDgwMy4wIKXMDSoASAFQAw%3D%3D"
  },
  {
    "name": "Bahu Fort",
    "lat": 32.7267299,
    "lng": 74.88014,
    "url": "https://www.google.com/maps/place/Bahu+Fort/@32.7267299,74.88014,17z/data=!3m1!4b1!4m6!3m5!1s0x391e839ce0bce7e5:0x293c83dcad682426!8m2!3d32.7267299!4d74.88014!16s%2Fg%2F11m47r65vd?entry=ttu&g_ep=EgoyMDI1MDgwMy4wIKXMDSoASAFQAw%3D%3D"
  },
  {
    "name": "Anjandoh Fort",
    "lat": 18.3527802,
    "lng": 75.0927203,
    "url": "https://www.google.com/maps/place/Anjandoh+Fort/@18.3527802,75.0927203,17z/data=!3m1!4b1!4m6!3m5!1s0x3bc485401d3f5617:0x20edf8043e734502!8m2!3d18.3527802!4d75.0927203!16s%2Fg%2F11skv76xjm?entry=ttu&g_ep=EgoyMDI1MDgwMy4wIKXMDSoASAFQAw%3D%3D"
  },
  {
    "name": "Rajmachi Killa",
    "lat": 18.8313284,
    "lng": 73.3951504,
    "url": "https://www.google.com/maps/place/Rajmachi+Fort/@18.8313284,73.3951504,17z/data=!3m1!4b1!4m6!3m5!1s0x3be7fe3e5f2fc1db:0x570d853467244a2a!8m2!3d18.8313284!4d73.3951504!16s%2Fg%2F11d_29sxwg?entry=ttu&g_ep=EgoyMDI1MDgwMy4wIKXMDSoASAFQAw%3D%3D"
  },
  {
    "name": "Sayajirao Gaikwad Wada",
    "lat": 18.7881784,
    "lng": 73.9577411,
    "url": "https://www.google.com/maps/place/%E0%A4%B6%E0%A5%8D%E0%A4%B0%E0%A5%80%E0%A4%AE%E0%A4%82%E0%A4%A4+%E0%A4%97%E0%A4%BE%E0%A4%AF%E0%A4%95%E0%A4%B5%E0%A4%BE%E0%A4%A1+%E0%A4%B8%E0%A4%B0%E0%A4%95%E0%A4%BE%E0%A4%B0+%E0%A4%A6%E0%A5%81%E0%A4%B0%E0%A5%8D%E0%A4%97/@18.7881784,73.9577411,17z/data=!3m1!4b1!4m6!3m5!1s0x3bc2cd97815edf69:0xf2e20671100baa86!8m2!3d18.7881784!4d73.9577411!16s%2Fg%2F11sf5jrvt7?entry=ttu&g_ep=EgoyMDI1MDgwMy4wIKXMDSoASAFQAw%3D%3D"
  },
  {
    "name": "Vasota Fort",
    "lat": 17.7338451,
    "lng": 73.7590369,
    "url": "https://www.google.com/maps/place/Vasota+Fort+Jungle+trekking+and+Camping/@17.7338451,73.7590369,17z/data=!3m1!4b1!4m6!3m5!1s0x3bc21235bd01d97b:0xc852f64e86d8119d!8m2!3d17.7338451!4d73.7590369!16s%2Fm%2F043lv0m?entry=ttu&g_ep=EgoyMDI1MDgwMy4wIKXMDSoASAFQAw%3D%3D"
  },
  {
    "name": "Sugira fort mahoba",
    "lat": 25.3405253,
    "lng": 79.6082465,
    "url": "https://www.google.com/maps/place/Sugira+fort+mahoba/@25.3405253,79.6082465,17z/data=!3m1!4b1!4m6!3m5!1s0x399d4d27446c9b53:0x16f096a8997d25d8!8m2!3d25.3405253!4d79.6082465!16s%2Fg%2F11hzblh7f0?entry=ttu&g_ep=EgoyMDI1MDgwNC4wIKXMDSoASAFQAw%3D%3D"
  },
  {
    "name": "Domri fort",
    "lat": 18.8990264,
    "lng": 75.556509,
    "url": "https://www.google.com/maps/place/Domri+fort/@18.8990264,75.556509,17z/data=!3m1!4b1!4m6!3m5!1s0x3bc4d1c73913bfe5:0x5c227f179c1d2885!8m2!3d18.8990264!4d75.556509!16s%2Fg%2F11nt3mv3tb?entry=ttu&g_ep=EgoyMDI1MDgwMy4wIKXMDSoASAFQAw%3D%3D"
  },
  {
    "name": "SHYAM GHAD FORT",
    "lat": 19.0778991,
    "lng": 78.3470646,
    "url": "https://www.google.com/maps/place/SHYAM+GHAD+FORT/@19.0778991,78.3470646,17z/data=!3m1!4b1!4m6!3m5!1s0x3bcd8c5d809a2a89:0xb1b9de0facbce58a!8m2!3d19.0778991!4d78.3470646!16s%2Fg%2F1tf_fw8n?entry=ttu&g_ep=EgoyMDI1MDgwMy4wIKXMDSoASAFQAw%3D%3D"
  },
  {
    "name": "Jasmergarh Fort Hiranagar",
    "lat": 32.4620442,
    "lng": 75.2586212,
    "url": "https://www.google.com/maps/place/Jasmergarh+Fort+Hiranagar/@32.4620442,75.2586212,17z/data=!3m1!4b1!4m6!3m5!1s0x391c13e32a9e60d1:0x57166f2280d5c133!8m2!3d32.4620442!4d75.2586212!16s%2Fg%2F1tg4jsbt?entry=ttu&g_ep=EgoyMDI1MDgwMy4wIKXMDSoASAFQAw%3D%3D"
  },
  {
    "name": "Sarwar Fort",
    "lat": 26.0583916,
    "lng": 75.0074765,
    "url": "https://www.google.com/maps/place/Sarwar+Fort/@26.0583916,75.0074765,17z/data=!3m1!4b1!4m6!3m5!1s0x396eb4fc09fa7b29:0x2f3f0f7cc2c508d1!8m2!3d26.0583916!4d75.0074765!16s%2Fg%2F11b_23ww9b?entry=ttu&g_ep=EgoyMDI1MDgwNC4wIKXMDSoASAFQAw%3D%3D"
  },
  {
    "name": "Isarda Fort",
    "lat": 26.1563303,
    "lng": 76.0281228,
    "url": "https://www.google.com/maps/place/Isarda+Fort/@26.1563303,76.0281228,17z/data=!3m1!4b1!4m6!3m5!1s0x396e6a52aef83b8b:0x44b95c0e599ae759!8m2!3d26.1563303!4d76.0281228!16s%2Fg%2F11fz9dy53s?entry=ttu&g_ep=EgoyMDI1MDgwMy4wIKXMDSoASAFQAw%3D%3D"
  },
  {
    "name": "Gadi Aai Temple (Ancient Lakshmi-Narayan temple)",
    "lat": 18.8300858,
    "lng": 74.8275926,
    "url": "https://www.google.com/maps/place/Gadi+Aai+Temple+(Ancient+Lakshmi-Narayan+temple)/@18.8300858,74.8275926,17z/data=!3m1!4b1!4m6!3m5!1s0x3bc35177deeaaaab:0x9a0f1975b7476e3b!8m2!3d18.8300858!4d74.8275926!16s%2Fg%2F11tgg7mbjw?entry=ttu&g_ep=EgoyMDI1MDgwMy4wIKXMDSoASAFQAw%3D%3D"
  },
  {
    "name": "Old Fort Temple Dhaurra",
    "lat": 25.2135585,
    "lng": 78.6229574,
    "url": "https://www.google.com/maps/place/Old+Fort+Temple+Dhaurra/@25.2135585,78.6229574,17z/data=!3m1!4b1!4m6!3m5!1s0x3979d5baff38a333:0xdb6ee33438066781!8m2!3d25.2135585!4d78.6229574!16s%2Fg%2F11j1zrkn4l?entry=ttu&g_ep=EgoyMDI1MDgwNC4wIKXMDSoASAFQAw%3D%3D"
  },
  {
    "name": "Makrandgad",
    "lat": 17.849486,
    "lng": 73.6048472,
    "url": "https://www.google.com/maps/place/Makrandgad/@17.849486,73.6048472,17z/data=!3m1!4b1!4m6!3m5!1s0x3bc27174b4486df7:0xc1b9b8c8a86d886d!8m2!3d17.849486!4d73.6048472!16s%2Fg%2F11fxxw4d2s?entry=ttu&g_ep=EgoyMDI1MDgwMy4wIKXMDSoASAFQAw%3D%3D"
  },
  {
    "name": "Bija Nagar Fort",
    "lat": 25.2996687,
    "lng": 79.9183357,
    "url": "https://www.google.com/maps/place/Bija+Nagar+Fort/@25.2996687,79.9183357,17z/data=!3m1!4b1!4m6!3m5!1s0x3982cd6cad220c9f:0xb0d687e7d2078cda!8m2!3d25.2996687!4d79.9183357!16s%2Fg%2F11h4g0x7g1?entry=ttu&g_ep=EgoyMDI1MDgwMy4wIKXMDSoASAFQAw%3D%3D"
  },
  {
    "name": "Torna Fort",
    "lat": 18.2760716,
    "lng": 73.622717,
    "url": "https://www.google.com/maps/place/Torna+Fort/@18.2760716,73.622717,15z/data=!3m1!4b1!4m6!3m5!1s0x3bc285339f7d68b3:0x44efeafa7cda7673!8m2!3d18.276072!4d73.622717!16s%2Fg%2F1hc8wpzqk?entry=ttu&g_ep=EgoyMDI1MDgwNC4wIKXMDSoASAFQAw%3D%3D"
  },
  {
    "name": "Badnore Fort",
    "lat": 25.8395556,
    "lng": 74.2793664,
    "url": "https://www.google.com/maps/place/Badnore+Fort/@25.8395556,74.2793664,17z/data=!3m1!4b1!4m6!3m5!1s0x39690bdf51ea3b47:0x1e3b017acc2d22c2!8m2!3d25.8395556!4d74.2793664!16s%2Fg%2F11cmr0cfft?entry=ttu&g_ep=EgoyMDI1MDgwMy4wIKXMDSoASAFQAw%3D%3D"
  },
  {
    "name": "Karjai Fort",
    "lat": 33.3922332,
    "lng": 74.0654629,
    "url": "https://www.google.com/maps/place/Karjai+Fort+%D9%82%D9%84%D8%B9%DB%81+%DA%A9%D8%B1%D8%AC%D8%A7%D8%A6%DB%8C%E2%80%AD/@33.3922332,74.0654629,17z/data=!3m1!4b1!4m6!3m5!1s0x391fd725527ede6f:0x5d5cacc6841598cb!8m2!3d33.3922332!4d74.0654629!16s%2Fg%2F11g6j759v_?entry=ttu&g_ep=EgoyMDI1MDgwMy4wIKXMDSoASAFQAw%3D%3D"
  },
  {
    "name": "Bhaderwah Fort",
    "lat": 32.9762875,
    "lng": 75.7114059,
    "url": "https://www.google.com/maps/place/Bhaderwah+Fort/@32.9762875,75.7114059,17z/data=!3m1!4b1!4m6!3m5!1s0x391dab51ef12c993:0xeb94b4fa93c4cf2e!8m2!3d32.9762875!4d75.7114059!16s%2Fg%2F11j21x91bd?entry=ttu&g_ep=EgoyMDI1MDgwMy4wIKXMDSoASAFQAw%3D%3D"
  },
  {
    "name": "Jadhav Fort, Chikhali",
    "lat": 18.684633,
    "lng": 73.8160827,
    "url": "https://www.google.com/maps/place/Jadhav+Fort,+Chikhali/@18.684633,73.8160827,17z/data=!3m1!4b1!4m6!3m5!1s0x3bc2b794fd6aaaab:0x8337ec1d243dbac!8m2!3d18.684633!4d73.8160827!16s%2Fg%2F11fxb7zk_h?entry=ttu&g_ep=EgoyMDI1MDgwMy4wIKXMDSoASAFQAw%3D%3D"
  },
  {
    "name": "Raikot Fort, Kanhadesh (MH)",
    "lat": 21.1432763,
    "lng": 74.0847423,
    "url": "https://www.google.com/maps/place/Raikot+Fort,+Khandesh+(MH)/@21.1432763,74.0847423,17z/data=!3m1!4b1!4m6!3m5!1s0x3bdfac56f4210581:0xc4a2c2bc5e98fb89!8m2!3d21.1432763!4d74.0847423!16s%2Fg%2F11bycg93fs?entry=ttu&g_ep=EgoyMDI1MDgwMy4wIKXMDSoASAFQAw%3D%3D"
  },
  {
    "name": "Banpur Fort",
    "lat": 24.7123566,
    "lng": 78.7428457,
    "url": "https://www.google.com/maps/place/Banpur+Fort/@24.7123566,78.7428457,17z/data=!3m1!4b1!4m6!3m5!1s0x39784dd46f78393d:0x1602c425b9e403c8!8m2!3d24.7123566!4d78.7428457!16s%2Fg%2F11c7076gv1?entry=ttu&g_ep=EgoyMDI1MDgwMy4wIKXMDSoASAFQAw%3D%3D"
  },
  {
    "name": "Mandavgan Fort",
    "lat": 18.831811,
    "lng": 74.8295467,
    "url": "https://www.google.com/maps/place/Mandavgan+Fort/@18.831811,74.8295467,17z/data=!3m1!4b1!4m6!3m5!1s0x3bc3518101d2a1f1:0xe87c815b98685339!8m2!3d18.831811!4d74.8295467!16s%2Fg%2F11fl0szmdm?entry=ttu&g_ep=EgoyMDI1MDgwMy4wIKXMDSoASAFQAw%3D%3D"
  },
  {
    "name": "Mahadev Mandir",
    "lat": 16.7873516,
    "lng": 74.630816,
    "url": "https://www.google.com/maps/place/Mahadev+Mandir/@16.7873516,74.630816,17z/data=!3m1!4b1!4m6!3m5!1s0x3bc121852cca8fc3:0x9d205f79ca23933c!8m2!3d16.7873516!4d74.630816!16s%2Fg%2F12cpqrwvw?entry=ttu&g_ep=EgoyMDI1MDgwNC4wIKXMDSoASAFQAw%3D%3D"
  },
  {
    "name": "Fort Kaliyas",
    "lat": 25.6764456,
    "lng": 74.5056976,
    "url": "https://www.google.com/maps/place/Fort+Kaliyas/@25.6764456,74.5056976,17z/data=!3m1!4b1!4m6!3m5!1s0x3969195556bda679:0xb42a2d284c47aa7a!8m2!3d25.6764456!4d74.5056976!16s%2Fg%2F11hzr59djh?entry=ttu&g_ep=EgoyMDI1MDgwMy4wIKXMDSoASAFQAw%3D%3D"
  },
  {
    "name": "Umred Fort",
    "lat": 20.8578133,
    "lng": 79.319331,
    "url": "https://www.google.com/maps/place/Umred+Fort/@20.8578133,79.319331,17z/data=!3m1!4b1!4m6!3m5!1s0x3bd4ac76913bf1f9:0x56b37b820778ded4!8m2!3d20.8578133!4d79.319331!16s%2Fg%2F11cmyt_gyw?entry=ttu&g_ep=EgoyMDI1MDgwMy4wIKXMDSoASAFQAw%3D%3D"
  },
  {
    "name": "Hari Parbat",
    "lat": 34.1058062,
    "lng": 74.8165049,
    "url": "https://www.google.com/maps/place/Hari+Parbat/@34.1058062,74.8165049,17z/data=!3m1!4b1!4m6!3m5!1s0x38e185726f612dbd:0x3ab1516f0503ffb6!8m2!3d34.1058062!4d74.8165049!16s%2Fm%2F026ycpr?entry=ttu&g_ep=EgoyMDI1MDgwMy4wIKXMDSoASAFQAw%3D%3D"
  },
  {
    "name": "Old Fort bakswaha",
    "lat": 24.2527611,
    "lng": 79.2829787,
    "url": "https://www.google.com/maps/place/Old+Fort+bakswaha/@24.2527611,79.2829787,17z/data=!3m1!4b1!4m6!3m5!1s0x39789b68b294eacd:0x982b6d4dc152d70f!8m2!3d24.2527611!4d79.2829787!16s%2Fg%2F11qz4bltnv?entry=ttu&g_ep=EgoyMDI1MDgwMy4wIKXMDSoASAFQAw%3D%3D"
  },
  {
    "name": "Raigad Fort",
    "lat": 18.2334679,
    "lng": 73.4406903,
    "url": "https://www.google.com/maps/place/Raigad+Fort/@18.2334679,73.4406903,17z/data=!3m1!4b1!4m6!3m5!1s0x3be8283eb38b1ce5:0xfc31826ad34a5b70!8m2!3d18.2334679!4d73.4406903!16zL20vMDQwbDdn?entry=ttu&g_ep=EgoyMDI1MDgwMy4wIKXMDSoASAFQAw%3D%3D"
  },
  {
    "name": "vambori fort",
    "lat": 19.2917285,
    "lng": 74.7329621,
    "url": "https://www.google.com/maps/place/vambori+fort/@19.2917285,74.7329621,17z/data=!3m1!4b1!4m6!3m5!1s0x3bdcbda1a0ceb9c1:0xacfc42d4a08031ba!8m2!3d19.2917285!4d74.7329621!16s%2Fg%2F11h718gh01?entry=ttu&g_ep=EgoyMDI1MDgwMy4wIKXMDSoASAFQAw%3D%3D"
  },
  {
    "name": "Shiva temple",
    "lat": 9.5365452,
    "lng": 78.2068393,
    "url": "https://www.google.com/maps/place/Shiva+temple/@9.5365452,78.2068393,17z/data=!3m1!4b1!4m6!3m5!1s0x3b01235969286e89:0x977ff6224091d14b!8m2!3d9.5365452!4d78.2068393!16s%2Fg%2F1hm5fc76j?entry=ttu&g_ep=EgoyMDI1MDgwNC4wIKXMDSoASAFQAw%3D%3D"
  },
  {
    "name": "Lohgad Fort",
    "lat": 18.7072604,
    "lng": 73.4778285,
    "url": "https://www.google.com/maps/place/Lohgad+Fort/@18.7072604,73.4778285,17z/data=!3m1!4b1!4m6!3m5!1s0x3bc2a9e6015c05c3:0x9fc1499824758194!8m2!3d18.7072604!4d73.4778285!16s%2Fg%2F12vr6xcyy?entry=ttu&g_ep=EgoyMDI1MDgwMy4wIKXMDSoASAFQAw%3D%3D"
  },
  {
    "name": "Tonkarwad Fort",
    "lat": 25.7723123,
    "lng": 74.5816698,
    "url": "https://www.google.com/maps/place/Tonkarwad+Fort/@25.7723123,74.5816698,17z/data=!3m1!4b1!4m6!3m5!1s0x3969180335aaf8f3:0xb4fee9f9eb280413!8m2!3d25.7723123!4d74.5816698!16s%2Fg%2F11btx0gh38?entry=ttu&g_ep=EgoyMDI1MDgwMy4wIKXMDSoASAFQAw%3D%3D"
  },
  {
    "name": "Koshak Mahal",
    "lat": 24.699753,
    "lng": 78.1068455,
    "url": "https://www.google.com/maps/place/Koshak+Mahal/@24.699753,78.1068455,17z/data=!3m1!4b1!4m6!3m5!1s0x39798e1cec3ed14d:0x90f20e3f70af4c50!8m2!3d24.699753!4d78.1068455!16s%2Fg%2F11byn070rv?entry=ttu&g_ep=EgoyMDI1MDgwNC4wIKXMDSoASAFQAw%3D%3D"
  },
  {
    "name": "Karnot fort",
    "lat": 26.1659344,
    "lng": 72.4475055,
    "url": "https://www.google.com/maps/place/Karnot+fort/@26.1659344,72.4475055,17z/data=!3m1!4b1!4m6!3m5!1s0x3941636ef97a7235:0xdd54c67598a2af8a!8m2!3d26.1659344!4d72.4475055!16s%2Fg%2F11t2t2nyyc?entry=ttu&g_ep=EgoyMDI1MDgwMy4wIKXMDSoASAFQAw%3D%3D"
  },
  {
    "name": "25\u00b036'56.0\"N 79\u00b010'26.2\"E",
    "lat": 25.615562,
    "lng": 79.17395,
    "url": "https://www.google.com/maps/place/25%C2%B036'56.0%22N+79%C2%B010'26.2%22E/@25.615562,79.17395,17z/data=!3m1!4b1!4m4!3m3!8m2!3d25.615562!4d79.17395?entry=ttu&g_ep=EgoyMDI1MDgwMy4wIKXMDSoASAFQAw%3D%3D"
  },
  {
    "name": "Devanahalli Fort",
    "lat": 13.2494611,
    "lng": 77.7090517,
    "url": "https://www.google.com/maps/place/Devanahalli+Fort/@13.2494611,77.7090517,17z/data=!3m1!4b1!4m6!3m5!1s0x3bb1e2837ed0d3bb:0x4def231b4f72ea6d!8m2!3d13.2494611!4d77.7090517!16s%2Fm%2F05c2cnr?entry=ttu&g_ep=EgoyMDI1MDgwMy4wIKXMDSoASAFQAw%3D%3D"
  },
  {
    "name": "Kishangarh fortress",
    "lat": 24.5887967,
    "lng": 79.6426211,
    "url": "https://www.google.com/maps/place/Kishangarh+fortress/@24.5887967,79.6426211,17z/data=!3m1!4b1!4m6!3m5!1s0x3982891ece148405:0x802940818ac1fc52!8m2!3d24.5887967!4d79.6426211!16s%2Fg%2F11nl9gl98m?entry=ttu&g_ep=EgoyMDI1MDgwMy4wIKXMDSoASAFQAw%3D%3D"
  },
  {
    "name": "Rashin Fort",
    "lat": 18.4381424,
    "lng": 74.9221061,
    "url": "https://www.google.com/maps/place/Rashin+Fort/@18.4381424,74.9221061,17z/data=!3m1!4b1!4m6!3m5!1s0x3bc3632d6f24d3d5:0xb9bb34c3b756d8ed!8m2!3d18.4381424!4d74.9221061!16s%2Fg%2F11h18zl7sj?entry=ttu&g_ep=EgoyMDI1MDgwMy4wIKXMDSoASAFQAw%3D%3D"
  },
  {
    "name": "Guruswamy Temple",
    "lat": 9.4464355,
    "lng": 77.5558489,
    "url": "https://www.google.com/maps/place/Guruswamy+Temple/@9.4464355,77.5558489,17z/data=!3m1!4b1!4m6!3m5!1s0x3b06e9d0ce80087f:0xa6c226799fbef6c6!8m2!3d9.4464355!4d77.5558489!16s%2Fg%2F11c2lfzypq?entry=ttu&g_ep=EgoyMDI1MDgwMy4wIKXMDSoASAFQAw%3D%3D"
  },
  {
    "name": "25\u00b024'39.5\"N 79\u00b004'47.9\"E",
    "lat": 25.410957,
    "lng": 79.079968,
    "url": "https://www.google.com/maps/place/25%C2%B024'39.5%22N+79%C2%B004'47.9%22E/@25.410957,79.079968,17z/data=!3m1!4b1!4m4!3m3!8m2!3d25.410957!4d79.079968?entry=ttu&g_ep=EgoyMDI1MDgwNC4wIKXMDSoASAFQAw%3D%3D"
  },
  {
    "name": "Shisupal Fort Ruins",
    "lat": 24.8074775,
    "lng": 78.0788017,
    "url": "https://www.google.com/maps/place/King+Shisupal+Fort+Ruins/@24.8074775,78.0788017,17z/data=!3m1!4b1!4m6!3m5!1s0x3979f2cd07c3906d:0xdbd94cbe4d125be8!8m2!3d24.8074775!4d78.0788017!16s%2Fg%2F11f4kvv8kq?entry=ttu&g_ep=EgoyMDI1MDgwMy4wIKXMDSoASAFQAw%3D%3D"
  },
  {
    "name": "Mehru Fort",
    "lat": 25.7662156,
    "lng": 75.1451248,
    "url": "https://www.google.com/maps/place/Mehru+Fort/@25.7662156,75.1451248,17z/data=!3m1!4b1!4m6!3m5!1s0x396ed0a2850cbbab:0xf96ca035f87c6756!8m2!3d25.7662156!4d75.1451248!16s%2Fg%2F11f106zw7l?entry=ttu&g_ep=EgoyMDI1MDgwMy4wIKXMDSoASAFQAw%3D%3D"
  },
  {
    "name": "Kolkewadi Fort",
    "lat": 17.4887223,
    "lng": 73.6847234,
    "url": "https://www.google.com/maps/place/Kolkewadi+Durg/@17.4887223,73.6847234,17z/data=!3m1!4b1!4m6!3m5!1s0x3bc21b1e0ebddc3d:0x5936780268a619a8!8m2!3d17.4887223!4d73.6847234!16s%2Fg%2F11b6gnhsr0?entry=ttu&g_ep=EgoyMDI1MDgwMy4wIKXMDSoASAFQAw%3D%3D"
  },
  {
    "name": "Rao Dudagarh kila",
    "lat": 26.6479457,
    "lng": 74.0324359,
    "url": "https://www.google.com/maps/place/Rao+Dudagarh+kila/@26.6479457,74.0324359,17z/data=!3m1!4b1!4m6!3m5!1s0x396a49bd91d48cf3:0xce5ed3c5802f35fe!8m2!3d26.6479457!4d74.0324359!16s%2Fg%2F11t3gd4gn3?entry=ttu&g_ep=EgoyMDI1MDgwMy4wIKXMDSoASAFQAw%3D%3D"
  },
  {
    "name": "Savadatti fort",
    "lat": 15.7680109,
    "lng": 75.1131606,
    "url": "https://www.google.com/maps/place/Savadatti+fort/@15.7680109,75.1131606,17z/data=!3m1!4b1!4m6!3m5!1s0x3bb8b0e351893c63:0xbb8e5c9195f35aa1!8m2!3d15.7680109!4d75.1131606!16s%2Fg%2F11cnc8zlnx?entry=ttu&g_ep=EgoyMDI1MDgwMy4wIKXMDSoASAFQAw%3D%3D"
  },
  {
    "name": "25\u00b048'34.3\"N 80\u00b045'48.8\"E",
    "lat": 25.809526,
    "lng": 80.763566,
    "url": "https://www.google.com/maps/place/25%C2%B048'34.3%22N+80%C2%B045'48.8%22E/@25.809526,80.763566,17z/data=!3m1!4b1!4m4!3m3!8m2!3d25.809526!4d80.763566?entry=ttu&g_ep=EgoyMDI1MDgwMy4wIKXMDSoASAFQAw%3D%3D"
  },
  {
    "name": "Darikhana Babra Fort",
    "lat": 44.2423649,
    "lng": -119.8093025,
    "url": "https://www.google.com/maps/place//@44.2423649,-119.8093025,3z/data=!3m1!4b1?entry=ttu&g_ep=EgoyMDI1MDgwNC4wIKXMDSoASAFQAw%3D%3D"
  },
  {
    "name": "The Sujanpur Tira fort",
    "lat": 31.8287265,
    "lng": 76.5121988,
    "url": "https://www.google.com/maps/place/The+Sujanpur+Tira+fort/@31.8287265,76.5121988,17z/data=!3m1!4b1!4m6!3m5!1s0x3904cd44137ec78b:0x25a356f92acc7251!8m2!3d31.8287265!4d76.5121988!16s%2Fg%2F11fk8zty09?entry=ttu&g_ep=EgoyMDI1MDgwMy4wIKXMDSoASAFQAw%3D%3D"
  },
  {
    "name": "Karmala Fort",
    "lat": 18.4085075,
    "lng": 75.191233,
    "url": "https://www.google.com/maps/place/Karmala+Fort/@18.4085075,75.191233,17z/data=!3m1!4b1!4m6!3m5!1s0x3bc48fd7f1cd4979:0x714c314d9d8aa5ce!8m2!3d18.4085075!4d75.191233!16s%2Fg%2F1tt1r43z?entry=ttu&g_ep=EgoyMDI1MDgwMy4wIKXMDSoASAFQAw%3D%3D"
  },
  {
    "name": "Ahiwant Fort",
    "lat": 20.4138256,
    "lng": 73.8500859,
    "url": "https://www.google.com/maps/place/Ahivant+Fort/@20.4138256,73.8500859,17z/data=!3m1!4b1!4m6!3m5!1s0x3bde7591db221a3f:0x39f814b2bb77ac9d!8m2!3d20.4138256!4d73.8500859!16s%2Fg%2F11d_txhzhs?entry=ttu&g_ep=EgoyMDI1MDgwMy4wIKXMDSoASAFQAw%3D%3D"
  },
  {
    "name": "\u0916\u0947\u0921\u093c\u093e\u0935\u093e\u0921\u093e \u0930\u093f\u092f\u093e\u0938\u0924(Ruined)",
    "lat": 23.6303211,
    "lng": 72.8484009,
    "url": "https://www.google.com/maps/place/%E0%A4%96%E0%A5%87%E0%A4%A1%E0%A4%BC%E0%A4%BE%E0%A4%B5%E0%A4%BE%E0%A4%A1%E0%A4%BE+%E0%A4%B0%E0%A4%BF%E0%A4%AF%E0%A4%BE%E0%A4%B8%E0%A4%A4(Ruined)/@23.6303211,72.8484009,17z/data=!3m1!4b1!4m6!3m5!1s0x395db763a3c24c21:0x19bb500c08baa445!8m2!3d23.6303211!4d72.8484009!16s%2Fg%2F11s9dnlh2t?entry=ttu&g_ep=EgoyMDI1MDgwMy4wIKXMDSoASAFQAw%3D%3D"
  },
  {
    "name": "Kotla Fort",
    "lat": 27.2739625,
    "lng": 78.4604531,
    "url": "https://www.google.com/maps/place/Kotla+Fort/@27.2739625,78.4604531,17z/data=!3m1!4b1!4m6!3m5!1s0x39745b79295082ab:0xbb4e08a267aa527d!8m2!3d27.2739625!4d78.4604531!16s%2Fg%2F11h4ckl_q7?entry=ttu&g_ep=EgoyMDI1MDgwMy4wIKXMDSoASAFQAw%3D%3D"
  },
  {
    "name": "Chunar Fort",
    "lat": 25.1233625,
    "lng": 82.8757344,
    "url": "https://www.google.com/maps/place/Chunar+Fort/@25.1233625,82.8757344,17z/data=!3m1!4b1!4m6!3m5!1s0x398fca9ab966d9b7:0xe7373052fefe2f1d!8m2!3d25.1233625!4d82.8757344!16s%2Fm%2F0nd2yrt?entry=ttu&g_ep=EgoyMDI1MDgwNC4wIKXMDSoASAFQAw%3D%3D"
  },
  {
    "name": "Gandikota Fort",
    "lat": 14.8150367,
    "lng": 78.2831132,
    "url": "https://www.google.com/maps/place/Gandikota+Fort,+Gandikota,+Andhra+Pradesh+516434,+India/@14.8150367,78.2831132,16z/data=!3m1!4b1!4m6!3m5!1s0x3bb40b5068eab881:0xbafcf0fa4c6e29c7!8m2!3d14.8146912!4d78.2832069!16s%2Fg%2F12jf3b64m?entry=ttu&g_ep=EgoyMDI1MDgwMy4wIKXMDSoASAFQAw%3D%3D"
  },
  {
    "name": "Kamlahgarh",
    "lat": 31.8097201,
    "lng": 76.6715803,
    "url": "https://www.google.com/maps/place/Kamlahgarh,+Himachal+Pradesh+175050,+India/@31.8097201,76.6715803,16z/data=!3m1!4b1!4m6!3m5!1s0x3904dad934fc4971:0x1f10ed28bd694430!8m2!3d31.8104588!4d76.672313!16s%2Fg%2F1thnm4mw?entry=ttu&g_ep=EgoyMDI1MDgwMy4wIKXMDSoASAFQAw%3D%3D"
  },
  {
    "name": "Sahangad Fort \u0938\u093e\u0928\u0917\u0921\u0940 \u0915\u093f\u0932\u094d\u0932\u093e",
    "lat": 20.967551,
    "lng": 79.9757963,
    "url": "https://www.google.com/maps/place/Sahangad+Fort/@20.967551,79.9757963,17z/data=!3m1!4b1!4m6!3m5!1s0x3a2b7a6887bb63cf:0x1a5bced6fb81b604!8m2!3d20.967551!4d79.9757963!16s%2Fg%2F11b7q1zq4b?entry=ttu&g_ep=EgoyMDI1MDgwMy4wIKXMDSoASAFQAw%3D%3D"
  },
  {
    "name": "Mithri Fort",
    "lat": 27.0484799,
    "lng": 74.8940318,
    "url": "https://www.google.com/maps/place/Mithari+Fort/@27.0484799,74.8940318,17z/data=!3m1!4b1!4m6!3m5!1s0x396b81747b285fb3:0x92edb9a227ba8a2d!8m2!3d27.0484799!4d74.8940318!16s%2Fg%2F11f0_chnw9?entry=ttu&g_ep=EgoyMDI1MDgwMy4wIKXMDSoASAFQAw%3D%3D"
  },
  {
    "name": "25\u00b007'36.3\"N 80\u00b042'12.0\"E",
    "lat": 25.126757,
    "lng": 80.703327,
    "url": "https://www.google.com/maps/place/25%C2%B007'36.3%22N+80%C2%B042'12.0%22E/@25.126757,80.703327,17z/data=!3m1!4b1!4m4!3m3!8m2!3d25.126757!4d80.703327?entry=ttu&g_ep=EgoyMDI1MDgwMy4wIKXMDSoASAFQAw%3D%3D"
  },
  {
    "name": "Ita Fort",
    "lat": 27.0921598,
    "lng": 93.6317841,
    "url": "https://www.google.com/maps/place/Ita+Fort/@27.0921598,93.6317841,17z/data=!3m1!4b1!4m6!3m5!1s0x374407100382fe93:0x6114dca6ee87e53d!8m2!3d27.0921598!4d93.6317841!16s%2Fm%2F0j7j30s?entry=ttu&g_ep=EgoyMDI1MDgwMy4wIKXMDSoASAFQAw%3D%3D"
  },
  {
    "name": "Srimant Thorle Bajirao Peshve Birth Place",
    "lat": 19.7801492,
    "lng": 73.9742813,
    "url": "https://www.google.com/maps/place/Srimant+Thorle+Bajirao+Peshve+Birth+Place,Dubere/@19.7801492,73.9742813,17z/data=!3m1!4b1!4m6!3m5!1s0x3bdda4d175dd8c33:0x6de7f7df55ffc428!8m2!3d19.7801492!4d73.9742813!16s%2Fg%2F1ydpv9lk4?entry=ttu&g_ep=EgoyMDI1MDgwMy4wIKXMDSoASAFQAw%3D%3D"
  },
  {
    "name": "Challapalli Rajavari Fort",
    "lat": 16.1154269,
    "lng": 80.9295195,
    "url": "https://www.google.com/maps/place/Challapalli+Rajavari+Fort/@16.1154269,80.9295195,17z/data=!3m1!4b1!4m6!3m5!1s0x3a49f0e51da3785b:0xae6368d8a89eca50!8m2!3d16.1154269!4d80.9295195!16s%2Fg%2F1tfnw_yd?entry=ttu&g_ep=EgoyMDI1MDgwMy4wIKXMDSoASAFQAw%3D%3D"
  },
  {
    "name": "Raghupur Fort",
    "lat": 44.2423649,
    "lng": -119.8093025,
    "url": "https://www.google.com/maps/place//@44.2423649,-119.8093025,3z/data=!3m1!4b1?entry=ttu&g_ep=EgoyMDI1MDgwNC4wIKXMDSoASAFQAw%3D%3D"
  },
  {
    "name": "24\u00b019'00.1\"N 80\u00b058'40.2\"E",
    "lat": 24.316702,
    "lng": 80.977827,
    "url": "https://www.google.com/maps/place/24%C2%B019'00.1%22N+80%C2%B058'40.2%22E/@24.316702,80.977827,17z/data=!3m1!4b1!4m4!3m3!8m2!3d24.316702!4d80.977827?entry=ttu&g_ep=EgoyMDI1MDgwMy4wIKXMDSoASAFQAw%3D%3D"
  },
  {
    "name": "Vandangad Fort",
    "lat": 17.8382262,
    "lng": 74.0347674,
    "url": "https://www.google.com/maps/place/Vandan+Fort/@17.8382262,74.0347674,17z/data=!3m1!4b1!4m6!3m5!1s0x3bc2498114e2007d:0x6a61e337cd5da1de!8m2!3d17.8382262!4d74.0347674!16s%2Fg%2F11fcr4m9h9?entry=ttu&g_ep=EgoyMDI1MDgwMy4wIKXMDSoASAFQAw%3D%3D"
  },
  {
    "name": "Kotri Fort",
    "lat": 26.8996155,
    "lng": 74.8848617,
    "url": "https://www.google.com/maps/place/Kotri+Fort/@26.8996155,74.8848617,17z/data=!3m1!4b1!4m6!3m5!1s0x396b88b08e2954ff:0x1092714005968057!8m2!3d26.8996155!4d74.8848617!16s%2Fg%2F11gb3n6d9k?entry=ttu&g_ep=EgoyMDI1MDgwMy4wIKXMDSoASAFQAw%3D%3D"
  },
  {
    "name": "Samarra Fort",
    "lat": 24.9471362,
    "lng": 79.2550282,
    "url": "https://www.google.com/maps/place/Samarra+Fort/@24.9471362,79.2550282,17z/data=!3m1!4b1!4m6!3m5!1s0x39780df5a1187fdf:0x9f75abf44790466!8m2!3d24.9471362!4d79.2550282!16s%2Fg%2F11jblfdp7l?entry=ttu&g_ep=EgoyMDI1MDgwMy4wIKXMDSoASAFQAw%3D%3D"
  },
  {
    "name": "Bhongir Fort",
    "lat": 17.5156706,
    "lng": 78.892661,
    "url": "https://www.google.com/maps/place/Bhuvanagiri+Fort/@17.5156706,78.892661,17z/data=!3m1!4b1!4m6!3m5!1s0x3bcb290aa8dce79b:0x65d37d397b7aad88!8m2!3d17.5156706!4d78.892661!16s%2Fg%2F1pxxvdpk2?entry=ttu&g_ep=EgoyMDI1MDgwMy4wIKXMDSoASAFQAw%3D%3D"
  },
  {
    "name": "Navrang Darwaza Fort",
    "lat": 16.2070773,
    "lng": 77.3524839,
    "url": "https://www.google.com/maps/place/Navrang+Darwaza+Fort/@16.2070773,77.3524839,17z/data=!3m1!4b1!4m6!3m5!1s0x3bc9d70c7e510ba1:0xed1449fa120ef004!8m2!3d16.2070773!4d77.3524839!16s%2Fg%2F11g6my703n?entry=ttu&g_ep=EgoyMDI1MDgwMy4wIKXMDSoASAFQAw%3D%3D"
  },
  {
    "name": "PAUNI DARSHAN(Pawan Raja Fort & Kashi of vidharbha)",
    "lat": 20.787554,
    "lng": 79.6336538,
    "url": "https://www.google.com/maps/place/Pauni+Fort/@20.787554,79.6336538,17z/data=!3m1!4b1!4m6!3m5!1s0x3a2b58a47eba0157:0xcea29759790d7fb2!8m2!3d20.787554!4d79.6336538!16s%2Fg%2F11c7ss9vsd?entry=ttu&g_ep=EgoyMDI1MDgwMy4wIKXMDSoASAFQAw%3D%3D"
  },
  {
    "name": "Raveri Fort",
    "lat": 20.394326,
    "lng": 78.5243924,
    "url": "https://www.google.com/maps/place/Raveri+Fort/@20.394326,78.5243924,17z/data=!3m1!4b1!4m6!3m5!1s0x3bd399d21654672d:0xf415cc9322a1f440!8m2!3d20.394326!4d78.5243924!16s%2Fg%2F11gr3q6z99?entry=ttu&g_ep=EgoyMDI1MDgwMy4wIKXMDSoASAFQAw%3D%3D"
  },
  {
    "name": "Bachhretu Fort",
    "lat": 44.2423649,
    "lng": -119.8093025,
    "url": "https://www.google.com/maps/place//@44.2423649,-119.8093025,3z/data=!3m1!4b1?entry=ttu&g_ep=EgoyMDI1MDgwMy4wIKXMDSoASAFQAw%3D%3D"
  },
  {
    "name": "Kyuti fort",
    "lat": 24.8169935,
    "lng": 81.4565688,
    "url": "https://www.google.com/maps/place/Keoti+Fort/@24.8169935,81.4565688,17z/data=!3m1!4b1!4m6!3m5!1s0x3984fd1ac026d565:0xbee791a65f26bcec!8m2!3d24.8169935!4d81.4565688!16s%2Fg%2F11fmmcg466?entry=ttu&g_ep=EgoyMDI1MDgwMy4wIKXMDSoASAFQAw%3D%3D"
  },
  {
    "name": "Roopangarh Fort",
    "lat": 26.7966687,
    "lng": 74.8506724,
    "url": "https://www.google.com/maps/place/Roopangarh+Fort/@26.7966687,74.8506724,17z/data=!3m1!4b1!4m9!3m8!1s0x396b8c4095001b91:0x6eca3b6b3eed5ebf!5m2!4m1!1i2!8m2!3d26.7966687!4d74.8506724!16s%2Fm%2F080q2db?entry=ttu&g_ep=EgoyMDI1MDgwMy4wIKXMDSoASAFQAw%3D%3D"
  },
  {
    "name": "27\u00b012'48.5\"N 75\u00b049'22.6\"E",
    "lat": 27.213479,
    "lng": 75.822943,
    "url": "https://www.google.com/maps/place/27%C2%B012'48.5%22N+75%C2%B049'22.6%22E/@27.213479,75.822943,17z/data=!3m1!4b1!4m4!3m3!8m2!3d27.213479!4d75.822943?entry=ttu&g_ep=EgoyMDI1MDgwMy4wIKXMDSoASAFQAw%3D%3D"
  },
  {
    "name": "Bellamkonda Fort, A.P. Protected Monument",
    "lat": 16.5042864,
    "lng": 80.0140583,
    "url": "https://www.google.com/maps/place/Bellamkonda+Fort,+A.P.+Protected+Monument/@16.5042864,80.0140583,17z/data=!3m1!4b1!4m6!3m5!1s0x3a35774bd4a54e6d:0xc7f2478cce151e8c!8m2!3d16.5042864!4d80.0140583!16s%2Fg%2F11g6pmppq7?entry=ttu&g_ep=EgoyMDI1MDgwMy4wIKXMDSoASAFQAw%3D%3D"
  },
  {
    "name": "Vairagad fort",
    "lat": 20.4322808,
    "lng": 80.0928848,
    "url": "https://www.google.com/maps/place/Vairagad+Fort/@20.4322808,80.0928848,17z/data=!3m1!4b1!4m6!3m5!1s0x3a2c8aac7d31a925:0xc08c48d92a6083a9!8m2!3d20.4322808!4d80.0928848!16s%2Fg%2F11gxssj605?entry=ttu&g_ep=EgoyMDI1MDgwMy4wIKXMDSoASAFQAw%3D%3D"
  },
  {
    "name": "Chandragad fort",
    "lat": 16.3881388,
    "lng": 77.7135777,
    "url": "https://www.google.com/maps/place/Chandragad+fort/@16.3881388,77.7135777,17z/data=!3m1!4b1!4m6!3m5!1s0x3bc9ef957a92c741:0xc7bf0256fa61d6ee!8m2!3d16.3881388!4d77.7135777!16s%2Fg%2F11jylj78_3?entry=ttu&g_ep=EgoyMDI1MDgwMy4wIKXMDSoASAFQAw%3D%3D"
  },
  {
    "name": "ARKI FORT",
    "lat": 31.1526025,
    "lng": 76.9661624,
    "url": "https://www.google.com/maps/place/Arki+Fort/@31.1526025,76.9661624,17z/data=!3m1!4b1!4m6!3m5!1s0x39056f8246af047f:0x8565c9d693eef9b7!8m2!3d31.1526025!4d76.9661624!16s%2Fm%2F02rhptp?entry=ttu&g_ep=EgoyMDI1MDgwMy4wIKXMDSoASAFQAw%3D%3D"
  },
  {
    "name": "Fort Bichoon",
    "lat": 26.809325,
    "lng": 75.3515104,
    "url": "https://www.google.com/maps/place/Fort+Bichoon/@26.809325,75.3515104,17z/data=!3m1!4b1!4m6!3m5!1s0x396c40235ff2b3cb:0x4fb5922b53e77dbe!8m2!3d26.809325!4d75.3515104!16s%2Fg%2F11fyxfkk27?entry=ttu&g_ep=EgoyMDI1MDgwMy4wIKXMDSoASAFQAw%3D%3D"
  },
  {
    "name": "Amer Fort Jaipur",
    "lat": 26.9854865,
    "lng": 75.8513454,
    "url": "https://www.google.com/maps/place/Amber+Palace/@26.9854865,75.8513454,17z/data=!3m1!4b1!4m6!3m5!1s0x396db05acbd20dfb:0x6221df6747147e2b!8m2!3d26.9854865!4d75.8513454!16zL20vMDgxanYz?entry=ttu&g_ep=EgoyMDI1MDgwMy4wIKXMDSoASAFQAw%3D%3D"
  },
  {
    "name": "Talatal Ghar",
    "lat": 26.9661334,
    "lng": 94.6245971,
    "url": "https://www.google.com/maps/place/Talatal+Ghar/@26.9661334,94.6245971,17z/data=!3m1!4b1!4m6!3m5!1s0x374731229aebc711:0xfd1d586b62db41e7!8m2!3d26.9661334!4d94.6245971!16s%2Fm%2F05h1tyk?entry=ttu&g_ep=EgoyMDI1MDgwNC4wIKXMDSoASAFQAw%3D%3D"
  },
  {
    "name": "Hatte Raja Kila",
    "lat": 24.1296497,
    "lng": 79.5951679,
    "url": "https://www.google.com/maps/place/Hatte+Raja+Kila/@24.1296497,79.5951679,17z/data=!3m1!4b1!4m6!3m5!1s0x398212fa8c09c1e5:0x5ff4b21a1bce8207!8m2!3d24.1296497!4d79.5951679!16s%2Fg%2F11c50p_p17?entry=ttu&g_ep=EgoyMDI1MDgwMy4wIKXMDSoASAFQAw%3D%3D"
  },
  {
    "name": "FORT GATE",
    "lat": 16.1059318,
    "lng": 78.320284,
    "url": "https://www.google.com/maps/place/FORT+GATE/@16.1059318,78.320284,17z/data=!3m1!4b1!4m6!3m5!1s0x3bb58c975d9ecebd:0xb88d6eff89e59773!8m2!3d16.1059318!4d78.320284!16s%2Fg%2F11c5_4h942?entry=ttu&g_ep=EgoyMDI1MDgwMy4wIKXMDSoASAFQAw%3D%3D"
  },
  {
    "name": "Kumbhalgarh Fort Rajasthan",
    "lat": 25.1520692,
    "lng": 73.5911296,
    "url": "https://www.google.com/maps/place/Kumbhalgarh+Fort/@25.1520692,73.5911296,14z/data=!3m1!4b1!4m6!3m5!1s0x39682237f6aa372b:0xa29571865cb41d01!8m2!3d25.1528239!4d73.5869983!16zL20vMDc3Z2x0?entry=ttu&g_ep=EgoyMDI1MDgwMy4wIKXMDSoASAFQAw%3D%3D"
  },
  {
    "name": "Lanji Fort Lanji Kila",
    "lat": 21.500003,
    "lng": 80.5439633,
    "url": "https://www.google.com/maps/place/Lanji+Fort+-+Lanji+Kila/@21.500003,80.5439633,17z/data=!3m1!4b1!4m6!3m5!1s0x3a2bcc075f162deb:0x16543f20c298b48b!8m2!3d21.500003!4d80.5439633!16s%2Fg%2F11b75f8g4n?entry=ttu&g_ep=EgoyMDI1MDgwMy4wIKXMDSoASAFQAw%3D%3D"
  },
  {
    "name": "Akoda Fort",
    "lat": 26.8116812,
    "lng": 75.2899467,
    "url": "https://www.google.com/maps/place/Akoda+Fort/@26.8116812,75.2899467,17z/data=!3m1!4b1!4m6!3m5!1s0x396c6b039e58cfdb:0xe2e7074c334546c1!8m2!3d26.8116812!4d75.2899467!16s%2Fg%2F11gf2958vq?entry=ttu&g_ep=EgoyMDI1MDgwMy4wIKXMDSoASAFQAw%3D%3D"
  },
  {
    "name": "RAMSHEHAR FORT RESORT",
    "lat": 31.0940582,
    "lng": 76.7881468,
    "url": "https://www.google.com/maps/place/Ramshehar+Fort+Resort/@31.0940582,76.7881468,17z/data=!3m1!4b1!4m9!3m8!1s0x39055bc3ffffffff:0x129672f9a293acbb!5m2!4m1!1i2!8m2!3d31.0940582!4d76.7881468!16s%2Fg%2F1pzsnb_8d?entry=ttu&g_ep=EgoyMDI1MDgwMy4wIKXMDSoASAFQAw%3D%3D"
  },
  {
    "name": "Panhala Fort",
    "lat": 16.8100151,
    "lng": 74.1068856,
    "url": "https://www.google.com/maps/place/Panhala+Fort,+Panhala,+Maharashtra+416201,+India/@16.8100151,74.1068856,16z/data=!3m1!4b1!4m6!3m5!1s0x3bc1af2403b02a2d:0x261688a64b188fc1!8m2!3d16.8113091!4d74.1078459!16s%2Fg%2F11_v4p72j?entry=ttu&g_ep=EgoyMDI1MDgwMy4wIKXMDSoASAFQAw%3D%3D"
  },
  {
    "name": "Ancient Soil Fortress Jawalgaon (Shinde Gadhi)",
    "lat": 18.6881907,
    "lng": 76.4759993,
    "url": "https://www.google.com/maps/place/Ancient+Soil+Fortress+Jawalgaon+(Shinde+Gadhi)/@18.6881907,76.4759993,17z/data=!3m1!4b1!4m6!3m5!1s0x3bcf8bf61180039b:0x359cd6c367ae137a!8m2!3d18.6881907!4d76.4759993!16s%2Fg%2F11rp2vcx78?entry=ttu&g_ep=EgoyMDI1MDgwMy4wIKXMDSoASAFQAw%3D%3D"
  },
  {
    "name": "Rajmahal Khilchipur",
    "lat": 24.0382211,
    "lng": 76.5790747,
    "url": "https://www.google.com/maps/place/Rajmahal+Khilchipur/@24.0382211,76.5790747,17z/data=!3m1!4b1!4m6!3m5!1s0x397b313a4a08c1f5:0x1a234a8b457c3436!8m2!3d24.0382211!4d76.5790747!16s%2Fg%2F11b5ynrxxs?entry=ttu&g_ep=EgoyMDI1MDgwMy4wIKXMDSoASAFQAw%3D%3D"
  },
  {
    "name": "Vallur fort",
    "lat": 16.8033262,
    "lng": 78.0790856,
    "url": "https://www.google.com/maps/place/Vallur+fort/@16.8033262,78.0790856,17z/data=!3m1!4b1!4m6!3m5!1s0x3bca2f9f9ce92085:0x94c06556407703b!8m2!3d16.8033262!4d78.0790856!16s%2Fg%2F11qp4mvtk2?entry=ttu&g_ep=EgoyMDI1MDgwMy4wIKXMDSoASAFQAw%3D%3D"
  },
  {
    "name": "Tandulwadi Fort",
    "lat": 19.6181151,
    "lng": 72.8417668,
    "url": "https://www.google.com/maps/place/Tandulwadi+Fort/@19.6181151,72.8417668,17z/data=!3m1!4b1!4m6!3m5!1s0x3be7056830e83321:0x4d12970b7eb5f744!8m2!3d19.6181151!4d72.8417668!16s%2Fg%2F11j2xcyggz?entry=ttu&g_ep=EgoyMDI1MDgwMy4wIKXMDSoASAFQAw%3D%3D"
  },
  {
    "name": "Yadagiri Fort",
    "lat": 16.7661337,
    "lng": 77.1397131,
    "url": "https://www.google.com/maps/place/Yadgir+Fort/@16.7661337,77.1397131,17z/data=!3m1!4b1!4m6!3m5!1s0x3bc853987e7e157b:0x7387f2b740659008!8m2!3d16.7661337!4d77.1397131!16s%2Fg%2F11rb2v_6t3?entry=ttu&g_ep=EgoyMDI1MDgwMy4wIKXMDSoASAFQAw%3D%3D"
  },
  {
    "name": "26\u00b003'14.3\"N 77\u00b022'11.9\"E",
    "lat": 26.053979,
    "lng": 77.369958,
    "url": "https://www.google.com/maps/place/26%C2%B003'14.3%22N+77%C2%B022'11.9%22E/@26.053979,77.369958,17z/data=!3m1!4b1!4m4!3m3!8m2!3d26.053979!4d77.369958?entry=ttu&g_ep=EgoyMDI1MDgwMy4wIKXMDSoASAFQAw%3D%3D"
  },
  {
    "name": "The Fort Ramgarh",
    "lat": 30.648013,
    "lng": 76.8854635,
    "url": "https://www.google.com/maps/place/The+Fort+Ramgarh/@30.648013,76.8854635,17z/data=!3m1!4b1!4m9!3m8!1s0x390f944e44cdc4cb:0xf62583ab4e85b5ce!5m2!4m1!1i2!8m2!3d30.648013!4d76.8854635!16s%2Fg%2F1tvgsqqt?entry=ttu&g_ep=EgoyMDI1MDgwMy4wIKXMDSoASAFQAw%3D%3D"
  },
  {
    "name": "Jobner Fort , Jobner(Jaipur)",
    "lat": 26.9699819,
    "lng": 75.3888961,
    "url": "https://www.google.com/maps/place/Jobner+Fort+-+Jaipur/@26.9699819,75.3888961,17z/data=!3m1!4b1!4m6!3m5!1s0x396c5cd542326c4f:0xb746988fc1704ca1!8m2!3d26.9699819!4d75.3888961!16s%2Fg%2F11bvt4xmnt?entry=ttu&g_ep=EgoyMDI1MDgwMy4wIKXMDSoASAFQAw%3D%3D"
  },
  {
    "name": "Soundalga Fort (Buruj)",
    "lat": 16.473167,
    "lng": 74.3489148,
    "url": "https://www.google.com/maps/place/Soundalga+Fort+(Buruj)/@16.473167,74.3489148,17z/data=!3m1!4b1!4m6!3m5!1s0x3bc0f0f18ebc3b91:0xb59631ee23dc1030!8m2!3d16.473167!4d74.3489148!16s%2Fg%2F11gbxcq5t6?entry=ttu&g_ep=EgoyMDI1MDgwNC4wIKXMDSoASAFQAw%3D%3D"
  },
  {
    "name": "Jafrabad fort",
    "lat": 20.866928,
    "lng": 71.365083,
    "url": "https://www.google.com/maps/place/Jafrabad+fort/@20.866928,71.365083,17z/data=!3m1!4b1!4m6!3m5!1s0x3be25339ba653601:0x437d45f0e0e72274!8m2!3d20.866928!4d71.365083!16s%2Fg%2F11fmz9krcl?entry=ttu&g_ep=EgoyMDI1MDgwMy4wIKXMDSoASAFQAw%3D%3D"
  },
  {
    "name": "Fort Lohagarh",
    "lat": 25.9218646,
    "lng": 78.9864236,
    "url": "https://www.google.com/maps/place/Lohagarh/@25.9218646,78.9864236,17z/data=!3m1!4b1!4m6!3m5!1s0x3977b52326daecbf:0x92c67b78470ef5ff!8m2!3d25.9218646!4d78.9864236!16s%2Fg%2F11r9qqw335?entry=ttu&g_ep=EgoyMDI1MDgwMy4wIKXMDSoASAFQAw%3D%3D"
  },
  {
    "name": "Fort Pichhore",
    "lat": 25.1747087,
    "lng": 78.1865644,
    "url": "https://www.google.com/maps/place/Fort+Pichhore/@25.1747087,78.1865644,17z/data=!3m1!4b1!4m6!3m5!1s0x3979e211c31c1d09:0x88222ec468750136!8m2!3d25.1747087!4d78.1865644!16s%2Fg%2F1jkv_dxkf?entry=ttu&g_ep=EgoyMDI1MDgwMy4wIKXMDSoASAFQAw%3D%3D"
  },
  {
    "name": "Singotam Fort",
    "lat": 16.1641278,
    "lng": 78.2777307,
    "url": "https://www.google.com/maps/place/Singotam+Fort/@16.1641278,78.2777307,17z/data=!3m1!4b1!4m6!3m5!1s0x3bb5f5d9391427b9:0x8a8bfce09a84c45c!8m2!3d16.1641278!4d78.2777307!16s%2Fg%2F11pf9zbymh?entry=ttu&g_ep=EgoyMDI1MDgwMy4wIKXMDSoASAFQAw%3D%3D"
  },
  {
    "name": "25\u00b018'55.3\"N 77\u00b038'05.1\"E",
    "lat": 25.315369,
    "lng": 77.634743,
    "url": "https://www.google.com/maps/place/25%C2%B018'55.3%22N+77%C2%B038'05.1%22E/@25.315369,77.634743,17z/data=!3m1!4b1!4m4!3m3!8m2!3d25.315369!4d77.634743?entry=ttu&g_ep=EgoyMDI1MDgwMy4wIKXMDSoASAFQAw%3D%3D"
  },
  {
    "name": "Roopgarh Fort",
    "lat": 27.3672148,
    "lng": 75.1815398,
    "url": "https://www.google.com/maps/place/Roopgarh+fort/@27.3672148,75.1815398,17z/data=!3m1!4b1!4m6!3m5!1s0x396c90f39757beb7:0xfe634777741ba39e!8m2!3d27.3672148!4d75.1815398!16s%2Fg%2F11f_p2mqb1?entry=ttu&g_ep=EgoyMDI1MDgwMy4wIKXMDSoASAFQAw%3D%3D"
  },
  {
    "name": "72V8+HGG",
    "lat": 18.2939505,
    "lng": 76.0163087,
    "url": "https://www.google.com/maps/place/72V8%2BHGG,+dist,+Alni,+Maharashtra+413405,+India/@18.2939505,76.0163087,17z/data=!3m1!4b1!4m6!3m5!1s0x3bc50a73541a0641:0xafce1858cce80615!8m2!3d18.2939505!4d76.0163087!16s%2Fg%2F11rlkktb6z?entry=ttu&g_ep=EgoyMDI1MDgwMy4wIKXMDSoASAFQAw%3D%3D"
  },
  {
    "name": "Shergarh fort",
    "lat": 44.2423649,
    "lng": -119.8093025,
    "url": "https://www.google.com/maps/place//@44.2423649,-119.8093025,3z/data=!3m1!4b1?entry=ttu&g_ep=EgoyMDI1MDgwMy4wIKXMDSoASAFQAw%3D%3D"
  },
  {
    "name": "Morni Fort",
    "lat": 30.6886167,
    "lng": 77.0831439,
    "url": "https://www.google.com/maps/place/The+Morni+Fort+-+Panchkula+district,+Haryana,+India/@30.6886167,77.0831439,17z/data=!3m1!4b1!4m6!3m5!1s0x390f99417ebaef59:0xe6d15c5e33061a98!8m2!3d30.6886167!4d77.0831439!16s%2Fg%2F11b6whrzb3?entry=ttu&g_ep=EgoyMDI1MDgwMy4wIKXMDSoASAFQAw%3D%3D"
  },
  {
    "name": "Sultan Nagar Fort",
    "lat": 17.3589375,
    "lng": 78.5470156,
    "url": "https://www.google.com/maps/place/Sultan+Nagar+Fort/@17.3589375,78.5470156,17z/data=!3m1!4b1!4m6!3m5!1s0x3bcb992f3f84172b:0x6d8b40b95bafdc20!8m2!3d17.3589375!4d78.5470156!16s%2Fg%2F11ql1gl_6v?entry=ttu&g_ep=EgoyMDI1MDgwMy4wIKXMDSoASAFQAw%3D%3D"
  },
  {
    "name": "Lohara Ves (\u0932\u094b\u0939\u093e\u0930\u093e \u0935\u0947\u0938)",
    "lat": 17.9923023,
    "lng": 76.3324335,
    "url": "https://www.google.com/maps/place/Lohara+Ves+(%E0%A4%B2%E0%A5%8B%E0%A4%B9%E0%A4%BE%E0%A4%B0%E0%A4%BE+%E0%A4%B5%E0%A5%87%E0%A4%B8)/@17.9923023,76.3324335,17z/data=!3m1!4b1!4m6!3m5!1s0x3bc58c5bd0df6467:0x27dde504d4181872!8m2!3d17.9923023!4d76.3324335!16s%2Fg%2F11fx7sgsx5?entry=ttu&g_ep=EgoyMDI1MDgwMy4wIKXMDSoASAFQAw%3D%3D"
  },
  {
    "name": "Rajgarh Palace",
    "lat": 25.6634392,
    "lng": 78.4593962,
    "url": "https://www.google.com/maps/place/Rajgarh+Palace,+Datia,+Madhya+Pradesh+475661,+India/@25.6634392,78.4593962,17z/data=!3m1!4b1!4m6!3m5!1s0x39771210bdb28c41:0x2a8ada9767496760!8m2!3d25.6638534!4d78.4593868!16s%2Fg%2F11bvtd3_yr?entry=ttu&g_ep=EgoyMDI1MDgwMy4wIKXMDSoASAFQAw%3D%3D"
  },
  {
    "name": "Maheba Get \u092e\u0939\u0947\u092c\u093e \u0917\u0947\u091f",
    "lat": 24.9953366,
    "lng": 79.4772619,
    "url": "https://www.google.com/maps/place/Maheba+Gate/@24.9953366,79.4772619,17z/data=!3m1!4b1!4m6!3m5!1s0x3982a369d6368f19:0xa91caea569da645c!8m2!3d24.9953366!4d79.4772619!16s%2Fg%2F11fhnf4hgh?entry=ttu&g_ep=EgoyMDI1MDgwMy4wIKXMDSoASAFQAw%3D%3D"
  },
  {
    "name": "Naugarh Fort (Chandrakanta Ki Kothi)",
    "lat": 44.2423649,
    "lng": -119.8093025,
    "url": "https://www.google.com/maps/place//@44.2423649,-119.8093025,3z/data=!3m1!4b1?entry=ttu&g_ep=EgoyMDI1MDgwMy4wIKXMDSoASAFQAw%3D%3D"
  },
  {
    "name": "Dharon Ki Dhar Gorkha Fort",
    "lat": 30.8867945,
    "lng": 77.1602654,
    "url": "https://www.google.com/maps/place/Dharon+Ki+Dhar+Fort/@30.8867945,77.1602654,17z/data=!3m1!4b1!4m6!3m5!1s0x390f82258b16ac27:0xb28fe6863dc53511!8m2!3d30.8867945!4d77.1602654!16s%2Fg%2F11b6gfd0rr?entry=ttu&g_ep=EgoyMDI1MDgwNC4wIKXMDSoASAFQAw%3D%3D"
  },
  {
    "name": "Danta fort",
    "lat": 27.295644,
    "lng": 75.1879916,
    "url": "https://www.google.com/maps/place/Danta+Fort/@27.295644,75.1879916,17z/data=!3m1!4b1!4m6!3m5!1s0x396c8e4baaaaaaab:0xcfd9756309cd39b4!8m2!3d27.295644!4d75.1879916!16s%2Fg%2F1tctk5km?entry=ttu&g_ep=EgoyMDI1MDgwMy4wIKXMDSoASAFQAw%3D%3D"
  },
  {
    "name": "24\u00b028'08.1\"N 79\u00b044'54.1\"E",
    "lat": 24.468923,
    "lng": 79.748368,
    "url": "https://www.google.com/maps/place/24%C2%B028'08.1%22N+79%C2%B044'54.1%22E/@24.468923,79.748368,17z/data=!3m1!4b1!4m4!3m3!8m2!3d24.468923!4d79.748368?entry=ttu&g_ep=EgoyMDI1MDgwMy4wIKXMDSoASAFQAw%3D%3D"
  },
  {
    "name": "Hatta Fort",
    "lat": 24.1296492,
    "lng": 79.5949441,
    "url": "https://www.google.com/maps/place/Hatta+Fort+(Rangmahal+Palace)/@24.1296492,79.5949441,17z/data=!3m1!4b1!4m6!3m5!1s0x398212fa8ed433b5:0x2f5a5f6cc2434112!8m2!3d24.1296492!4d79.5949441!16s%2Fg%2F11txv1yb5k?entry=ttu&g_ep=EgoyMDI1MDgwMy4wIKXMDSoASAFQAw%3D%3D"
  },
  {
    "name": "Gambhirgad Fort",
    "lat": 20.0550072,
    "lng": 73.0484084,
    "url": "https://www.google.com/maps/place/Gambhirgad+Fort/@20.0550072,73.0484084,17z/data=!3m1!4b1!4m6!3m5!1s0x3be739bc8148ec11:0x1067832f5d9209e9!8m2!3d20.0550072!4d73.0484084!16s%2Fg%2F11g0g4txdq?entry=ttu&g_ep=EgoyMDI1MDgwMy4wIKXMDSoASAFQAw%3D%3D"
  },
  {
    "name": "Harsh Ka Tila",
    "lat": 29.9760686,
    "lng": 76.8264199,
    "url": "https://www.google.com/maps/place/Harsh+Ka+Tila/@29.9760686,76.8264199,17z/data=!3m1!4b1!4m6!3m5!1s0x390e475ff53e15a1:0x8892334ae3b5d07a!8m2!3d29.9760686!4d76.8264199!16s%2Fg%2F1tf68fnz?entry=ttu&g_ep=EgoyMDI1MDgwMy4wIKXMDSoASAFQAw%3D%3D"
  },
  {
    "name": "Nurpur Fort",
    "lat": 32.3029327,
    "lng": 75.8818171,
    "url": "https://www.google.com/maps/place/Nurpur+Fort/@32.3029327,75.8818171,17z/data=!3m1!4b1!4m6!3m5!1s0x391c832dc0c69c53:0x203c737e0903aa2!8m2!3d32.3029327!4d75.8818171!16s%2Fg%2F11r0c3ng_c?entry=ttu&g_ep=EgoyMDI1MDgwMy4wIKXMDSoASAFQAw%3D%3D"
  },
  {
    "name": "Vijaygarh Fort",
    "lat": 24.5770467,
    "lng": 83.181413,
    "url": "https://www.google.com/maps/place/Vijaygarh+Fort/@24.5770467,83.181413,17z/data=!3m1!4b1!4m6!3m5!1s0x398ef213fdc9a5c1:0xdf839305335ea5d4!8m2!3d24.5770467!4d83.181413!16s%2Fg%2F11bv1stjn1?entry=ttu&g_ep=EgoyMDI1MDgwMy4wIKXMDSoASAFQAw%3D%3D"
  },
  {
    "name": "Ajanta Fort",
    "lat": 44.2423649,
    "lng": -119.8093025,
    "url": "https://www.google.com/maps/place//@44.2423649,-119.8093025,3z/data=!3m1!4b1?entry=ttu&g_ep=EgoyMDI1MDgwMy4wIKXMDSoASAFQAw%3D%3D"
  },
  {
    "name": "Kochhor Fort",
    "lat": 27.4462773,
    "lng": 75.2475148,
    "url": "https://www.google.com/maps/place/Kochhor+Fort/@27.4462773,75.2475148,17z/data=!3m1!4b1!4m6!3m5!1s0x396c969d6656ba17:0x6e671d5bd80c4669!8m2!3d27.4462773!4d75.2475148!16s%2Fg%2F11fxzhvxgc?entry=ttu&g_ep=EgoyMDI1MDgwMy4wIKXMDSoASAFQAw%3D%3D"
  },
  {
    "name": "Fort Gawadi",
    "lat": 25.835575,
    "lng": 75.433266,
    "url": "https://www.google.com/maps/place/Fort+Gawadi/@25.835575,75.433266,17z/data=!3m1!4b1!4m6!3m5!1s0x396ee70c3cedd62d:0x7455c06275d3ed6!8m2!3d25.835575!4d75.433266!16s%2Fg%2F11swz3x0dr?entry=ttu&g_ep=EgoyMDI1MDgwMy4wIKXMDSoASAFQAw%3D%3D"
  },
  {
    "name": "Zorawar Fort",
    "lat": 34.1581389,
    "lng": 77.5698889,
    "url": "https://www.google.com/maps/place/Zorawar+Fort/@34.1581389,77.5698889,17z/data=!3m1!4b1!4m6!3m5!1s0x38fdeb4919e97f15:0x66ddd93e04dc83f7!8m2!3d34.1581389!4d77.5698889!16s%2Fg%2F11cmy5rbsl?entry=ttu&g_ep=EgoyMDI1MDgwMy4wIKXMDSoASAFQAw%3D%3D"
  },
  {
    "name": "Vairatgad Fort",
    "lat": 17.877992,
    "lng": 73.918945,
    "url": "https://www.google.com/maps/place/Vairatgad+Fort/@17.877992,73.918945,17z/data=!3m1!4b1!4m6!3m5!1s0x3bc24390b731e6b1:0x8619a25756de0678!8m2!3d17.877992!4d73.918945!16s%2Fm%2F0fp_r4k?entry=ttu&g_ep=EgoyMDI1MDgwMy4wIKXMDSoASAFQAw%3D%3D"
  },
  {
    "name": "24\u00b018'27.9\"N 74\u00b053'22.6\"E",
    "lat": 24.307756,
    "lng": 74.88961,
    "url": "https://www.google.com/maps/place/24%C2%B018'27.9%22N+74%C2%B053'22.6%22E/@24.307756,74.88961,17z/data=!3m1!4b1!4m4!3m3!8m2!3d24.307756!4d74.88961?entry=ttu&g_ep=EgoyMDI1MDgwMy4wIKXMDSoASAFQAw%3D%3D"
  },
  {
    "name": "The Mughal Sarai of Doraha",
    "lat": 30.7982185,
    "lng": 76.0217786,
    "url": "https://www.google.com/maps/place/The+Mughal+Sarai+of+Doraha/@30.7982185,76.0217786,17z/data=!3m1!4b1!4m6!3m5!1s0x39107441f587740f:0x81dd707117d597da!8m2!3d30.7982185!4d76.0217786!16s%2Fg%2F11c5fhr5mk?entry=ttu&g_ep=EgoyMDI1MDgwMy4wIKXMDSoASAFQAw%3D%3D"
  },
  {
    "name": "Gorkha Fort / Subathu / Sabathu Fort",
    "lat": 30.9779891,
    "lng": 76.9882456,
    "url": "https://www.google.com/maps/place/Gorkha+Fort+%2F+Subathu+%2F+Sabathu+Fort/@30.9779891,76.9882456,17z/data=!3m1!4b1!4m6!3m5!1s0x390563d751bad33d:0x26f2df9fd636a0f9!8m2!3d30.9779891!4d76.9882456!16s%2Fg%2F11jcn80bt0?entry=ttu&g_ep=EgoyMDI1MDgwMy4wIKXMDSoASAFQAw%3D%3D"
  },
  {
    "name": "Raiwasa Fort",
    "lat": 27.533009,
    "lng": 75.2192738,
    "url": "https://www.google.com/maps/place/Raiwasa+Fort/@27.533009,75.2192738,17z/data=!3m1!4b1!4m6!3m5!1s0x396cbd79f323eaf7:0xd94eb6949684ddcd!8m2!3d27.533009!4d75.2192738!16s%2Fg%2F11h07pqf2x?entry=ttu&g_ep=EgoyMDI1MDgwMy4wIKXMDSoASAFQAw%3D%3D"
  },
  {
    "name": "Rohtas Fort, Bihar, India",
    "lat": 24.6349729,
    "lng": 83.9572856,
    "url": "https://www.google.com/maps/place/Rohtas+Fort,+Bihar,+India/@24.6349729,83.9572856,17z/data=!3m1!4b1!4m6!3m5!1s0x398c484be0bbf1d5:0xa8c30ec3e6a4c477!8m2!3d24.6349729!4d83.9572856!16s%2Fg%2F11c6q4z9cc?entry=ttu&g_ep=EgoyMDI1MDgwNC4wIKXMDSoASAFQAw%3D%3D"
  },
  {
    "name": "VAVI FORT( \u0935\u093e\u0935\u0940 \u0917\u0922\u0940)",
    "lat": 19.802767,
    "lng": 74.2496864,
    "url": "https://www.google.com/maps/place/VAVI+FORT(+%E0%A4%B5%E0%A4%BE%E0%A4%B5%E0%A5%80+%E0%A4%97%E0%A4%A2%E0%A5%80)/@19.802767,74.2496864,17z/data=!3m1!4b1!4m6!3m5!1s0x3bdc53bbf30e79e7:0x2c24d2de7246bdca!8m2!3d19.802767!4d74.2496864!16s%2Fg%2F11s6h_9y1x?entry=ttu&g_ep=EgoyMDI1MDgwMy4wIKXMDSoASAFQAw%3D%3D"
  },
  {
    "name": "Kotla Mohsin Khan",
    "lat": 33.9919492,
    "lng": 71.5521801,
    "url": "https://www.google.com/maps/place/Kotla+Mohsin+Khan/@33.9919492,71.5521801,17z/data=!3m1!4b1!4m6!3m5!1s0x38d917ec7a4d8165:0x474f5acc8254517d!8m2!3d33.9919492!4d71.5521801!16zL20vMGRmNXEw?entry=ttu&g_ep=EgoyMDI1MDgwMy4wIKXMDSoASAFQAw%3D%3D"
  },
  {
    "name": "Gaandhaari Khilla",
    "lat": 18.9501336,
    "lng": 79.414636,
    "url": "https://www.google.com/maps/place/Gaandhaari+Khilla/@18.9501336,79.414636,17z/data=!3m1!4b1!4m6!3m5!1s0x3a32b44c6fffffff:0x754099e8e28e26d!8m2!3d18.9501336!4d79.414636!16s%2Fg%2F11bwf48zks?entry=ttu&g_ep=EgoyMDI1MDgwMy4wIKXMDSoASAFQAw%3D%3D"
  },
  {
    "name": "25\u00b057'28.8\"N 78\u00b014'53.4\"E",
    "lat": 25.957994,
    "lng": 78.248163,
    "url": "https://www.google.com/maps/place/25%C2%B057'28.8%22N+78%C2%B014'53.4%22E/@25.957994,78.248163,17z/data=!3m1!4b1!4m4!3m3!8m2!3d25.957994!4d78.248163?entry=ttu&g_ep=EgoyMDI1MDgwMy4wIKXMDSoASAFQAw%3D%3D"
  },
  {
    "name": "24\u00b032'04.8\"N 75\u00b048'16.1\"E",
    "lat": 24.534656,
    "lng": 75.804467,
    "url": "https://www.google.com/maps/place/24%C2%B032'04.8%22N+75%C2%B048'16.1%22E/@24.534656,75.804467,17z/data=!3m1!4b1!4m4!3m3!8m2!3d24.534656!4d75.804467?entry=ttu&g_ep=EgoyMDI1MDgwMy4wIKXMDSoASAFQAw%3D%3D"
  },
  {
    "name": "Leh Palace",
    "lat": 34.1660308,
    "lng": 77.5871575,
    "url": "https://www.google.com/maps/place/Leh+Palace/@34.1660308,77.5871575,16z/data=!3m1!4b1!4m6!3m5!1s0x38fdeb150c993295:0xc41a8d83a5a327e6!8m2!3d34.1660308!4d77.5871575!16s%2Fm%2F02r1cwr?entry=ttu&g_ep=EgoyMDI1MDgwMy4wIKXMDSoASAFQAw%3D%3D"
  },
  {
    "name": "Bishrampur Fort",
    "lat": 24.2527089,
    "lng": 83.9257142,
    "url": "https://www.google.com/maps/place/Bishrampur+Fort/@24.2527089,83.9257142,17z/data=!3m1!4b1!4m6!3m5!1s0x398c12d11a453649:0x60a788adf92f357f!8m2!3d24.2527089!4d83.9257142!16s%2Fg%2F11fxf1zw5q?entry=ttu&g_ep=EgoyMDI1MDgwMy4wIKXMDSoASAFQAw%3D%3D"
  },
  {
    "name": "Devgarh Fort,Sikar",
    "lat": 27.5420057,
    "lng": 75.1883198,
    "url": "https://www.google.com/maps/place/Devgarh+Fort,+Sikar/@27.5420057,75.1883198,17z/data=!3m1!4b1!4m6!3m5!1s0x396cbd1d210319eb:0x9e6a0647ab94a935!8m2!3d27.5420057!4d75.1883198!16s%2Fg%2F11dxd0560k?entry=ttu&g_ep=EgoyMDI1MDgwNC4wIKXMDSoASAFQAw%3D%3D"
  },
  {
    "name": "23\u00b054'02.4\"N 78\u00b003'32.5\"E",
    "lat": 23.900652,
    "lng": 78.059036,
    "url": "https://www.google.com/maps/place/23%C2%B054'02.4%22N+78%C2%B003'32.5%22E/@23.900652,78.059036,17z/data=!3m1!4b1!4m4!3m3!8m2!3d23.900652!4d78.059036?entry=ttu&g_ep=EgoyMDI1MDgwMy4wIKXMDSoASAFQAw%3D%3D"
  },
  {
    "name": "Sawar Fort",
    "lat": 25.7537019,
    "lng": 75.2220395,
    "url": "https://www.google.com/maps/place/Sawar+Fort/@25.7537019,75.2220395,17z/data=!3m1!4b1!4m6!3m5!1s0x396edbdfa42c09d5:0x6f312dbae0e316c1!8m2!3d25.7537019!4d75.2220395!16s%2Fg%2F11f53qt8vj?entry=ttu&g_ep=EgoyMDI1MDgwMy4wIKXMDSoASAFQAw%3D%3D"
  },
  {
    "name": "Sapni Fort",
    "lat": 31.4855557,
    "lng": 78.1679613,
    "url": "https://www.google.com/maps/place/Sapni+Fort/@31.4855557,78.1679613,17z/data=!3m1!4b1!4m6!3m5!1s0x39066cf7884247a5:0x317927b55fa71fb7!8m2!3d31.4855557!4d78.1679613!16s%2Fg%2F11sskrjj13?entry=ttu&g_ep=EgoyMDI1MDgwMy4wIKXMDSoASAFQAw%3D%3D"
  },
  {
    "name": "Mahipatgad",
    "lat": 17.8382265,
    "lng": 73.4979129,
    "url": "https://www.google.com/maps/place/Mahipatgad+Fort/@17.8382265,73.4979129,17z/data=!3m1!4b1!4m6!3m5!1s0x3bc2764488b423a9:0xc6722723632775b6!8m2!3d17.8382265!4d73.4979129!16s%2Fg%2F11cmy4kjbs?entry=ttu&g_ep=EgoyMDI1MDgwMy4wIKXMDSoASAFQAw%3D%3D"
  },
  {
    "name": "Bahu Fort Park",
    "lat": 32.7249255,
    "lng": 74.8768727,
    "url": "https://www.google.com/maps/place/Bahu+Fort+Park/@32.7249255,74.8768727,17z/data=!3m1!4b1!4m6!3m5!1s0x391e8364ae665105:0xcd135458141dab4!8m2!3d32.7249255!4d74.8768727!16s%2Fg%2F1thgfdvs?entry=ttu&g_ep=EgoyMDI1MDgwMy4wIKXMDSoASAFQAw%3D%3D"
  },
  {
    "name": "Nidagal Fort",
    "lat": 14.158582,
    "lng": 77.08331,
    "url": "https://www.google.com/maps/place/Nidagal+Fort/@14.158582,77.08331,17z/data=!3m1!4b1!4m6!3m5!1s0x3bb0e48c4f1341b3:0xd18b5bc85443652b!8m2!3d14.158582!4d77.08331!16s%2Fg%2F11f_4h16sq?entry=ttu&g_ep=EgoyMDI1MDgwMy4wIKXMDSoASAFQAw%3D%3D"
  },
  {
    "name": "Chandpol Gate",
    "lat": 27.6094538,
    "lng": 75.1366138,
    "url": "https://www.google.com/maps/place/Chandpol+Gate/@27.6094538,75.1366138,17z/data=!3m1!4b1!4m6!3m5!1s0x396ca4c0c978cfa3:0x21bb79fa01343d38!8m2!3d27.6094538!4d75.1366138!16s%2Fg%2F1tp_4t0q?entry=ttu&g_ep=EgoyMDI1MDgwMy4wIKXMDSoASAFQAw%3D%3D"
  },
  {
    "name": "Karajgaon Fort",
    "lat": 21.322793,
    "lng": 77.6075436,
    "url": "https://www.google.com/maps/place/Karajgaon+Fort/@21.322793,77.6075436,17z/data=!3m1!4b1!4m6!3m5!1s0x3bd68b055a4c6939:0xc99e1aa0956c9abf!8m2!3d21.322793!4d77.6075436!16s%2Fg%2F11rvfwjlsn?entry=ttu&g_ep=EgoyMDI1MDgwMy4wIKXMDSoASAFQAw%3D%3D"
  },
  {
    "name": "Padma Fort",
    "lat": 24.202343,
    "lng": 85.3779031,
    "url": "https://www.google.com/maps/place/Padma+Fort/@24.202343,85.3779031,17z/data=!3m1!4b1!4m6!3m5!1s0x39f36443679ec00b:0xf2123b47d7785b0a!8m2!3d24.202343!4d85.3779031!16s%2Fg%2F11dymp6n45?entry=ttu&g_ep=EgoyMDI1MDgwMy4wIKXMDSoASAFQAw%3D%3D"
  },
  {
    "name": "Dugari Fort",
    "lat": 44.2423649,
    "lng": -119.8093025,
    "url": "https://www.google.com/maps/place//@44.2423649,-119.8093025,3z/data=!3m1!4b1?entry=ttu&g_ep=EgoyMDI1MDgwMy4wIKXMDSoASAFQAw%3D%3D"
  },
  {
    "name": "Bassi Fort",
    "lat": 25.0096255,
    "lng": 74.7700876,
    "url": "https://www.google.com/maps/place/Bassi+Fort/@25.0096255,74.7700876,17z/data=!3m1!4b1!4m6!3m5!1s0x3968a5ac153492dd:0xbbb18acb882ca2b!8m2!3d25.0096255!4d74.7700876!16s%2Fg%2F11j5pd4c2j?entry=ttu&g_ep=EgoyMDI1MDgwMy4wIKXMDSoASAFQAw%3D%3D"
  },
  {
    "name": "Garhi Padhavali",
    "lat": 26.4311679,
    "lng": 78.201693,
    "url": "https://www.google.com/maps/place/Garhi+Padavali+Morena/@26.4311679,78.201693,17z/data=!3m1!4b1!4m6!3m5!1s0x3976bb89e09d3a37:0xff93ca91b717b91!8m2!3d26.4311679!4d78.201693!16s%2Fg%2F11bc8c4yfm?entry=ttu&g_ep=EgoyMDI1MDgwMy4wIKXMDSoASAFQAw%3D%3D"
  },
  {
    "name": "Manjarabad Fort",
    "lat": 12.9175005,
    "lng": 75.7584074,
    "url": "https://www.google.com/maps/place/Manjarabad+Fort+Sakleshpura/@12.9175005,75.7584074,17z/data=!3m1!4b1!4m6!3m5!1s0x3ba527aa9dbe128b:0x727cc5479002f724!8m2!3d12.9175005!4d75.7584074!16s%2Fg%2F11cn91snnd?entry=ttu&g_ep=EgoyMDI1MDgwMy4wIKXMDSoASAFQAw%3D%3D"
  },
  {
    "name": "Huda",
    "lat": 17.6402021,
    "lng": 75.1486095,
    "url": "https://www.google.com/maps/place/Wada/@17.6402021,75.1486095,17z/data=!3m1!4b1!4m6!3m5!1s0x3bc405369d4445ed:0x8769306589831cfd!8m2!3d17.6402021!4d75.1486095!16s%2Fg%2F1hjh1m7dz?entry=ttu&g_ep=EgoyMDI1MDgwMy4wIKXMDSoASAFQAw%3D%3D"
  },
  {
    "name": "Chirana Fort",
    "lat": 27.6715008,
    "lng": 75.3890942,
    "url": "https://www.google.com/maps/place/Chirana+Fort/@27.6715008,75.3890942,17z/data=!3m1!4b1!4m6!3m5!1s0x396cc62023aff76f:0x3d19561d3be28aa6!8m2!3d27.6715008!4d75.3890942!16s%2Fg%2F11cncnyh3m?entry=ttu&g_ep=EgoyMDI1MDgwMy4wIKXMDSoASAFQAw%3D%3D"
  },
  {
    "name": "Kurumbera Fort",
    "lat": 22.0878236,
    "lng": 87.2551145,
    "url": "https://www.google.com/maps/place/Kurumbera+Fort/@22.0878236,87.2551145,17z/data=!3m1!4b1!4m6!3m5!1s0x3a1d3db10658f73f:0xb6dffb5053850fad!8m2!3d22.0878236!4d87.2551145!16s%2Fm%2F0gffxbr?entry=ttu&g_ep=EgoyMDI1MDgwMy4wIKXMDSoASAFQAw%3D%3D"
  },
  {
    "name": "Sohawal fort",
    "lat": 24.5721191,
    "lng": 80.761584,
    "url": "https://www.google.com/maps/place/Sohawal+fort/@24.5721191,80.761584,17z/data=!3m1!4b1!4m6!3m5!1s0x398381f9cf0c1729:0xf03a6cb5f1f36315!8m2!3d24.5721191!4d80.761584!16s%2Fg%2F11pz3sz5py?entry=ttu&g_ep=EgoyMDI1MDgwMy4wIKXMDSoASAFQAw%3D%3D"
  },
  {
    "name": "Rajmahal Palace",
    "lat": 18.5698106,
    "lng": 83.3353332,
    "url": "https://www.google.com/maps/place/Rajmahal+Palace/@18.5698106,83.3353332,17z/data=!3m1!4b1!4m6!3m5!1s0x3a3b9961b5299a3b:0x577aaf96f4c66db9!8m2!3d18.5698106!4d83.3353332!16s%2Fg%2F11c1r6k4zz?entry=ttu&g_ep=EgoyMDI1MDgwMy4wIKXMDSoASAFQAw%3D%3D"
  },
  {
    "name": "Pangal Fort",
    "lat": 16.2457322,
    "lng": 78.1273091,
    "url": "https://www.google.com/maps/place/Pangal+Fort/@16.2457322,78.1273091,17z/data=!3m1!4b1!4m6!3m5!1s0x3bca094ac6187183:0x9663603bd37b3cb1!8m2!3d16.2457322!4d78.1273091!16s%2Fg%2F11tczdjnmz?entry=ttu&g_ep=EgoyMDI1MDgwMy4wIKXMDSoASAFQAw%3D%3D"
  },
  {
    "name": "Bijawar Fort",
    "lat": 44.2423649,
    "lng": -119.8093025,
    "url": "https://www.google.com/maps/place//@44.2423649,-119.8093025,3z/data=!3m1!4b1?entry=ttu&g_ep=EgoyMDI1MDgwMy4wIKXMDSoASAFQAw%3D%3D"
  },
  {
    "name": "Hanagal Veerabhadra Ancient Temple",
    "lat": 14.7594969,
    "lng": 75.1270663,
    "url": "https://www.google.com/maps/place/Hanagal+Veerabhadra+Ancient+Temple/@14.7594969,75.1270663,17z/data=!3m1!4b1!4m6!3m5!1s0x3bb94fbe969ee7f5:0x5764bf4b1f3b4740!8m2!3d14.7594969!4d75.1270663!16s%2Fg%2F11csrw_n9w?entry=ttu&g_ep=EgoyMDI1MDgwNC4wIKXMDSoASAFQAw%3D%3D"
  },
  {
    "name": "Kaginahare Fort",
    "lat": 12.7979097,
    "lng": 75.6531506,
    "url": "https://www.google.com/maps/place/Kaginahare+Fort/@12.7979097,75.6531506,17z/data=!3m1!4b1!4m6!3m5!1s0x3ba4de3860a964e9:0xd5aaa528066b8d2c!8m2!3d12.7979097!4d75.6531506!16s%2Fg%2F11f344zg_1?entry=ttu&g_ep=EgoyMDI1MDgwMy4wIKXMDSoASAFQAw%3D%3D"
  },
  {
    "name": "Choukari fort",
    "lat": 27.6476662,
    "lng": 75.6170934,
    "url": "https://www.google.com/maps/place/Shekhagarh+Fort/@27.6476662,75.6170934,17z/data=!3m1!4b1!4m6!3m5!1s0x396cdbfcb53d556b:0xc714efd9ec0a0a81!8m2!3d27.6476662!4d75.6170934!16s%2Fg%2F11f351lbg7?entry=ttu&g_ep=EgoyMDI1MDgwNC4wIKXMDSoASAFQAw%3D%3D"
  },
  {
    "name": "Bishnupur Fort",
    "lat": 23.0726158,
    "lng": 87.3246883,
    "url": "https://www.google.com/maps/place/Bishnupur+Fort/@23.0726158,87.3246883,17z/data=!3m1!4b1!4m6!3m5!1s0x39f793df6d9bafd3:0x128750288849306f!8m2!3d23.0726158!4d87.3246883!16s%2Fg%2F11c617b21y?entry=ttu&g_ep=EgoyMDI1MDgwMy4wIKXMDSoASAFQAw%3D%3D"
  },
  {
    "name": "Sumargad",
    "lat": 17.8086788,
    "lng": 73.5117405,
    "url": "https://www.google.com/maps/place/Sumargad+Fort/@17.8086788,73.5117405,17z/data=!3m1!4b1!4m6!3m5!1s0x3bc275d548555555:0xf5a9daf9269a6630!8m2!3d17.8086788!4d73.5117405!16s%2Fg%2F11sskrf50k?entry=ttu&g_ep=EgoyMDI1MDgwMy4wIKXMDSoASAFQAw%3D%3D"
  },
  {
    "name": "Bankapur Fort",
    "lat": 14.9232796,
    "lng": 75.2512783,
    "url": "https://www.google.com/maps/place/Bankapur+Fort,+Bankapura,+Karnataka+581202,+India/@14.9232796,75.2512783,16z/data=!3m1!4b1!4m6!3m5!1s0x3bb93f559bb7d929:0x6085f700e6953f31!8m2!3d14.92367!4d75.2522813!16s%2Fg%2F12hkrqp3t?entry=ttu&g_ep=EgoyMDI1MDgwMy4wIKXMDSoASAFQAw%3D%3D"
  },
  {
    "name": "sorsan fort",
    "lat": 25.0113046,
    "lng": 76.3120831,
    "url": "https://www.google.com/maps/place/sorsan+fort/@25.0113046,76.3120831,17z/data=!3m1!4b1!4m6!3m5!1s0x3965579fac9da1d7:0xd34f013f1710f6ea!8m2!3d25.0113046!4d76.3120831!16s%2Fg%2F11fmf3x70q?entry=ttu&g_ep=EgoyMDI1MDgwMy4wIKXMDSoASAFQAw%3D%3D"
  },
  {
    "name": "25\u00b006'35.5\"N 74\u00b053'10.5\"E",
    "lat": 25.109861,
    "lng": 74.88624,
    "url": "https://www.google.com/maps/place/25%C2%B006'35.5%22N+74%C2%B053'10.5%22E/@25.109861,74.88624,17z/data=!3m1!4b1!4m4!3m3!8m2!3d25.109861!4d74.88624?entry=ttu&g_ep=EgoyMDI1MDgwMy4wIKXMDSoASAFQAw%3D%3D"
  },
  {
    "name": "Saragarhi Fort",
    "lat": 33.5546975,
    "lng": 70.8869256,
    "url": "https://www.google.com/maps/place/Saragarhi+Fort/@33.5546975,70.8869256,17z/data=!3m1!4b1!4m6!3m5!1s0x38d8492b3679da61:0x79da947ef503f715!8m2!3d33.5546975!4d70.8869256!16s%2Fg%2F11fkf07m7w?entry=ttu&g_ep=EgoyMDI1MDgwMy4wIKXMDSoASAFQAw%3D%3D"
  },
  {
    "name": "Sree Ramanatha temple",
    "lat": 12.4991005,
    "lng": 75.2704296,
    "url": "https://www.google.com/maps/place/Sree+Rama+Temple/@12.4991005,75.2704296,17z/data=!3m1!4b1!4m6!3m5!1s0x3ba48c12a4ac90c3:0x677f72f11cb1fa81!8m2!3d12.4991005!4d75.2704296!16s%2Fg%2F1tdz37qx?entry=ttu&g_ep=EgoyMDI1MDgwMy4wIKXMDSoASAFQAw%3D%3D"
  },
  {
    "name": "Balapir Mughal Qila",
    "lat": 27.0579875,
    "lng": 79.9210781,
    "url": "https://www.google.com/maps/place/Balapeer+ka+maqbara/@27.0579875,79.9210781,17z/data=!3m1!4b1!4m6!3m5!1s0x399e6588768c82e9:0x23fc441367bde77e!8m2!3d27.0579875!4d79.9210781!16s%2Fg%2F1tdnzwmm?entry=ttu&g_ep=EgoyMDI1MDgwMy4wIKXMDSoASAFQAw%3D%3D"
  },
  {
    "name": "Sakharayapatna Old Fort",
    "lat": 13.432966,
    "lng": 75.9223807,
    "url": "https://www.google.com/maps/place/Sakharayapatna+Old+Fort/@13.432966,75.9223807,17z/data=!3m1!4b1!4m6!3m5!1s0x3bbac37d349f09bd:0x67bbd84b75b8149e!8m2!3d13.432966!4d75.9223807!16s%2Fg%2F11gzrkn8tj?entry=ttu&g_ep=EgoyMDI1MDgwMy4wIKXMDSoASAFQAw%3D%3D"
  },
  {
    "name": "Raj Darbaar",
    "lat": 31.1189115,
    "lng": 77.5444087,
    "url": "https://www.google.com/maps/place/Raj+Darbaar/@31.1189115,77.5444087,17z/data=!3m1!4b1!4m6!3m5!1s0x39058dfeb2d671b1:0x6946b276dc637635!8m2!3d31.1189115!4d77.5444087!16s%2Fg%2F11f6ksvxwd?entry=ttu&g_ep=EgoyMDI1MDgwMy4wIKXMDSoASAFQAw%3D%3D"
  },
  {
    "name": "Nimbahera Garh Fort",
    "lat": 25.5069896,
    "lng": 74.1448711,
    "url": "https://www.google.com/maps/place/G44V%2BRWJ,+Nimbahera+LOCAL,+Nimbahera+Jatan,+Rajasthan+311804,+India/@25.5069896,74.1448711,17z/data=!3m1!4b1!4m6!3m5!1s0x3968548d010d9fc7:0xaf1f1d6bcaa4fb1d!8m2!3d25.5069154!4d74.1448239!16s%2Fg%2F11bvth5zv9?entry=ttu&g_ep=EgoyMDI1MDgwMy4wIKXMDSoASAFQAw%3D%3D"
  },
  {
    "name": "Guhala Fort",
    "lat": 27.6891856,
    "lng": 75.6338401,
    "url": "https://www.google.com/maps/place/Guhala+Fort./@27.6891856,75.6338401,17z/data=!3m1!4b1!4m6!3m5!1s0x396cd99ca2bc4627:0x40773e253e59b7c!8m2!3d27.6891856!4d75.6338401!16s%2Fg%2F11fyzb5_zp?entry=ttu&g_ep=EgoyMDI1MDgwMy4wIKXMDSoASAFQAw%3D%3D"
  },
  {
    "name": "Surya Temple Balaji Town",
    "lat": 25.5760968,
    "lng": 78.6000836,
    "url": "https://www.google.com/maps/place/Surya+Temple+Balaji+Town+(Unao+Balaji)/@25.5760968,78.6000836,17z/data=!3m1!4b1!4m6!3m5!1s0x397774c354d60521:0xee34114fd2652525!8m2!3d25.5760968!4d78.6000836!16s%2Fg%2F1hjgvq150?entry=ttu&g_ep=EgoyMDI1MDgwMy4wIKXMDSoASAFQAw%3D%3D"
  },
  {
    "name": "Povval fort",
    "lat": 12.5121238,
    "lng": 75.0773582,
    "url": "https://www.google.com/maps/place/Povval+fort/@12.5121238,75.0773582,17z/data=!3m1!4b1!4m6!3m5!1s0x3ba48465c8555555:0x38ee054eb0e9978b!8m2!3d12.5121238!4d75.0773582!16s%2Fg%2F11fylqm233?entry=ttu&g_ep=EgoyMDI1MDgwMy4wIKXMDSoASAFQAw%3D%3D"
  },
  {
    "name": "Saladipura Fort",
    "lat": 27.6454074,
    "lng": 75.5218468,
    "url": "https://www.google.com/maps/place/Saledipura+Fort/@27.6454074,75.5218468,17z/data=!3m1!4b1!4m6!3m5!1s0x396cc4b69df62803:0xd9e3613e3266db30!8m2!3d27.6454074!4d75.5218468!16s%2Fg%2F11fxz778j1?entry=ttu&g_ep=EgoyMDI1MDgwMy4wIKXMDSoASAFQAw%3D%3D"
  },
  {
    "name": "Chandrachud Wada",
    "lat": 18.7938304,
    "lng": 73.9283719,
    "url": "https://www.google.com/maps/place/Shingavi+wada/@18.7938304,73.9283719,17z/data=!3m1!4b1!4m6!3m5!1s0x3bc2cbaefd2dbbd7:0xa3a0a5085753814c!8m2!3d18.7938304!4d73.9283719!16s%2Fg%2F11jkwpx0vh?entry=ttu&g_ep=EgoyMDI1MDgwNC4wIKXMDSoASAFQAw%3D%3D"
  },
  {
    "name": "Jaunpur Fort.",
    "lat": 25.7496418,
    "lng": 82.6885188,
    "url": "https://www.google.com/maps/place/Shahi+Qila,+Jaunpur+(Jaunpur+Fort)/@25.7496418,82.6885188,17z/data=!3m1!4b1!4m6!3m5!1s0x39903bcda1663335:0xaf234622dfe84502!8m2!3d25.7496418!4d82.6885188!16s%2Fg%2F11f5bxxy49?entry=ttu&g_ep=EgoyMDI1MDgwMy4wIKXMDSoASAFQAw%3D%3D"
  },
  {
    "name": "Gumbat Fort",
    "lat": 34.7263756,
    "lng": 71.8638176,
    "url": "https://www.google.com/maps/place/Gumbat+Fort/@34.7263756,71.8638176,17z/data=!3m1!4b1!4m6!3m5!1s0x38dbf7effa3bda95:0xc5b60878d617fa6f!8m2!3d34.7263756!4d71.8638176!16s%2Fg%2F11fmlgh45q?entry=ttu&g_ep=EgoyMDI1MDgwMy4wIKXMDSoASAFQAw%3D%3D"
  },
  {
    "name": "26\u00b010'42.2\"N 74\u00b058'34.6\"E",
    "lat": 26.178375,
    "lng": 74.976288,
    "url": "https://www.google.com/maps/place/26%C2%B010'42.2%22N+74%C2%B058'34.6%22E/@26.178375,74.976288,17z/data=!3m1!4b1!4m4!3m3!8m2!3d26.178375!4d74.976288?entry=ttu&g_ep=EgoyMDI1MDgwMy4wIKXMDSoASAFQAw%3D%3D"
  },
  {
    "name": "Suraj Pole",
    "lat": 24.5363535,
    "lng": 76.1741828,
    "url": "https://www.google.com/maps/place/Suraj+Pole/@24.5363535,76.1741828,17z/data=!3m1!4b1!4m6!3m5!1s0x39653d6e622bfa63:0xfcff47663ca8ccb1!8m2!3d24.5363535!4d76.1741828!16s%2Fg%2F11ghpb_bmc?entry=ttu&g_ep=EgoyMDI1MDgwMy4wIKXMDSoASAFQAw%3D%3D"
  },
  {
    "name": "Kumbla Fort",
    "lat": 12.6021872,
    "lng": 74.9399757,
    "url": "https://www.google.com/maps/place/Arikady+Fort/@12.6021872,74.9399757,17z/data=!3m1!4b1!4m6!3m5!1s0x3ba362f58b60d33f:0x8c8ebf9db9d7962d!8m2!3d12.6021872!4d74.9399757!16s%2Fg%2F1263hly9z?entry=ttu&g_ep=EgoyMDI1MDgwMy4wIKXMDSoASAFQAw%3D%3D"
  },
  {
    "name": "Gangrar khatana Fort",
    "lat": 44.2423649,
    "lng": -119.8093025,
    "url": "https://www.google.com/maps/place//@44.2423649,-119.8093025,3z/data=!3m1!4b1?entry=ttu&g_ep=EgoyMDI1MDgwMy4wIKXMDSoASAFQAw%3D%3D"
  },
  {
    "name": "Warangal Fort",
    "lat": 17.9568351,
    "lng": 79.6157098,
    "url": "https://www.google.com/maps/place/Warangal+Fort/@17.9568351,79.6157098,17z/data=!3m1!4b1!4m6!3m5!1s0x3a335b2d6dcbafe3:0x97a58bc4da2ea1c4!8m2!3d17.9568351!4d79.6157098!16s%2Fm%2F0nfvtvh?entry=ttu&g_ep=EgoyMDI1MDgwMy4wIKXMDSoASAFQAw%3D%3D"
  },
  {
    "name": "Gobindgarh Fort",
    "lat": 31.626903,
    "lng": 74.860054,
    "url": "https://www.google.com/maps/place/Gobindgarh+Fort/@31.626903,74.860054,17z/data=!3m1!4b1!4m6!3m5!1s0x391964b2d0c29a03:0x2035db13b3dee9eb!8m2!3d31.626903!4d74.860054!16s%2Fm%2F012dvlmc?entry=ttu&g_ep=EgoyMDI1MDgwMy4wIKXMDSoASAFQAw%3D%3D"
  },
  {
    "name": "KAMRU FORT",
    "lat": 31.4366183,
    "lng": 78.2580819,
    "url": "https://www.google.com/maps/place/Kamru+Fort/@31.4366183,78.2580819,17z/data=!3m1!4b1!4m6!3m5!1s0x3906153b9f615d31:0x7d0172b7045b003b!8m2!3d31.4366183!4d78.2580819!16s%2Fg%2F11b6stqp9j?entry=ttu&g_ep=EgoyMDI1MDgwMy4wIKXMDSoASAFQAw%3D%3D"
  },
  {
    "name": "Parasgad Fort",
    "lat": 15.7402565,
    "lng": 75.1289981,
    "url": "https://www.google.com/maps/place/Yedravi+Fort,+Yedravi+Fort+Rd,+Savadatti+Yallamma,+Karnataka+591173,+India/@15.7402565,75.1289981,17z/data=!3m1!4b1!4m6!3m5!1s0x3bb8b0cbaebc845d:0x286ff9f709e58287!8m2!3d15.7402565!4d75.1289981!16zL20vMDlsX181?entry=ttu&g_ep=EgoyMDI1MDgwMy4wIKXMDSoASAFQAw%3D%3D"
  },
  {
    "name": "BisalGhar Fort",
    "lat": 24.9874869,
    "lng": 75.4035386,
    "url": "https://www.google.com/maps/place/BishanGarh+Fort/@24.9874869,75.4035386,17z/data=!3m1!4b1!4m6!3m5!1s0x396f61093d8ff5f9:0xb01de7ae1e8edf3d!8m2!3d24.9874869!4d75.4035386!16s%2Fg%2F11kp5047fh?entry=ttu&g_ep=EgoyMDI1MDgwMy4wIKXMDSoASAFQAw%3D%3D"
  },
  {
    "name": "Lodhi fort ( purana qila)",
    "lat": 30.9241352,
    "lng": 75.8515798,
    "url": "https://www.google.com/maps/place/Lodhi+Fort+(Purana+Qila)/@30.9241352,75.8515798,17z/data=!3m1!4b1!4m6!3m5!1s0x391a839d371d2a5b:0x125ba06d7cf9137c!8m2!3d30.9241352!4d75.8515798!16s%2Fg%2F1tf061h8?entry=ttu&g_ep=EgoyMDI1MDgwMy4wIKXMDSoASAFQAw%3D%3D"
  },
  {
    "name": "Lasalgaon Fort",
    "lat": 20.1421431,
    "lng": 74.2392325,
    "url": "https://www.google.com/maps/place/Lasalgaon+Fort/@20.1421431,74.2392325,17z/data=!3m1!4b1!4m6!3m5!1s0x3bdc32ddc5fde397:0x3ded6c815e3d6d3e!8m2!3d20.1421431!4d74.2392325!16s%2Fg%2F11g5_bk17p?entry=ttu&g_ep=EgoyMDI1MDgwMy4wIKXMDSoASAFQAw%3D%3D"
  },
  {
    "name": "Chandragiri Fort",
    "lat": 12.4699372,
    "lng": 75.003245,
    "url": "https://www.google.com/maps/place/Chandragiri+Fort/@12.4699372,75.003245,17z/data=!3m1!4b1!4m6!3m5!1s0x3ba48187d3f83147:0x68e45bedafe9595e!8m2!3d12.4699372!4d75.003245!16zL20vMDhqdnE0?entry=ttu&g_ep=EgoyMDI1MDgwMy4wIKXMDSoASAFQAw%3D%3D"
  },
  {
    "name": "Kadera Fort",
    "lat": 25.8074142,
    "lng": 75.056004,
    "url": "https://www.google.com/maps/place/Kadera+Fort/@25.8074142,75.056004,17z/data=!3m1!4b1!4m6!3m5!1s0x396ed21709c5bacb:0x5efbfd0455a47222!8m2!3d25.8074142!4d75.056004!16s%2Fg%2F11bwkdrw1z?entry=ttu&g_ep=EgoyMDI1MDgwMy4wIKXMDSoASAFQAw%3D%3D"
  },
  {
    "name": "Chhachhrauli Fort",
    "lat": 30.2449932,
    "lng": 77.3578936,
    "url": "https://www.google.com/maps/place/Chhachhrauli+Fort/@30.2449932,77.3578936,17z/data=!3m1!4b1!4m6!3m5!1s0x390efd31b527c4f3:0x7eaa4abfb621002a!8m2!3d30.2449932!4d77.3578936!16s%2Fg%2F11gtz73w80?entry=ttu&g_ep=EgoyMDI1MDgwMy4wIKXMDSoASAFQAw%3D%3D"
  },
  {
    "name": "Barkur Fort",
    "lat": 13.471359,
    "lng": 74.7561049,
    "url": "https://www.google.com/maps/place/Barkur+Fort,+Moodahadu,+Karnataka+576210,+India/@13.471359,74.7561049,17z/data=!3m1!4b1!4m6!3m5!1s0x3bbc97bde3f7eec9:0xe9e912ca678ceb05!8m2!3d13.4713427!4d74.7560175!16s%2Fg%2F11bvt9xwwp?entry=ttu&g_ep=EgoyMDI1MDgwMy4wIKXMDSoASAFQAw%3D%3D"
  },
  {
    "name": "Dambal Fort",
    "lat": 44.2423649,
    "lng": -119.8093025,
    "url": "https://www.google.com/maps/place//@44.2423649,-119.8093025,3z/data=!3m1!4b1?entry=ttu&g_ep=EgoyMDI1MDgwNC4wIKXMDSoASAFQAw%3D%3D"
  },
  {
    "name": "Bekal Fort",
    "lat": 12.3929083,
    "lng": 75.033553,
    "url": "https://www.google.com/maps/place/Bekal+Fort/@12.3929083,75.033553,17z/data=!3m1!4b1!4m6!3m5!1s0x3ba480997024825b:0xdfa93a3077d7b271!8m2!3d12.3929083!4d75.033553!16zL20vMDJ0empj?entry=ttu&g_ep=EgoyMDI1MDgwMy4wIKXMDSoASAFQAw%3D%3D"
  },
  {
    "name": "Tran Darwaja",
    "lat": 20.5401172,
    "lng": 73.1662269,
    "url": "https://www.google.com/maps/place/Tran+Darwaja,+Gujarat+396050,+India/@20.5401172,73.1662269,17z/data=!3m1!4b1!4m6!3m5!1s0x3be0b94cea32e175:0x408bf9ad43b523b1!8m2!3d20.5401355!4d73.1662374!16s%2Fg%2F11b8tjfyc7?entry=ttu&g_ep=EgoyMDI1MDgwMy4wIKXMDSoASAFQAw%3D%3D"
  },
  {
    "name": "Bahadurgarh Fort",
    "lat": 30.3643141,
    "lng": 76.4722143,
    "url": "https://www.google.com/maps/place/Bahadurgarh+Fort/@30.3643141,76.4722143,17z/data=!3m1!4b1!4m6!3m5!1s0x390fd7f120173fa1:0x366ff5d4d9e4604b!8m2!3d30.3643141!4d76.4722143!16s%2Fg%2F11c49697hl?entry=ttu&g_ep=EgoyMDI1MDgwMy4wIKXMDSoASAFQAw%3D%3D"
  },
  {
    "name": "Manimajra Fort",
    "lat": 30.7144258,
    "lng": 76.8374871,
    "url": "https://www.google.com/maps/place/Manimajra+Fort/@30.7144258,76.8374871,17z/data=!3m1!4b1!4m6!3m5!1s0x390f933aac910633:0x3a3e2cfc6f68e409!8m2!3d30.7144258!4d76.8374871!16s%2Fg%2F11byykj4bk?entry=ttu&g_ep=EgoyMDI1MDgwMy4wIKXMDSoASAFQAw%3D%3D"
  },
  {
    "name": "Mahendragarh Fort \u092e\u0939\u0947\u0928\u094d\u0926\u094d\u0930\u0917\u0922 \u0915\u093e \u0915\u093f\u0932\u093e",
    "lat": 28.2695652,
    "lng": 76.1465966,
    "url": "https://www.google.com/maps/place/Mahendragarh+Fort/@28.2695652,76.1465966,17z/data=!3m1!4b1!4m6!3m5!1s0x3912bff84616a7e3:0xd7972d0d539e42bd!8m2!3d28.2695652!4d76.1465966!16s%2Fg%2F11h3_hyhj_?entry=ttu&g_ep=EgoyMDI1MDgwMy4wIKXMDSoASAFQAw%3D%3D"
  },
  {
    "name": "Hosdurg Fort",
    "lat": 12.3091084,
    "lng": 75.0946832,
    "url": "https://www.google.com/maps/place/Hosdurg+Fort/@12.3091084,75.0946832,17z/data=!3m1!4b1!4m6!3m5!1s0x3ba47c7033253983:0x2077173be9eaa6e8!8m2!3d12.3091084!4d75.0946832!16zL20vMDl5eXFk?entry=ttu&g_ep=EgoyMDI1MDgwMy4wIKXMDSoASAFQAw%3D%3D"
  },
  {
    "name": "Akawad Fort",
    "lat": 24.6246409,
    "lng": 76.4959114,
    "url": "https://www.google.com/maps/place/Akawad+Fort/@24.6246409,76.4959114,17z/data=!3m1!4b1!4m6!3m5!1s0x397acb24822024cd:0xb2dbb1f863137ab4!8m2!3d24.6246409!4d76.4959114!16s%2Fg%2F11jz4cn06y?entry=ttu&g_ep=EgoyMDI1MDgwNC4wIKXMDSoASAFQAw%3D%3D"
  },
  {
    "name": "Kotah Garh",
    "lat": 25.175408,
    "lng": 75.830517,
    "url": "https://www.google.com/maps/place/City+Palace+Garh,+Kota/@25.175408,75.830517,17z/data=!3m1!4b1!4m6!3m5!1s0x396f9b48032289e1:0xdd49243c84a06db3!8m2!3d25.175408!4d75.830517!16s%2Fg%2F1tmxt_gf?entry=ttu&g_ep=EgoyMDI1MDgwMy4wIKXMDSoASAFQAw%3D%3D"
  },
  {
    "name": "Asigarh Fort",
    "lat": 29.1051285,
    "lng": 75.9631268,
    "url": "https://www.google.com/maps/place/Prithviraj+Chauhan+Fort/@29.1051285,75.9631268,17z/data=!3m1!4b1!4m6!3m5!1s0x39123910d05f5055:0x3909a2094462a9c2!8m2!3d29.1051285!4d75.9631268!16s%2Fm%2F0k3lvqh?entry=ttu&g_ep=EgoyMDI1MDgwMy4wIKXMDSoASAFQAw%3D%3D"
  },
  {
    "name": "Kavla Fort",
    "lat": 18.1387286,
    "lng": 73.6066071,
    "url": "https://www.google.com/maps/place/Kavla+Fort/@18.1387286,73.6066071,17z/data=!3m1!4b1!4m6!3m5!1s0x3bc287a97b2d940b:0x272c1e81820c00f8!8m2!3d18.1387286!4d73.6066071!16s%2Fg%2F11b6d405fz?entry=ttu&g_ep=EgoyMDI1MDgwNC4wIKXMDSoASAFQAw%3D%3D"
  },
  {
    "name": "Tehsil ka Chabutra",
    "lat": 28.4044319,
    "lng": 77.8619846,
    "url": "https://www.google.com/maps/place/Tehsil+ka+Chabutra/@28.4044319,77.8619846,17z/data=!3m1!4b1!4m6!3m5!1s0x390ca6ca56daebb7:0x36dcad19e64445ea!8m2!3d28.4044319!4d77.8619846!16s%2Fg%2F11f08ygw05?entry=ttu&g_ep=EgoyMDI1MDgwMy4wIKXMDSoASAFQAw%3D%3D"
  },
  {
    "name": "Dabla Fort",
    "lat": 25.7213145,
    "lng": 74.7375038,
    "url": "https://www.google.com/maps/place/Dabla+Fort/@25.7213145,74.7375038,17z/data=!3m1!4b1!4m6!3m5!1s0x396925ca4daffc55:0x7c80295520da2a81!8m2!3d25.7213145!4d74.7375038!16s%2Fg%2F11f3mbts85?entry=ttu&g_ep=EgoyMDI1MDgwNC4wIKXMDSoASAFQAw%3D%3D"
  },
  {
    "name": "Madikeri Fort",
    "lat": 12.4211545,
    "lng": 75.7387161,
    "url": "https://www.google.com/maps/place/Madikeri+Fort/@12.4211545,75.7387161,17z/data=!3m1!4b1!4m6!3m5!1s0x3ba5aa9fa6aaaaab:0x52ac62295bbe6e8e!8m2!3d12.4211545!4d75.7387161!16s%2Fm%2F0b_zn8j?entry=ttu&g_ep=EgoyMDI1MDgwMy4wIKXMDSoASAFQAw%3D%3D"
  },
  {
    "name": "Khedale Parmanand Fort",
    "lat": 19.4526263,
    "lng": 74.7740459,
    "url": "https://www.google.com/maps/place/Khedale+Parmanand+Fort/@19.4526263,74.7740459,17z/data=!3m1!4b1!4m6!3m5!1s0x3bdc91b83bebb8ef:0xee7b4b8f6b8b1d8c!8m2!3d19.4526263!4d74.7740459!16s%2Fg%2F11fl3yb1sf?entry=ttu&g_ep=EgoyMDI1MDgwMy4wIKXMDSoASAFQAw%3D%3D"
  },
  {
    "name": "Songadh Fort",
    "lat": 21.0900297,
    "lng": 72.9201808,
    "url": "https://www.google.com/maps/place/Songadh+Fort/@21.0900297,72.9201808,17z/data=!3m1!4b1!4m6!3m5!1s0x3bdfd6ce023e41ab:0x8200d914e69373ee!8m2!3d21.0900297!4d72.9201808!16s%2Fg%2F11c56r6dbx?entry=ttu&g_ep=EgoyMDI1MDgwMy4wIKXMDSoASAFQAw%3D%3D"
  },
  {
    "name": "Firoz Shah Palace Complex",
    "lat": 29.1666014,
    "lng": 75.7205773,
    "url": "https://www.google.com/maps/place/Firoz+Shah+Palace+Complex/@29.1666014,75.7205773,17z/data=!3m1!4b1!4m6!3m5!1s0x391232d1f2803761:0x6bc95b333a5b7d36!8m2!3d29.1666014!4d75.7205773!16s%2Fm%2F0jwxjhf?entry=ttu&g_ep=EgoyMDI1MDgwMy4wIKXMDSoASAFQAw%3D%3D"
  },
  {
    "name": "Gagron Fort",
    "lat": 24.6279768,
    "lng": 76.1859755,
    "url": "https://www.google.com/maps/place/Gagron+Fort/@24.6279768,76.1859755,17z/data=!3m1!4b1!4m6!3m5!1s0x396538b2127242c9:0xf06f2092084a6280!8m2!3d24.6279768!4d76.1859755!16s%2Fm%2F01086514?entry=ttu&g_ep=EgoyMDI1MDgwMy4wIKXMDSoASAFQAw%3D%3D"
  },
  {
    "name": "Kulah Fort",
    "lat": 31.242787,
    "lng": 76.7249677,
    "url": "https://www.google.com/maps/place/Kulah+Fort/@31.242787,76.7249677,17z/data=!3m1!4b1!4m6!3m5!1s0x3905479e2beac275:0xac9b40d7b23b41c!8m2!3d31.242787!4d76.7249677!16s%2Fg%2F11kptsltyn?entry=ttu&g_ep=EgoyMDI1MDgwMy4wIKXMDSoASAFQAw%3D%3D"
  },
  {
    "name": "Pathanpura Gate",
    "lat": 19.9352045,
    "lng": 79.2961641,
    "url": "https://www.google.com/maps/place/Pathanpura+Gate/@19.9352045,79.2961641,17z/data=!3m1!4b1!4m6!3m5!1s0x3bd2d4220155b367:0xac83d1c938f43b4!8m2!3d19.9352045!4d79.2961641!16s%2Fg%2F1w110nb3?entry=ttu&g_ep=EgoyMDI1MDgwMy4wIKXMDSoASAFQAw%3D%3D"
  },
  {
    "name": "Kabbaldurga Fort",
    "lat": 12.498363,
    "lng": 77.2944456,
    "url": "https://www.google.com/maps/place/Kabbaladurga+Fort/@12.498363,77.2944456,17z/data=!3m1!4b1!4m6!3m5!1s0x3baef90b70691401:0xbe6ce15e0aeeef50!8m2!3d12.498363!4d77.2944456!16s%2Fg%2F11jg0hhfbt?entry=ttu&g_ep=EgoyMDI1MDgwMy4wIKXMDSoASAFQAw%3D%3D"
  },
  {
    "name": "26\u00b039'16.5\"N 73\u00b029'43.0\"E",
    "lat": 26.654593,
    "lng": 73.495265,
    "url": "https://www.google.com/maps/place/26%C2%B039'16.5%22N+73%C2%B029'43.0%22E/@26.654593,73.495265,17z/data=!3m1!4b1!4m4!3m3!8m2!3d26.654593!4d73.495265?entry=ttu&g_ep=EgoyMDI1MDgwMy4wIKXMDSoASAFQAw%3D%3D"
  },
  {
    "name": "Safidon Fort",
    "lat": 29.4032381,
    "lng": 76.6673792,
    "url": "https://www.google.com/maps/place/Safidon+Fort/@29.4032381,76.6673792,17z/data=!3m1!4b1!4m6!3m5!1s0x390de3338af940ff:0x8ccab733d566f6c3!8m2!3d29.4032381!4d76.6673792!16s%2Fg%2F11h7clw8kc?entry=ttu&g_ep=EgoyMDI1MDgwMy4wIKXMDSoASAFQAw%3D%3D"
  },
  {
    "name": "Rajwada",
    "lat": 20.5655799,
    "lng": 75.2098909,
    "url": "https://www.google.com/maps/place/Rajwada,+Neri-Akhatwade+Rd,+Nagardeola,+Maharashtra+424104,+India/@20.5655799,75.2098909,17z/data=!3m1!4b1!4m6!3m5!1s0x3bd95bc91f9cd053:0x2bb34b8809644da8!8m2!3d20.5655799!4d75.2098909!16s%2Fg%2F11bc8crn_r?entry=ttu&g_ep=EgoyMDI1MDgwMy4wIKXMDSoASAFQAw%3D%3D"
  },
  {
    "name": "Dhanora Fort",
    "lat": 20.3965415,
    "lng": 77.1491651,
    "url": "https://www.google.com/maps/place/Dhanora+Fort/@20.3965415,77.1491651,17z/data=!3m1!4b1!4m6!3m5!1s0x3bd0d98c28f8cbd1:0xdeff7a392a09e9b7!8m2!3d20.3965415!4d77.1491651!16s%2Fg%2F11v59pchbb?entry=ttu&g_ep=EgoyMDI1MDgwMy4wIKXMDSoASAFQAw%3D%3D"
  },
  {
    "name": "Fort Suratgarh",
    "lat": 29.326994,
    "lng": 73.9003924,
    "url": "https://www.google.com/maps/place/Suratgarh+Fort/@29.326994,73.9003924,17z/data=!3m1!4b1!4m6!3m5!1s0x3916725cb64b3405:0x79baf52aeb07e9f7!8m2!3d29.326994!4d73.9003924!16s%2Fg%2F11h9_rsg4q?entry=ttu&g_ep=EgoyMDI1MDgwMy4wIKXMDSoASAFQAw%3D%3D"
  },
  {
    "name": "Fort Mejan",
    "lat": 25.4085333,
    "lng": 74.5530537,
    "url": "https://www.google.com/maps/place/Fort+Meja/@25.4085333,74.5530537,17z/data=!3m1!4b1!4m6!3m5!1s0x3968e7fbb2024e45:0x35224acad618718d!8m2!3d25.4085333!4d74.5530537!16s%2Fg%2F11ss5vyzl3?entry=ttu&g_ep=EgoyMDI1MDgwMy4wIKXMDSoASAFQAw%3D%3D"
  },
  {
    "name": "Bhopalgarh Fort",
    "lat": 26.6547826,
    "lng": 73.4916479,
    "url": "https://www.google.com/maps/place/Bhopalgarh+Fort/@26.6547826,73.4916479,17z/data=!3m1!4b1!4m6!3m5!1s0x396a75dd1d5c3b0d:0x3b5bfda910d1e853!8m2!3d26.6547826!4d73.4916479!16s%2Fg%2F11cs4kwy8r?entry=ttu&g_ep=EgoyMDI1MDgwMy4wIKXMDSoASAFQAw%3D%3D"
  },
  {
    "name": "Prem Darwaja",
    "lat": 23.0375514,
    "lng": 72.6038745,
    "url": "https://www.google.com/maps/place/Prem+Darwaza,+Saraspur,+Ahmedabad,+Gujarat,+India/@23.0375514,72.6038745,16z/data=!3m1!4b1!4m6!3m5!1s0x395e843b4813f745:0xde6aa1c5964f26d5!8m2!3d23.0356952!4d72.601811!16s%2Fg%2F1tn045nk?entry=ttu&g_ep=EgoyMDI1MDgwMy4wIKXMDSoASAFQAw%3D%3D"
  },
  {
    "name": "Begur Fort",
    "lat": 12.8708564,
    "lng": 77.6224697,
    "url": "https://www.google.com/maps/place/Begur+Fort/@12.8708564,77.6224697,17z/data=!3m1!4b1!4m6!3m5!1s0x3bae6b3112467ebf:0xb246962a64f26bd8!8m2!3d12.8708564!4d77.6224697!16s%2Fg%2F1tl0vslx?entry=ttu&g_ep=EgoyMDI1MDgwNC4wIKXMDSoASAFQAw%3D%3D"
  },
  {
    "name": "Jivdhan Fort",
    "lat": 19.276822,
    "lng": 73.6854472,
    "url": "https://www.google.com/maps/place/Jivdhan+Fort/@19.276822,73.6854472,17z/data=!3m1!4b1!4m6!3m5!1s0x3bdd68c28c6bd6b9:0xf7d53bdda001a8ce!8m2!3d19.276822!4d73.6854472!16s%2Fm%2F0n8_t8j?entry=ttu&g_ep=EgoyMDI1MDgwNC4wIKXMDSoASAFQAw%3D%3D"
  },
  {
    "name": "Jeganiya Fort",
    "lat": 27.9824138,
    "lng": 74.3899056,
    "url": "https://www.google.com/maps/place/Jeganiya+Fort/@27.9824138,74.3899056,17z/data=!3m1!4b1!4m6!3m5!1s0x3914dac76ed2b80d:0x8f7cd41ba3d7bbd3!8m2!3d27.9824138!4d74.3899056!16s%2Fg%2F11dymnm42c?entry=ttu&g_ep=EgoyMDI1MDgwMy4wIKXMDSoASAFQAw%3D%3D"
  },
  {
    "name": "Fatehpur Fort",
    "lat": 22.6963921,
    "lng": 78.5107329,
    "url": "https://www.google.com/maps/place/Fatehpur+Fort/@22.6963921,78.5107329,17z/data=!3m1!4b1!4m6!3m5!1s0x397e4fc232612f91:0xd0db4a825f156ac4!8m2!3d22.6963921!4d78.5107329!16s%2Fg%2F11ry9bskwl?entry=ttu&g_ep=EgoyMDI1MDgwMy4wIKXMDSoASAFQAw%3D%3D"
  },
  {
    "name": "shivna fort",
    "lat": 20.4764213,
    "lng": 75.8047302,
    "url": "https://www.google.com/maps/place/shivna+fort/@20.4764213,75.8047302,17z/data=!3m1!4b1!4m6!3m5!1s0x3bda2b0f124c0f45:0xb5ba34cad9adcbb5!8m2!3d20.4764213!4d75.8047302!16s%2Fg%2F11kk8gpl0t?entry=ttu&g_ep=EgoyMDI1MDgwMy4wIKXMDSoASAFQAw%3D%3D"
  },
  {
    "name": "Sarangpur Darwaja",
    "lat": 23.0200511,
    "lng": 72.5978623,
    "url": "https://www.google.com/maps/place/Sarangpur+Darwaja/@23.0200511,72.5978623,17z/data=!3m1!4b1!4m6!3m5!1s0x395e843383566cd5:0x4c3bd6c8ad37ff46!8m2!3d23.0200511!4d72.5978623!16s%2Fg%2F12hy39475?entry=ttu&g_ep=EgoyMDI1MDgwMy4wIKXMDSoASAFQAw%3D%3D"
  },
  {
    "name": "24\u00b055'16.5\"N 76\u00b050'33.4\"E",
    "lat": 24.921235,
    "lng": 76.842603,
    "url": "https://www.google.com/maps/place/24%C2%B055'16.5%22N+76%C2%B050'33.4%22E/@24.921235,76.842603,17z/data=!3m1!4b1!4m4!3m3!8m2!3d24.921235!4d76.842603?entry=ttu&g_ep=EgoyMDI1MDgwMy4wIKXMDSoASAFQAw%3D%3D"
  },
  {
    "name": "Tiun / Tiyun and Sriyun Forts",
    "lat": 31.4754983,
    "lng": 76.7355,
    "url": "https://www.google.com/maps/place/Tiun+%2F+Tiyun+and+Sriyun+Forts/@31.4754983,76.7355,17z/data=!3m1!4b1!4m6!3m5!1s0x39053d55c0879ec7:0xbc707fd8b06a9d68!8m2!3d31.4754983!4d76.7355!16s%2Fg%2F11jp1r786c?entry=ttu&g_ep=EgoyMDI1MDgwMy4wIKXMDSoASAFQAw%3D%3D"
  },
  {
    "name": "Purnagad Fort",
    "lat": 16.8080173,
    "lng": 73.3149561,
    "url": "https://www.google.com/maps/place/Purnagad+Fort/@16.8080173,73.3149561,17z/data=!3m1!4b1!4m6!3m5!1s0x3bea706778155555:0x3693ce4f40686830!8m2!3d16.8080173!4d73.3149561!16s%2Fg%2F11g9l_ytqp?entry=ttu&g_ep=EgoyMDI1MDgwMy4wIKXMDSoASAFQAw%3D%3D"
  },
  {
    "name": "\u0cb6\u0ccd\u0cb0\u0cc0\u0cae\u0c82\u0ca4 \u0cb8\u0cb0\u0ccd\u0ca6\u0cbe\u0cb0 \u0c85\u0c82\u0c95\u0cb2\u0cbf\u0c95\u0cb0 \u0c85\u0cb5\u0cb0 \u0cb0\u0cbe\u0c9c\u0cb5\u0cbe\u0ca1\u0cc6, \u0c85\u0c82\u0c95\u0cb2\u0cbf.",
    "lat": 16.5465862,
    "lng": 74.6760132,
    "url": "https://www.google.com/maps/place/%E0%B2%B6%E0%B3%8D%E0%B2%B0%E0%B3%80%E0%B2%AE%E0%B2%82%E0%B2%A4+%E0%B2%B8%E0%B2%B0%E0%B3%8D%E0%B2%A6%E0%B2%BE%E0%B2%B0+%E0%B2%85%E0%B2%82%E0%B2%95%E0%B2%B2%E0%B2%BF%E0%B2%95%E0%B2%B0+%E0%B2%85%E0%B2%B5%E0%B2%B0+%E0%B2%B0%E0%B2%BE%E0%B2%9C%E0%B2%B5%E0%B2%BE%E0%B2%A1%E0%B3%86,+%E0%B2%85%E0%B2%82%E0%B2%95%E0%B2%B2%E0%B2%BF/@16.5465862,74.6760132,17z/data=!3m1!4b1!4m6!3m5!1s0x3bc0dd2474c92757:0x8cc871a9d26e3ab3!8m2!3d16.5465862!4d74.6760132!16s%2Fg%2F11lbry23pn?entry=ttu&g_ep=EgoyMDI1MDgwMy4wIKXMDSoASAFQAw%3D%3D"
  },
  {
    "name": "Fort Khuri",
    "lat": 27.8325351,
    "lng": 74.6971575,
    "url": "https://www.google.com/maps/place/The+Khuri+Fort/@27.8325351,74.6971575,17z/data=!3m1!4b1!4m6!3m5!1s0x3914b35d3e4a2137:0x6ff2f4ab0f854d7d!8m2!3d27.8325351!4d74.6971575!16s%2Fg%2F11gbwv4wkg?entry=ttu&g_ep=EgoyMDI1MDgwMy4wIKXMDSoASAFQAw%3D%3D"
  },
  {
    "name": "Satavali fort",
    "lat": 16.7643344,
    "lng": 73.4505784,
    "url": "https://www.google.com/maps/place/Satavali+fortress/@16.7643344,73.4505784,17z/data=!3m1!4b1!4m6!3m5!1s0x3bea792137a934e7:0x2ac56d962cae729e!8m2!3d16.7643344!4d73.4505784!16s%2Fg%2F11fd75sv08?entry=ttu&g_ep=EgoyMDI1MDgwMy4wIKXMDSoASAFQAw%3D%3D"
  },
  {
    "name": "Fatehgarh Fort",
    "lat": 24.7998643,
    "lng": 76.9657463,
    "url": "https://www.google.com/maps/place/Fatehgarh+Fort/@24.7998643,76.9657463,17z/data=!3m1!4b1!4m6!3m5!1s0x397a922d1f2a7eed:0x49db59960658e9d5!8m2!3d24.7998643!4d76.9657463!16s%2Fg%2F11g9qfkfgg?entry=ttu&g_ep=EgoyMDI1MDgwMy4wIKXMDSoASAFQAw%3D%3D"
  },
  {
    "name": "Dhar bhartha Fort",
    "lat": 31.237499,
    "lng": 76.709336,
    "url": "https://www.google.com/maps/place/Dhar+bhartha+Fort/@31.237499,76.709336,17z/data=!3m1!4b1!4m6!3m5!1s0x39054745e1cab921:0x3e460746012332e5!8m2!3d31.237499!4d76.709336!16s%2Fg%2F11v0cj9t_5?entry=ttu&g_ep=EgoyMDI1MDgwMy4wIKXMDSoASAFQAw%3D%3D"
  },
  {
    "name": "Siddhagad Fort (Bale Killa)",
    "lat": 19.1586874,
    "lng": 73.5240349,
    "url": "https://www.google.com/maps/place/Siddhagad+Fort+(Bale+Killa)/@19.1586874,73.5240349,17z/data=!3m1!4b1!4m6!3m5!1s0x3bdd5e4fa4e1d39f:0x45046d511d86e9da!8m2!3d19.1586874!4d73.5240349!16s%2Fg%2F1pt_164d5?entry=ttu&g_ep=EgoyMDI1MDgwMy4wIKXMDSoASAFQAw%3D%3D"
  },
  {
    "name": "Kothaligad",
    "lat": 18.9920875,
    "lng": 73.5129844,
    "url": "https://www.google.com/maps/place/Kothaligad/@18.9920875,73.5129844,17z/data=!3m1!4b1!4m6!3m5!1s0x3bdd5777d21b5d6f:0x2f7c0dd6622b4e16!8m2!3d18.9920875!4d73.5129844!16s%2Fm%2F03qp5gj?entry=ttu&g_ep=EgoyMDI1MDgwMy4wIKXMDSoASAFQAw%3D%3D"
  },
  {
    "name": "Panchkuva Darwaja",
    "lat": 23.0251248,
    "lng": 72.5972404,
    "url": "https://www.google.com/maps/place/Panchkuva+Darwaja/@23.0251248,72.5972404,17z/data=!3m1!4b1!4m6!3m5!1s0x395e8436aacb5cfd:0x8cfe1e2eeb44371!8m2!3d23.0251248!4d72.5972404!16s%2Fg%2F11c1ndsw60?entry=ttu&g_ep=EgoyMDI1MDgwMy4wIKXMDSoASAFQAw%3D%3D"
  },
  {
    "name": "Rachakonda fort top",
    "lat": 17.1771054,
    "lng": 78.8103756,
    "url": "https://www.google.com/maps/place/Rachakonda+fort+top/@17.1771054,78.8103756,17z/data=!3m1!4b1!4m6!3m5!1s0x3bcb0f7120cd6dbf:0xd44c09a75fd8d193!8m2!3d17.1771054!4d78.8103756!16s%2Fg%2F11hzcyhb1r?entry=ttu&g_ep=EgoyMDI1MDgwMy4wIKXMDSoASAFQAw%3D%3D"
  },
  {
    "name": "Khajari / Kachhaura Khas Fort",
    "lat": 25.0812471,
    "lng": 79.1913167,
    "url": "https://www.google.com/maps/place/Kachhaura+Khas+Fort/@25.0812471,79.1913167,17z/data=!3m1!4b1!4m6!3m5!1s0x39781b3da272d209:0x5f7008094135dd90!8m2!3d25.0812471!4d79.1913167!16s%2Fg%2F11jdvyskwm?entry=ttu&g_ep=EgoyMDI1MDgwNC4wIKXMDSoASAFQAw%3D%3D"
  },
  {
    "name": "Mahela Fort",
    "lat": 28.984915,
    "lng": 74.3118849,
    "url": "https://www.google.com/maps/place/Mahela+Fort/@28.984915,74.3118849,17z/data=!3m1!4b1!4m6!3m5!1s0x39143162aa8b8f1d:0xf26aa58c25ccfa79!8m2!3d28.984915!4d74.3118849!16s%2Fg%2F11gdkr7k23?entry=ttu&g_ep=EgoyMDI1MDgwMy4wIKXMDSoASAFQAw%3D%3D"
  },
  {
    "name": "Sardargarh Heritage Hotel.",
    "lat": 25.2410234,
    "lng": 73.9876005,
    "url": "https://www.google.com/maps/place/Sardargarh+Heritage+Fort/@25.2410234,73.9876005,17z/data=!3m1!4b1!4m9!3m8!1s0x3967e56f4b89e6e1:0xa3259c335501fb95!5m2!4m1!1i2!8m2!3d25.2410234!4d73.9876005!16s%2Fg%2F1vppqybk?entry=ttu&g_ep=EgoyMDI1MDgwMy4wIKXMDSoASAFQAw%3D%3D"
  },
  {
    "name": "Sheetal Garhi (Fortress) , maheba",
    "lat": 24.9964583,
    "lng": 79.4780945,
    "url": "https://www.google.com/maps/place/Sheetal+Garhi+(Fortress)+,+maheba/@24.9964583,79.4780945,17z/data=!3m1!4b1!4m6!3m5!1s0x3982a3fbba86eafb:0x253532edbb83cfda!8m2!3d24.9964583!4d79.4780945!16s%2Fg%2F11c74d879m?entry=ttu&g_ep=EgoyMDI1MDgwMy4wIKXMDSoASAFQAw%3D%3D"
  },
  {
    "name": "Bhapkar Fort",
    "lat": 18.2263492,
    "lng": 74.3812895,
    "url": "https://www.google.com/maps/place/Bhapkar+Fort/@18.2263492,74.3812895,17z/data=!3m1!4b1!4m6!3m5!1s0x3bc3064064555555:0x6da8e07815a9954e!8m2!3d18.2263492!4d74.3812895!16s%2Fg%2F11gdrp8wf5?entry=ttu&g_ep=EgoyMDI1MDgwMy4wIKXMDSoASAFQAw%3D%3D"
  },
  {
    "name": "Lohara Fort",
    "lat": 19.5301442,
    "lng": 77.1702588,
    "url": "https://www.google.com/maps/place/Lohara+Fort/@19.5301442,77.1702588,17z/data=!3m1!4b1!4m6!3m5!1s0x3bd04beca8e8f3f9:0x49085cf6f5c4d63c!8m2!3d19.5301442!4d77.1702588!16s%2Fg%2F11jkmm2gg8?entry=ttu&g_ep=EgoyMDI1MDgwMy4wIKXMDSoASAFQAw%3D%3D"
  },
  {
    "name": "Lohsana Fort",
    "lat": 28.4275845,
    "lng": 75.191173,
    "url": "https://www.google.com/maps/place/Lohsana+Fort/@28.4275845,75.191173,17z/data=!3m1!4b1!4m6!3m5!1s0x39137030405bc4c1:0x3daabd6e9a7b7d20!8m2!3d28.4275845!4d75.191173!16s%2Fg%2F11dxkxzdch?entry=ttu&g_ep=EgoyMDI1MDgwMy4wIKXMDSoASAFQAw%3D%3D"
  },
  {
    "name": "Mudagad Fort",
    "lat": 44.2423649,
    "lng": -119.8093025,
    "url": "https://www.google.com/maps/place//@44.2423649,-119.8093025,3z/data=!3m1!4b1?entry=ttu&g_ep=EgoyMDI1MDgwMy4wIKXMDSoASAFQAw%3D%3D"
  },
  {
    "name": "Balabehat Old Fort",
    "lat": 24.3189178,
    "lng": 78.414632,
    "url": "https://www.google.com/maps/place/Balabehat+Old+Fort/@24.3189178,78.414632,17z/data=!3m1!4b1!4m6!3m5!1s0x39790f7221624809:0xbd0efb0578a83c7f!8m2!3d24.3189178!4d78.414632!16s%2Fg%2F11h4fg358h?entry=ttu&g_ep=EgoyMDI1MDgwNC4wIKXMDSoASAFQAw%3D%3D"
  },
  {
    "name": "Chang Gate",
    "lat": 26.1023957,
    "lng": 74.3132814,
    "url": "https://www.google.com/maps/place/Ravi+tea+company/@26.1023957,74.3132814,17z/data=!3m1!4b1!4m6!3m5!1s0x396970b2c3804431:0x2b57b8cb256efd75!8m2!3d26.1023957!4d74.3132814!16s%2Fg%2F11b6g7nm3r?entry=ttu&g_ep=EgoyMDI1MDgwMy4wIKXMDSoASAFQAw%3D%3D"
  },
  {
    "name": "Nawab Zaman Khan Fort",
    "lat": 33.8790375,
    "lng": 70.7949844,
    "url": "https://www.google.com/maps/place/Nawab+Zaman+Khan+Fort/@33.8790375,70.7949844,17z/data=!3m1!4b1!4m6!3m5!1s0x38d9c78aa6cd02af:0x55cdacab9bdd8dbe!8m2!3d33.8790375!4d70.7949844!16s%2Fg%2F11kqj72gty?entry=ttu&g_ep=EgoyMDI1MDgwMy4wIKXMDSoASAFQAw%3D%3D"
  },
  {
    "name": "24\u00b007'09.4\"N 76\u00b052'27.3\"E",
    "lat": 24.119265,
    "lng": 76.874243,
    "url": "https://www.google.com/maps/place/24%C2%B007'09.4%22N+76%C2%B052'27.3%22E/@24.119265,76.874243,17z/data=!3m1!4b1!4m4!3m3!8m2!3d24.119265!4d76.874243?entry=ttu&g_ep=EgoyMDI1MDgwMy4wIKXMDSoASAFQAw%3D%3D"
  },
  {
    "name": "Aundha Fort",
    "lat": 19.7469885,
    "lng": 73.8370513,
    "url": "https://www.google.com/maps/place/Aundha+Fort/@19.7469885,73.8370513,17z/data=!3m1!4b1!4m6!3m5!1s0x3bdd98741a914319:0x61996986069d1433!8m2!3d19.7469885!4d73.8370513!16s%2Fg%2F11f60y1kvk?entry=ttu&g_ep=EgoyMDI1MDgwMy4wIKXMDSoASAFQAw%3D%3D"
  },
  {
    "name": "Vishalgad Fort",
    "lat": 16.9058477,
    "lng": 73.7458308,
    "url": "https://www.google.com/maps/place/Vishalgad+Fort/@16.9058477,73.7458308,17z/data=!3m1!4b1!4m6!3m5!1s0x3bc1c550ca513b81:0x2cc96e74fa8b52a3!8m2!3d16.9058477!4d73.7458308!16s%2Fg%2F11fkqh7z17?entry=ttu&g_ep=EgoyMDI1MDgwMy4wIKXMDSoASAFQAw%3D%3D"
  },
  {
    "name": "Fort Satyun",
    "lat": 44.2423649,
    "lng": -119.8093025,
    "url": "https://www.google.com/maps/place//@44.2423649,-119.8093025,3z/data=!3m1!4b1?entry=ttu&g_ep=EgoyMDI1MDgwMy4wIKXMDSoASAFQAw%3D%3D"
  },