[
  {
    "name": "Prachin Ganesha Mandir",
    "lat": 23.0562434,
    "lng": 76.1543519,
    "url": "https://www.google.com/maps/place/Prachin+Ganesha+Mandir/@23.0562434,76.1543519,17z/data=!3m1!4b1!4m6!3m5!1s0x39633f4b36a9bc0f:0xd27a0d673ba0339a!8m2!3d23.0562434!4d76.1543519!16s%2Fg%2F11ftmcl451?entry=ttu&g_ep=EgoyMDI1MDgwMy4wIKXMDSoASAFQAw%3D%3D"
  },
  {
    "name": "Bheruji bavdi",
    "lat": 26.5547218,
    "lng": 73.6397219,
    "url": "https://www.google.com/maps/place/Bheruji+bavdi/@26.5547218,73.6397219,17z/data=!3m1!4b1!4m6!3m5!1s0x396a0d1dfd965e91:0xd9892ebc62be0ec8!8m2!3d26.5547218!4d73.6397219!16s%2Fg%2F11jtr8fllz?entry=ttu&g_ep=EgoyMDI1MDgwMy4wIKXMDSoASAFQAw%3D%3D"
  },
  {
    "name": "Old vishnalayam",
    "lat": 15.1686907,
    "lng": 79.713826,
    "url": "https://www.google.com/maps/place/Old+vishnalayam/@15.1686907,79.713826,17z/data=!3m1!4b1!4m6!3m5!1s0x3a4b4075ba4e2401:0xe71fdf8707d073cb!8m2!3d15.1686907!4d79.713826!16s%2Fg%2F11c5b0sgfr?entry=ttu&g_ep=EgoyMDI1MDgwNC4wIKXMDSoASAFQAw%3D%3D"
  },
  {
    "name": "Mangudi Eswaran temple",
    "lat": 10.419382,
    "lng": 78.7135032,
    "url": "https://www.google.com/maps/place/Mangudi+Eswaran+temple/@10.419382,78.7135032,17z/data=!3m1!4b1!4m6!3m5!1s0x3baa81f08c1cb4c7:0xf2b07278b9811cab!8m2!3d10.419382!4d78.7135032!16s%2Fg%2F11n0bycgw3?entry=ttu&g_ep=EgoyMDI1MDgwMy4wIKXMDSoASAFQAw%3D%3D"
  },
  {
    "name": "Prachin Shiv Mandir",
    "lat": 24.6569264,
    "lng": 74.7736268,
    "url": "https://www.google.com/maps/place/Prachin+Shiv+Mandir/@24.6569264,74.7736268,17z/data=!3m1!4b1!4m6!3m5!1s0x39661024160bd677:0x91220c2f17c614ae!8m2!3d24.6569264!4d74.7736268!16s%2Fg%2F11dzw2mbm4?entry=ttu&g_ep=EgoyMDI1MDgwMy4wIKXMDSoASAFQAw%3D%3D"
  },
  {
    "name": "Sri Chaya Someshwara Temple",
    "lat": 17.0774514,
    "lng": 79.29524,
    "url": "https://www.google.com/maps/place/Sri+Chaya+Someshwara+Temple/@17.0774514,79.29524,17z/data=!3m1!4b1!4m6!3m5!1s0x3bcb2be0afae5df1:0x685abb9f11ea09f8!8m2!3d17.0774514!4d79.29524!16s%2Fm%2F0py331w?entry=ttu&g_ep=EgoyMDI1MDgwMy4wIKXMDSoASAFQAw%3D%3D"
  },
  {
    "name": "Prachin Mandir",
    "lat": 21.1329026,
    "lng": 81.541696,
    "url": "https://www.google.com/maps/place/Prachin+Mandir/@21.1329026,81.541696,17z/data=!3m1!4b1!4m6!3m5!1s0x3a28d8ed8b5db81b:0xedd45265c23af8f2!8m2!3d21.1329026!4d81.541696!16s%2Fg%2F11c6lwd4sd?entry=ttu&g_ep=EgoyMDI1MDgwMy4wIKXMDSoASAFQAw%3D%3D"
  },
  {
    "name": "Sri Thanthondri Amman Temple",
    "lat": 11.4591887,
    "lng": 77.5870475,
    "url": "https://www.google.com/maps/place/Sri+Thanthondri+Amman+Temple/@11.4591887,77.5870475,17z/data=!3m1!4b1!4m6!3m5!1s0x3ba941a196d2e75b:0x22665c6dc2787c38!8m2!3d11.4591887!4d77.5870475!16s%2Fg%2F11g1lv73dx?entry=ttu&g_ep=EgoyMDI1MDgwMy4wIKXMDSoASAFQAw%3D%3D"
  },
  {
    "name": "Prachin shiv mandir",
    "lat": 26.0895783,
    "lng": 80.2600333,
    "url": "https://www.google.com/maps/place/Prachin+shiv+mandir/@26.0895783,80.2600333,17z/data=!3m1!4b1!4m6!3m5!1s0x399c57dd87212e27:0x507b077023160183!8m2!3d26.0895783!4d80.2600333!16s%2Fg%2F11tt6b0b7x?entry=ttu&g_ep=EgoyMDI1MDgwMy4wIKXMDSoASAFQAw%3D%3D"
  },
  {
    "name": "RAMNATH MANDIR",
    "lat": 24.3494254,
    "lng": 73.6955065,
    "url": "https://www.google.com/maps/place/RAMNATH+MANDIR/@24.3494254,73.6955065,17z/data=!3m1!4b1!4m6!3m5!1s0x396793e85988613f:0xc3f49baa915ac61d!8m2!3d24.3494254!4d73.6955065!16s%2Fg%2F11r_wjq8_k?entry=ttu&g_ep=EgoyMDI1MDgwMy4wIKXMDSoASAFQAw%3D%3D"
  },
  {
    "name": "Sivalayam Very ancient temples",
    "lat": 14.7738555,
    "lng": 78.4783546,
    "url": "https://www.google.com/maps/place/Sivalayam+Very+ancient+temples(subramanya+temple)/@14.7738555,78.4783546,17z/data=!3m1!4b1!4m6!3m5!1s0x3bb479954215eebf:0xe92eafc51aba82b2!8m2!3d14.7738555!4d78.4783546!16s%2Fg%2F11tsxmlwbk?entry=ttu&g_ep=EgoyMDI1MDgwMy4wIKXMDSoASAFQAw%3D%3D"
  },
  {
    "name": "Maa Chandika Devi temple Bakiya",
    "lat": 24.6948459,
    "lng": 81.1644875,
    "url": "https://www.google.com/maps/place/Maa+Chandika+Devi+temple+Bakiya/@24.6948459,81.1644875,17z/data=!3m1!4b1!4m6!3m5!1s0x3984f4d4c542edeb:0x16dd71cdbe721791!8m2!3d24.6948459!4d81.1644875!16s%2Fg%2F11d_89cv9x?entry=ttu&g_ep=EgoyMDI1MDgwMy4wIKXMDSoASAFQAw%3D%3D"
  },
  {
    "name": "Ancient Jain Temple Ruins",
    "lat": 19.9467015,
    "lng": 73.5897229,
    "url": "https://www.google.com/maps/place/Ancient+Jain+Temple+Ruins/@19.9467015,73.5897229,17z/data=!3m1!4b1!4m6!3m5!1s0x3bddf3bc978be61f:0xc301ebe86c8d5db9!8m2!3d19.9467015!4d73.5897229!16s%2Fg%2F11jz76bs4w?entry=ttu&g_ep=EgoyMDI1MDgwMy4wIKXMDSoASAFQAw%3D%3D"
  },
  {
    "name": "Ancient Hoysala Shri Chandramouleshwara Temple",
    "lat": 13.2465148,
    "lng": 76.2251377,
    "url": "https://www.google.com/maps/place/Ancient+Hoysala+Shri+Chandramouleshwara+Temple/@13.2465148,76.2251377,17z/data=!3m1!4b1!4m6!3m5!1s0x3bbab232a95192f7:0x52dd035886a4267a!8m2!3d13.2465148!4d76.2251377!16s%2Fg%2F11fzf74yb7?entry=ttu&g_ep=EgoyMDI1MDgwMy4wIKXMDSoASAFQAw%3D%3D"
  },
  {
    "name": "Ekattarso Mahadev Mandir ( Chausath Yogini Temple )",
    "lat": 26.4368173,
    "lng": 78.2352216,
    "url": "https://www.google.com/maps/place/Ekattarso+Mahadev+Mandir+(Chausath+Yogini+Temple)+Morena/@26.4368173,78.2352216,17z/data=!3m1!4b1!4m6!3m5!1s0x3976bc45420320f7:0x888bbd10a9c7d9b!8m2!3d26.4368173!4d78.2352216!16s%2Fg%2F11b81x35_n?entry=ttu&g_ep=EgoyMDI1MDgwMy4wIKXMDSoASAFQAw%3D%3D"
  },
  {
    "name": "Shiva nandi",
    "lat": 15.5281901,
    "lng": 78.5841131,
    "url": "https://www.google.com/maps/place/Ancient+Chalukya+Shri+Shivanandi+Temple/@15.5281901,78.5841131,17z/data=!3m1!4b1!4m6!3m5!1s0x3bb5ab75cd60bad3:0xbf064d4911db190d!8m2!3d15.5281901!4d78.5841131!16s%2Fg%2F11b8t6x_t0?entry=ttu&g_ep=EgoyMDI1MDgwMy4wIKXMDSoASAFQAw%3D%3D"
  },
  {
    "name": "Kukarra Math shiv temple \u0915\u0941\u0915\u0930\u094d\u0930\u093e\u092e\u0920 \u0936\u093f\u0935 \u092e\u0902\u0926\u093f\u0930",
    "lat": 22.8649592,
    "lng": 81.166234,
    "url": "https://www.google.com/maps/place/Kukarra+Math+shiv+temple+%E0%A4%95%E0%A5%81%E0%A4%95%E0%A4%B0%E0%A5%8D%E0%A4%B0%E0%A4%BE%E0%A4%AE%E0%A4%A0+%E0%A4%B6%E0%A4%BF%E0%A4%B5+%E0%A4%AE%E0%A4%82%E0%A4%A6%E0%A4%BF%E0%A4%B0/@22.8649592,81.166234,17z/data=!3m1!4b1!4m6!3m5!1s0x398717cb0dacb935:0x9fa5f4b33649f57e!8m2!3d22.8649592!4d81.166234!16s%2Fg%2F11l29wl456?entry=ttu&g_ep=EgoyMDI1MDgwMy4wIKXMDSoASAFQAw%3D%3D"
  },
  {
    "name": "Prachin Baba Mahakaleshwar Dharad",
    "lat": 23.2516559,
    "lng": 75.1101598,
    "url": "https://www.google.com/maps/place/Mahakal+Mandir+Dharad/@23.2516559,75.1101598,17z/data=!3m1!4b1!4m6!3m5!1s0x3963fad8e6f9a393:0xcf763b3a8fde843!8m2!3d23.2516559!4d75.1101598!16s%2Fg%2F11csqxgk76?entry=ttu&g_ep=EgoyMDI1MDgwMy4wIKXMDSoASAFQAw%3D%3D"
  },
  {
    "name": "Kondeshwar Temple, Govindpur",
    "lat": 20.8526579,
    "lng": 77.7864764,
    "url": "https://www.google.com/maps/place/Kondeshwar+Temple,+Govindpur/@20.8526579,77.7864764,17z/data=!3m1!4b1!4m6!3m5!1s0x3bd6a579727bf54b:0x447a404e6a878308!8m2!3d20.8526579!4d77.7864764!16s%2Fg%2F11cfbj0x6?entry=ttu&g_ep=EgoyMDI1MDgwMy4wIKXMDSoASAFQAw%3D%3D"
  },
  {
    "name": "Parasurameswara Temple",
    "lat": 44.2423649,
    "lng": -119.8093025,
    "url": "https://www.google.com/maps/place//@44.2423649,-119.8093025,3z/data=!3m1!4b1?entry=ttu&g_ep=EgoyMDI1MDgwMy4wIKXMDSoASAFQAw%3D%3D"
  },
  {
    "name": "Nageshwar Temple, Khireshwar",
    "lat": 19.3649714,
    "lng": 73.8054769,
    "url": "https://www.google.com/maps/place/Ancient+Chalukya+era+Nageshwar+Temple,+Khireshwar/@19.3649714,73.8054769,17z/data=!3m1!4b1!4m6!3m5!1s0x3bdd6d0524a43a17:0x1ef5f135681276fa!8m2!3d19.3649714!4d73.8054769!16s%2Fg%2F11f_kqw614?entry=ttu&g_ep=EgoyMDI1MDgwMy4wIKXMDSoASAFQAw%3D%3D"
  },
  {
    "name": "Ancient Statues of Kachch and Machch",
    "lat": 24.0538674,
    "lng": 80.7068957,
    "url": "https://www.google.com/maps/place/Ancient+Statues+of+Kachch+and+Machch/@24.0538674,80.7068957,17z/data=!3m1!4b1!4m6!3m5!1s0x3983f0a71cb5050b:0x485c9fd0176e6ead!8m2!3d24.0538674!4d80.7068957!16s%2Fg%2F11c6137q4v?entry=ttu&g_ep=EgoyMDI1MDgwMy4wIKXMDSoASAFQAw%3D%3D"
  },
  {
    "name": "Mangala Devi Kannagi Temple,Kerala",
    "lat": 9.5979679,
    "lng": 77.222011,
    "url": "https://www.google.com/maps/place/Sree+Mangala+Devi+Kannaki+Temple,+kerala/@9.5979679,77.222011,17z/data=!3m1!4b1!4m6!3m5!1s0x3b06ff15c933a817:0x5fa4aa28ad8315a5!8m2!3d9.5979679!4d77.222011!16s%2Fm%2F051xpq6?entry=ttu&g_ep=EgoyMDI1MDgwNC4wIKXMDSoASAFQAw%3D%3D"
  },
  {
    "name": "Chaurasan Shiv Mandir",
    "lat": 24.6273439,
    "lng": 83.9452433,
    "url": "https://www.google.com/maps/place/Chaurasan+Shiv+Mandir/@24.6273439,83.9452433,17z/data=!3m1!4b1!4m6!3m5!1s0x398c379c060706ab:0x76a233959287f31e!8m2!3d24.6273439!4d83.9452433!16s%2Fg%2F11fy4pk9yt?entry=ttu&g_ep=EgoyMDI1MDgwMy4wIKXMDSoASAFQAw%3D%3D"
  },
  {
    "name": "Ancient Shri Krishnayya Swamy Temple",
    "lat": 15.0436689,
    "lng": 76.352715,
    "url": "https://www.google.com/maps/place/Ancient+Shri+Krishnayya+Swamy+Temple/@15.0436689,76.352715,17z/data=!3m1!4b1!4m6!3m5!1s0x3bb9dc2e0503f373:0xf18c1155605f3394!8m2!3d15.0436689!4d76.352715!16s%2Fg%2F11g9r1vt92?entry=ttu&g_ep=EgoyMDI1MDgwMy4wIKXMDSoASAFQAw%3D%3D"
  },
  {
    "name": "Dhurgamma Temple, old",
    "lat": 17.6890776,
    "lng": 78.3685614,
    "url": "https://www.google.com/maps/place/Dhurgamma+Temple,+old/@17.6890776,78.3685614,17z/data=!3m1!4b1!4m6!3m5!1s0x3bcb8b80ead2a29d:0x38dbf76f17d82e0c!8m2!3d17.6890776!4d78.3685614!16s%2Fg%2F11fktzc882?entry=ttu&g_ep=EgoyMDI1MDgwMy4wIKXMDSoASAFQAw%3D%3D"
  },
  {
    "name": "Shri puratathvik prachin shiv mandir",
    "lat": 22.3194545,
    "lng": 75.0971529,
    "url": "https://www.google.com/maps/place/Shri+puratathvik+prachin+shiv+mandir/@22.3194545,75.0971529,17z/data=!3m1!4b1!4m6!3m5!1s0x396223a9f60f4ab3:0x8da4a65279c89a7b!8m2!3d22.3194545!4d75.0971529!16s%2Fg%2F11tpb9ld0c?entry=ttu&g_ep=EgoyMDI1MDgwMy4wIKXMDSoASAFQAw%3D%3D"
  },
  {
    "name": "Ancient Jain Temple Idols - Kayampatti",
    "lat": 10.6654211,
    "lng": 78.8252735,
    "url": "https://www.google.com/maps/place/Ancient+Jain+Temple+Idols+-+Kayampatti/@10.6654211,78.8252735,17z/data=!3m1!4b1!4m6!3m5!1s0x3baa8e3d6961bd6d:0xea275c70a3d8cf6c!8m2!3d10.6654211!4d78.8252735!16s%2Fg%2F11b8zgq0t8?entry=ttu&g_ep=EgoyMDI1MDgwMy4wIKXMDSoASAFQAw%3D%3D"
  },
  {
    "name": "Ancient Shiva temple",
    "lat": 44.2423649,
    "lng": -119.8093025,
    "url": "https://www.google.com/maps/place//@44.2423649,-119.8093025,3z/data=!3m1!4b1?entry=ttu&g_ep=EgoyMDI1MDgwMy4wIKXMDSoASAFQAw%3D%3D"
  },
  {
    "name": "Ganesh temple Rohtash garh Fort",
    "lat": 24.6193804,
    "lng": 83.915731,
    "url": "https://www.google.com/maps/place/Ganesh+temple+Rohtash+garh+Fort/@24.6193804,83.915731,17z/data=!3m1!4b1!4m6!3m5!1s0x398c37c1668e4f91:0xa4d9a0602d2011ec!8m2!3d24.6193804!4d83.915731!16s%2Fg%2F11gf60yk1w?entry=ttu&g_ep=EgoyMDI1MDgwMy4wIKXMDSoASAFQAw%3D%3D"
  },
  {
    "name": "Sri varadarajula Swami Vari Temple",
    "lat": 14.1740822,
    "lng": 79.3256165,
    "url": "https://www.google.com/maps/place/Sri+varadarajula+Swami+Vari+Temple/@14.1740822,79.3256165,17z/data=!3m1!4b1!4m6!3m5!1s0x3bb32de1a4fd7489:0x51ea1e9241688a47!8m2!3d14.1740822!4d79.3256165!16s%2Fg%2F11fgkndsl9?entry=ttu&g_ep=EgoyMDI1MDgwMy4wIKXMDSoASAFQAw%3D%3D"
  },
  {
    "name": "Hooli ancient Temples",
    "lat": 15.7997118,
    "lng": 75.191797,
    "url": "https://www.google.com/maps/place/Hooli+ancient+Temples/@15.7997118,75.191797,17z/data=!3m1!4b1!4m6!3m5!1s0x3bb8bb29312190b5:0x66d73df1e7438280!8m2!3d15.7997118!4d75.191797!16s%2Fg%2F11mw70myjq?entry=ttu&g_ep=EgoyMDI1MDgwMy4wIKXMDSoASAFQAw%3D%3D"
  },
  {
    "name": "Arthuna Group Of Temples",
    "lat": 23.4916637,
    "lng": 74.1027232,
    "url": "https://www.google.com/maps/place/Arthuna+Group+Of+Temples/@23.4916637,74.1027232,17z/data=!3m1!4b1!4m6!3m5!1s0x39672f426f7b8e49:0xaf97d51da91d42bb!8m2!3d23.4916637!4d74.1027232!16s%2Fg%2F1hjgl9_fr?entry=ttu&g_ep=EgoyMDI1MDgwMy4wIKXMDSoASAFQAw%3D%3D"
  },
  {
    "name": "Prachin Shiv Mandir",
    "lat": 24.2411779,
    "lng": 80.8576678,
    "url": "https://www.google.com/maps/place/Prachin+Shiv+Mandir/@24.2411779,80.8576678,17z/data=!3m1!4b1!4m6!3m5!1s0x39840b2d78906e33:0x76d6c24af4c96f4d!8m2!3d24.2411779!4d80.8576678!16s%2Fg%2F11fk3jzmzw?entry=ttu&g_ep=EgoyMDI1MDgwNC4wIKXMDSoASAFQAw%3D%3D"
  },
  {
    "name": "Janamae Jaya eeshwarar ancient siva temple",
    "lat": 13.0840948,
    "lng": 79.8272154,
    "url": "https://www.google.com/maps/place/Janamae+Jaya+eeshwarar+ancient+siva+temple/@13.0840948,79.8272154,17z/data=!3m1!4b1!4m6!3m5!1s0x3a52976874a27195:0xb83a278cc0da966f!8m2!3d13.0840948!4d79.8272154!16s%2Fg%2F11h065q5ws?entry=ttu&g_ep=EgoyMDI1MDgwMy4wIKXMDSoASAFQAw%3D%3D"
  },
  {
    "name": "Harsh Deval Temple (Protected Monument)",
    "lat": 26.155249,
    "lng": 73.7537732,
    "url": "https://www.google.com/maps/place/Harsh+Deval+Temple+(Protected+Monument)/@26.155249,73.7537732,17z/data=!3m1!4b1!4m6!3m5!1s0x3969f404a86b9e31:0x96f7c1985ebaee34!8m2!3d26.155249!4d73.7537732!16s%2Fg%2F11gdkx6pdf?entry=ttu&g_ep=EgoyMDI1MDgwMy4wIKXMDSoASAFQAw%3D%3D"
  },
  {
    "name": "Ancient Jain Temple Idols - Chettipatti",
    "lat": 10.6627958,
    "lng": 78.8162935,
    "url": "https://www.google.com/maps/place/Ancient+Jain+Temple+Idols+-+Chettipatti/@10.6627958,78.8162935,17z/data=!3m1!4b1!4m6!3m5!1s0x3baa8e3f7a84b3d9:0x644fb8a7078c0d3b!8m2!3d10.6627958!4d78.8162935!16s%2Fg%2F11bw4sz1tj?entry=ttu&g_ep=EgoyMDI1MDgwNC4wIKXMDSoASAFQAw%3D%3D"
  },
  {
    "name": "Jankeshwar Mahadev Temple",
    "lat": 21.9216379,
    "lng": 73.3921403,
    "url": "https://www.google.com/maps/place/Jankeshwar+Mahadev+Temple/@21.9216379,73.3921403,17z/data=!3m1!4b1!4m6!3m5!1s0x395ffc937b18b72b:0xacdadf2e15e2a9c2!8m2!3d21.9216379!4d73.3921403!16s%2Fg%2F11c3tq7mvd?entry=ttu&g_ep=EgoyMDI1MDgwMy4wIKXMDSoASAFQAw%3D%3D"
  },
  {
    "name": "KHANDESHWARI MATA TEMPLE, BHAWALE CAVES",
    "lat": 19.3137422,
    "lng": 73.1364756,
    "url": "https://www.google.com/maps/place/Lonad+caves/@19.3137422,73.1364756,17z/data=!3m1!4b1!4m6!3m5!1s0x3be797aa014bc3b5:0x69eeacf79b829304!8m2!3d19.3137422!4d73.1364756!16s%2Fg%2F11h1m50jxv?entry=ttu&g_ep=EgoyMDI1MDgwMy4wIKXMDSoASAFQAw%3D%3D"
  },
  {
    "name": "Ancient Siva Temple",
    "lat": 11.9504298,
    "lng": 79.1465586,
    "url": "https://www.google.com/maps/place/Ancient+Siva+Temple/@11.9504298,79.1465586,17z/data=!3m1!4b1!4m6!3m5!1s0x3baca7097699d9a9:0x129c381d55c620c0!8m2!3d11.9504298!4d79.1465586!16s%2Fg%2F11rlktszr8?entry=ttu&g_ep=EgoyMDI1MDgwMy4wIKXMDSoASAFQAw%3D%3D"
  },
  {
    "name": "Shri Khandoba Temple",
    "lat": 19.8407897,
    "lng": 75.3245178,
    "url": "https://www.google.com/maps/place/Shri+Khandoba+Temple/@19.8407897,75.3245178,17z/data=!3m1!4b1!4m6!3m5!1s0x3bdb9896b07dee6d:0x58a581c1c40431be!8m2!3d19.8407897!4d75.3245178!16s%2Fg%2F1hc0vfvzw?entry=ttu&g_ep=EgoyMDI1MDgwMy4wIKXMDSoASAFQAw%3D%3D"
  },
  {
    "name": "Jamrehi Nath Temple",
    "lat": 25.4898751,
    "lng": 80.9294088,
    "url": "https://www.google.com/maps/place/Yamrehi+Nath+Temple/@25.4898751,80.9294088,17z/data=!3m1!4b1!4m6!3m5!1s0x399b516fa162b89b:0x2a47cc6371af3fdc!8m2!3d25.4898751!4d80.9294088!16s%2Fg%2F11ggdk5l53?entry=ttu&g_ep=EgoyMDI1MDgwMy4wIKXMDSoASAFQAw%3D%3D"
  },
  {
    "name": "Sri Ramalingswara and Bheemalingeswara Temple",
    "lat": 44.2423649,
    "lng": -119.8093025,
    "url": "https://www.google.com/maps/place//@44.2423649,-119.8093025,3z/data=!3m1!4b1?entry=ttu&g_ep=EgoyMDI1MDgwNC4wIKXMDSoASAFQAw%3D%3D"
  },
  {
    "name": "Sri Vijaya Varadaraja Perumal kovil",
    "lat": 12.3872616,
    "lng": 79.7355665,
    "url": "https://www.google.com/maps/place/Sri+Vijaya+Varadaraja+Perumal+kovil/@12.3872616,79.7355665,17z/data=!3m1!4b1!4m6!3m5!1s0x3a533d7bf235e709:0xdfba37bc3ac4c93b!8m2!3d12.3872616!4d79.7355665!16s%2Fg%2F11c5s8ykw8?entry=ttu&g_ep=EgoyMDI1MDgwMy4wIKXMDSoASAFQAw%3D%3D"
  },
  {
    "name": "Prachin Gangvo Kund",
    "lat": 22.7674878,
    "lng": 71.7641216,
    "url": "https://www.google.com/maps/place/Gangavo+Kund/@22.7674878,71.7641216,17z/data=!3m1!4b1!4m6!3m5!1s0x395949006425bfb9:0x4b456bf3379d1f4f!8m2!3d22.7674878!4d71.7641216!16s%2Fg%2F11g0gbvlz3?entry=ttu&g_ep=EgoyMDI1MDgwMy4wIKXMDSoASAFQAw%3D%3D"
  },
  {
    "name": "Ancient Keleshwar Temple, Keli Rumhanwadi, Akole, Maharasht",
    "lat": 19.6631635,
    "lng": 73.9092036,
    "url": "https://www.google.com/maps/place/Ancient+Keleshwar+Temple,+Keli+Rumhanwadi,+Akole,+Maharasht/@19.6631635,73.9092036,17z/data=!3m1!4b1!4m6!3m5!1s0x3bdda114fc938811:0x609497e46442cfdb!8m2!3d19.6631635!4d73.9092036!16s%2Fg%2F1pxq7l8yd?entry=ttu&g_ep=EgoyMDI1MDgwMy4wIKXMDSoASAFQAw%3D%3D"
  },
  {
    "name": "Parvati Temple",
    "lat": 24.3991653,
    "lng": 80.4476613,
    "url": "https://www.google.com/maps/place/Parvati+Temple,+Nachna+Kuthara/@24.3991653,80.4476613,17z/data=!3m1!4b1!4m6!3m5!1s0x3983bd5a6dcc43ab:0x55c2712cf64aefd9!8m2!3d24.3991653!4d80.4476613!16s%2Fg%2F1thmjdj5?entry=ttu&g_ep=EgoyMDI1MDgwMy4wIKXMDSoASAFQAw%3D%3D"
  },
  {
    "name": "Shiv Shankar Temple",
    "lat": 19.9809878,
    "lng": 74.6702082,
    "url": "https://www.google.com/maps/place/Shiv+Shankar+Temple/@19.9809878,74.6702082,17z/data=!3m1!4b1!4m6!3m5!1s0x3bdc1338eaaaaaab:0x92e19ffd601189f7!8m2!3d19.9809878!4d74.6702082!16s%2Fg%2F11c2jfk7f1?entry=ttu&g_ep=EgoyMDI1MDgwMy4wIKXMDSoASAFQAw%3D%3D"
  },
  {
    "name": "Prachin Shankar Mandir Ruvavi",
    "lat": 23.7693071,
    "lng": 72.3006234,
    "url": "https://www.google.com/maps/place/Prachin+Shankar+Mandir+Ruvavi/@23.7693071,72.3006234,17z/data=!3m1!4b1!4m6!3m5!1s0x395c60cca27fcee7:0xee503b021e74d978!8m2!3d23.7693071!4d72.3006234!16s%2Fg%2F11fxccvgvg?entry=ttu&g_ep=EgoyMDI1MDgwNC4wIKXMDSoASAFQAw%3D%3D"
  },
  {
    "name": "Rudreshwar Shiv Temple, Pohana",
    "lat": 20.3495337,
    "lng": 78.7136685,
    "url": "https://www.google.com/maps/place/Rudreshwar+Shiv+Temple,+Pohana/@20.3495337,78.7136685,17z/data=!3m1!4b1!4m6!3m5!1s0x3bd374d20a9c78ef:0x865fc5c69ab8fd18!8m2!3d20.3495337!4d78.7136685!16s%2Fg%2F1hm2w7_2g?entry=ttu&g_ep=EgoyMDI1MDgwMy4wIKXMDSoASAFQAw%3D%3D"
  },
  {
    "name": "Shree Banknath Atal Darbaar Mandir",
    "lat": 22.2332907,
    "lng": 75.084959,
    "url": "https://www.google.com/maps/place/Shree+Banknath+Atal+Darbaar+Mandir/@22.2332907,75.084959,17z/data=!3m1!4b1!4m6!3m5!1s0x396219951a5912d9:0xcc1ad3d549aa8424!8m2!3d22.2332907!4d75.084959!16s%2Fg%2F11rxwwx7t2?entry=ttu&g_ep=EgoyMDI1MDgwMy4wIKXMDSoASAFQAw%3D%3D"
  },
  {
    "name": "Shiv Mandir",
    "lat": 21.6493808,
    "lng": 77.6353113,
    "url": "https://www.google.com/maps/place/Siddheshwarnath+Shiv+Mandir/@21.6493808,77.6353113,17z/data=!3m1!4b1!4m6!3m5!1s0x3bd6693ebec80061:0xb2d42bad2d302f33!8m2!3d21.6493808!4d77.6353113!16s%2Fg%2F119vhyq3g?entry=ttu&g_ep=EgoyMDI1MDgwMy4wIKXMDSoASAFQAw%3D%3D"
  },
  {
    "name": "Mamaleshwar Temple",
    "lat": 34.00981,
    "lng": 75.3118826,
    "url": "https://www.google.com/maps/place/Mamaleshwar+Temple,+Pahalgam+(J%26K)/@34.00981,75.3118826,17z/data=!3m1!4b1!4m6!3m5!1s0x38e23f9817420ced:0xc47afd24a98b2f38!8m2!3d34.00981!4d75.3118826!16s%2Fg%2F11pphvyw__?entry=ttu&g_ep=EgoyMDI1MDgwMy4wIKXMDSoASAFQAw%3D%3D"
  },
  {
    "name": "Vadgaon Potnis",
    "lat": 18.1025241,
    "lng": 73.9461475,
    "url": "https://www.google.com/maps/place/Vadgaon+Potnis/@18.1025241,73.9461475,17z/data=!3m1!4b1!4m6!3m5!1s0x3bc259616d06888f:0xa7c76061a01c8ea0!8m2!3d18.1025241!4d73.9461475!16s%2Fg%2F11fmwt00vz?entry=ttu&g_ep=EgoyMDI1MDgwNC4wIKXMDSoASAFQAw%3D%3D"
  },
  {
    "name": "Gayasheela Math",
    "lat": 22.254991,
    "lng": 76.1598543,
    "url": "https://www.google.com/maps/place/Gayasheela+Math/@22.254991,76.1598543,17z/data=!3m1!4b1!4m6!3m5!1s0x3962bddab3f6ff7f:0x1e46f07b143311f3!8m2!3d22.254991!4d76.1598543!16s%2Fg%2F11t13_l7wz?entry=ttu&g_ep=EgoyMDI1MDgwMy4wIKXMDSoASAFQAw%3D%3D"
  },
  {
    "name": "Shiva Temple (Heritage), Sander",
    "lat": 23.7679061,
    "lng": 72.2593325,
    "url": "https://www.google.com/maps/place/Shiva+Temple+(Heritage),+Sander/@23.7679061,72.2593325,17z/data=!3m1!4b1!4m6!3m5!1s0x395c61ef8145cc8b:0x62813a1bb82e9760!8m2!3d23.7679061!4d72.2593325!16s%2Fg%2F11jg39yh84?entry=ttu&g_ep=EgoyMDI1MDgwMy4wIKXMDSoASAFQAw%3D%3D"
  },
  {
    "name": "Mhadev Mandir",
    "lat": 22.2073658,
    "lng": 74.6764702,
    "url": "https://www.google.com/maps/place/Mhadev+Mandir/@22.2073658,74.6764702,17z/data=!3m1!4b1!4m6!3m5!1s0x3961ebad4741d4a9:0x47c5d2589a49f997!8m2!3d22.2073658!4d74.6764702!16s%2Fg%2F11j8rhgjv3?entry=ttu&g_ep=EgoyMDI1MDgwMy4wIKXMDSoASAFQAw%3D%3D"
  },
  {
    "name": "Bharat Bhayana Archaeological Mound (\u09ad\u09b0\u09a4 \u09ad\u09be\u09df\u09a8\u09be \u09aa\u09cd\u09b0\u09a4\u09cd\u09a8\u09a4\u09a4\u09cd\u09a4\u09cd\u09ac \u09a1\u09bf\u09ac\u09bf)",
    "lat": 22.8497955,
    "lng": 89.3487801,
    "url": "https://www.google.com/maps/place/Bharat+Bhayana+Archaeological+Mound+(%E0%A6%AD%E0%A6%B0%E0%A6%A4+%E0%A6%AD%E0%A6%BE%E0%A7%9F%E0%A6%A8%E0%A6%BE+%E0%A6%AA%E0%A7%8D%E0%A6%B0%E0%A6%A4%E0%A7%8D%E0%A6%A8%E0%A6%A4%E0%A6%A4%E0%A7%8D%E0%A6%A4%E0%A7%8D%E0%A6%AC+%E0%A6%A1%E0%A6%BF%E0%A6%AC%E0%A6%BF)/@22.8497955,89.3487801,17z/data=!3m1!4b1!4m6!3m5!1s0x39ff771b7451c149:0xa286db168c8a1aea!8m2!3d22.8497955!4d89.3487801!16s%2Fg%2F11cr__35rk?entry=ttu&g_ep=EgoyMDI1MDgwNC4wIKXMDSoASAFQAw%3D%3D"
  },
  {
    "name": "Shiva Temple Rohtasgarh Fort",
    "lat": 24.6206332,
    "lng": 83.9170844,
    "url": "https://www.google.com/maps/place/Shiva+Temple+Rohtasgarh+Fort/@24.6206332,83.9170844,17z/data=!3m1!4b1!4m6!3m5!1s0x398c379110891a01:0xa724b509ef1c81ec!8m2!3d24.6206332!4d83.9170844!16s%2Fg%2F11h07vc_gj?entry=ttu&g_ep=EgoyMDI1MDgwMy4wIKXMDSoASAFQAw%3D%3D"
  },
  {
    "name": "Old historical nonaveshvara temple \u0caa\u0cc1\u0cb0\u0cbe\u0ca4\u0ca8 \u0c95\u0cbe\u0cb2\u0ca6 \u0ca8\u0cca\u0ca3\u0cb5\u0cc7\u0cb6\u0ccd\u0cb5\u0cb0 \u0ca6\u0cc7\u0cb5\u0cbe\u0cb2\u0caf",
    "lat": 13.5308374,
    "lng": 76.6209704,
    "url": "https://www.google.com/maps/place/Old+historical+nonaveshvara+temple+%E0%B2%AA%E0%B3%81%E0%B2%B0%E0%B2%BE%E0%B2%A4%E0%B2%A8+%E0%B2%95%E0%B2%BE%E0%B2%B2%E0%B2%A6+%E0%B2%A8%E0%B3%8A%E0%B2%A3%E0%B2%B5%E0%B3%87%E0%B2%B6%E0%B3%8D%E0%B2%B5%E0%B2%B0+%E0%B2%A6%E0%B3%87%E0%B2%B5%E0%B2%BE%E0%B2%B2%E0%B2%AF/@13.5308374,76.6209704,17z/data=!3m1!4b1!4m6!3m5!1s0x3bb00d46db074adb:0x2d6401c4a6f470e8!8m2!3d13.5308374!4d76.6209704!16s%2Fg%2F11sy3cfkg3?entry=ttu&g_ep=EgoyMDI1MDgwMy4wIKXMDSoASAFQAw%3D%3D"
  },
  {
    "name": "Murali Manohar Mandir \u091c\u092f \u0930\u093e\u092e \u0926\u093e\u0938 \u092c\u093e\u092c\u093e",
    "lat": 26.3893435,
    "lng": 78.206615,
    "url": "https://www.google.com/maps/place/Murli+Manohar+(Jay+Ramdas+Baba)+Mandir+Parvat+Wale,+Shanichara/@26.3893435,78.206615,17z/data=!3m1!4b1!4m6!3m5!1s0x3976beb20a103bdf:0x3deb056acde95e03!8m2!3d26.3893435!4d78.206615!16s%2Fg%2F11gzr8b1l?entry=ttu&g_ep=EgoyMDI1MDgwMy4wIKXMDSoASAFQAw%3D%3D"
  },
  {
    "name": "Pujari vivek-gulab sharma ,Osiyan Mata Temple",
    "lat": 26.7260135,
    "lng": 72.9123903,
    "url": "https://www.google.com/maps/place/Sacchiyay+Mata+Temple/@26.7260135,72.9123903,17z/data=!3m1!4b1!4m6!3m5!1s0x3941b0322256c07f:0x93360a6e9801af43!8m2!3d26.7260135!4d72.9123903!16s%2Fm%2F025vlzf?entry=ttu&g_ep=EgoyMDI1MDgwMy4wIKXMDSoASAFQAw%3D%3D"
  },
  {
    "name": "Ancient Shiv Temple, Yevti",
    "lat": 20.357629,
    "lng": 78.683961,
    "url": "https://www.google.com/maps/place/Ancient+Shiv+Temple,+Yevti/@20.357629,78.683961,17z/data=!3m1!4b1!4m6!3m5!1s0x3bd375185f91ce69:0x226b79f9439447ab!8m2!3d20.357629!4d78.683961!16s%2Fg%2F11vcspm9jk?entry=ttu&g_ep=EgoyMDI1MDgwMy4wIKXMDSoASAFQAw%3D%3D"
  },
  {
    "name": "Shailani Gadi Old Shiv Mandir",
    "lat": 22.2438726,
    "lng": 76.193717,
    "url": "https://www.google.com/maps/place/Shailani+Gadi+Old+Shiv+Mandir/@22.2438726,76.193717,17z/data=!3m1!4b1!4m6!3m5!1s0x3962bb691717bb43:0xc01fa1a087a480ba!8m2!3d22.2438726!4d76.193717!16s%2Fg%2F11hb6pwt5g?entry=ttu&g_ep=EgoyMDI1MDgwMy4wIKXMDSoASAFQAw%3D%3D"
  },
  {
    "name": "Rameshwar Temple",
    "lat": 20.2733368,
    "lng": 75.7632225,
    "url": "https://www.google.com/maps/place/Rameshwar+Temple/@20.2733368,75.7632225,17z/data=!3m1!4b1!4m6!3m5!1s0x3bda330bc57d843b:0x13d2cc932b098fe0!8m2!3d20.2733368!4d75.7632225!16s%2Fg%2F11hdqnsk2k?entry=ttu&g_ep=EgoyMDI1MDgwMy4wIKXMDSoASAFQAw%3D%3D"
  },
  {
    "name": "Prachin Shiv Mandir & Mahamaya Devi Mandir Damru",
    "lat": 21.7215379,
    "lng": 82.2565343,
    "url": "https://www.google.com/maps/place/Prachin+Shiv+Mandir+%26+Mahamaya+Devi+Mandir+Damru/@21.7215379,82.2565343,17z/data=!3m1!4b1!4m6!3m5!1s0x3a27d5fba20f17f9:0x5dfbaf4d0eba9ff0!8m2!3d21.7215379!4d82.2565343!16s%2Fg%2F11s4rxnvrr?entry=ttu&g_ep=EgoyMDI1MDgwMy4wIKXMDSoASAFQAw%3D%3D"
  },
  {
    "name": "\u092a\u094d\u0930\u093e\u091a\u0940\u0928 \u0936\u093f\u0935 \u092e\u0902\u0926\u093f\u0930",
    "lat": 22.1475369,
    "lng": 75.3398693,
    "url": "https://www.google.com/maps/place/%E0%A4%AA%E0%A5%8D%E0%A4%B0%E0%A4%BE%E0%A4%9A%E0%A5%80%E0%A4%A8+%E0%A4%B6%E0%A4%BF%E0%A4%B5+%E0%A4%AE%E0%A4%82%E0%A4%A6%E0%A4%BF%E0%A4%B0/@22.1475369,75.3398693,17z/data=!3m1!4b1!4m6!3m5!1s0x396213a9a62e62d9:0x7b5e0881a7b1e3d1!8m2!3d22.1475369!4d75.3398693!16s%2Fg%2F11khkjxs4j?entry=ttu&g_ep=EgoyMDI1MDgwMy4wIKXMDSoASAFQAw%3D%3D"
  },
  {
    "name": "Prachin Mahadev Mandir",
    "lat": 22.9373294,
    "lng": 73.4720856,
    "url": "https://www.google.com/maps/place/Prachin+Mahadev+Mandir/@22.9373294,73.4720856,17z/data=!3m1!4b1!4m6!3m5!1s0x3960a19fce43f27b:0x865d686d32780515!8m2!3d22.9373294!4d73.4720856!16s%2Fg%2F11qn9wg8k9?entry=ttu&g_ep=EgoyMDI1MDgwMy4wIKXMDSoASAFQAw%3D%3D"
  },
  {
    "name": "Sidhi Vinayak Temple Sinor",
    "lat": 21.9108598,
    "lng": 73.3425447,
    "url": "https://www.google.com/maps/place/Siddhi+Vinayak+Temple,+Sinor/@21.9108598,73.3425447,17z/data=!3m1!4b1!4m6!3m5!1s0x395ffb0df3eff513:0x906efa258c1e6630!8m2!3d21.9108598!4d73.3425447!16s%2Fg%2F11gcfrzwyg?entry=ttu&g_ep=EgoyMDI1MDgwMy4wIKXMDSoASAFQAw%3D%3D"
  },
  {
    "name": "Prachin Balaji Mandir digo",
    "lat": 26.5879149,
    "lng": 76.4009928,
    "url": "https://www.google.com/maps/place/Prachin+Balaji+Mandir+digo/@26.5879149,76.4009928,17z/data=!3m1!4b1!4m6!3m5!1s0x396dfedd74a8443f:0xf6e21da24b86032d!8m2!3d26.5879149!4d76.4009928!16s%2Fg%2F11gdt_qzmg?entry=ttu&g_ep=EgoyMDI1MDgwMy4wIKXMDSoASAFQAw%3D%3D"
  },
  {
    "name": "Sheetla Devi Mandir",
    "lat": 25.9385186,
    "lng": 80.8190775,
    "url": "https://www.google.com/maps/place/Sheetla+Devi+Mandir/@25.9385186,80.8190775,17z/data=!3m1!4b1!4m6!3m5!1s0x399b7d52c4f96b89:0x4f19bf8f4c5a34a0!8m2!3d25.9385186!4d80.8190775!16s%2Fg%2F1tdwyyxj?entry=ttu&g_ep=EgoyMDI1MDgwMy4wIKXMDSoASAFQAw%3D%3D"
  },
  {
    "name": "MAHADEV MANDIR",
    "lat": 17.0438976,
    "lng": 75.3261592,
    "url": "https://www.google.com/maps/place/MAHADEV+MANDIR/@17.0438976,75.3261592,17z/data=!3m1!4b1!4m6!3m5!1s0x3bc6c102396b8bf3:0x3368cd8b24f8700f!8m2!3d17.0438976!4d75.3261592!16s%2Fg%2F11hz209g7b?entry=ttu&g_ep=EgoyMDI1MDgwNC4wIKXMDSoASAFQAw%3D%3D"
  },
  {
    "name": "Pancha lingeswara temple, nice place located at sedam",
    "lat": 17.1771245,
    "lng": 77.2923478,
    "url": "https://www.google.com/maps/place/Ancient+Sedam+Shri+Panchalingeshwara+Temple/@17.1771245,77.2923478,17z/data=!3m1!4b1!4m6!3m5!1s0x3bc919517e6c2d6f:0xa9ed2ff66135ac0c!8m2!3d17.1771245!4d77.2923478!16s%2Fg%2F1hjh3lh70?entry=ttu&g_ep=EgoyMDI1MDgwMy4wIKXMDSoASAFQAw%3D%3D"
  },
  {
    "name": "Karchulipur ancient brick temple",
    "lat": 26.182262,
    "lng": 80.3571538,
    "url": "https://www.google.com/maps/place/Karchulipur+ancient+brick+temple+auleswar+shiv+mandir/@26.182262,80.3571538,17z/data=!3m1!4b1!4m6!3m5!1s0x399c5952e3ffffff:0x6d4f9ccb3b1d99c5!8m2!3d26.182262!4d80.3571538!16s%2Fg%2F11hcdsl_m8?entry=ttu&g_ep=EgoyMDI1MDgwMy4wIKXMDSoASAFQAw%3D%3D"
  },
  {
    "name": "Hareshwar Mandir",
    "lat": 16.6350463,
    "lng": 74.1316848,
    "url": "https://www.google.com/maps/place/Hareshwar+Mandir/@16.6350463,74.1316848,17z/data=!3m1!4b1!4m6!3m5!1s0x3bc0549b3a16d009:0x599068f9ce203217!8m2!3d16.6350463!4d74.1316848!16s%2Fg%2F11c574s2sj?entry=ttu&g_ep=EgoyMDI1MDgwMy4wIKXMDSoASAFQAw%3D%3D"
  },
  {
    "name": "Old Shivalayam Temple",
    "lat": 17.1760674,
    "lng": 78.818223,
    "url": "https://www.google.com/maps/place/Old+Shivalayam+Temple/@17.1760674,78.818223,17z/data=!3m1!4b1!4m6!3m5!1s0x3bcb0f1a52e0887d:0xad6b2a22157ba0f!8m2!3d17.1760674!4d78.818223!16s%2Fg%2F11n094kz31?entry=ttu&g_ep=EgoyMDI1MDgwMy4wIKXMDSoASAFQAw%3D%3D"
  },
  {
    "name": "Jain Mandir Tiwari",
    "lat": 26.5492454,
    "lng": 72.8864544,
    "url": "https://www.google.com/maps/place/Jain+Mandir+Tiwari/@26.5492454,72.8864544,17z/data=!3m1!4b1!4m6!3m5!1s0x3941a31b4b1b97af:0xee40d620a68aa3e8!8m2!3d26.5492454!4d72.8864544!16s%2Fg%2F11rg9kxnmc?entry=ttu&g_ep=EgoyMDI1MDgwMy4wIKXMDSoASAFQAw%3D%3D"
  },
  {
    "name": "Kaalka Maa Mandir",
    "lat": 25.182142,
    "lng": 81.2473849,
    "url": "https://www.google.com/maps/place/Kaalka+Maa+Mandir/@25.182142,81.2473849,17z/data=!3m1!4b1!4m6!3m5!1s0x3984c676dcab672d:0xed9fbeed3a219256!8m2!3d25.182142!4d81.2473849!16s%2Fg%2F11fz5rmgd5?entry=ttu&g_ep=EgoyMDI1MDgwMy4wIKXMDSoASAFQAw%3D%3D"
  },
  {
    "name": "Lord Aranganathar Temple",
    "lat": 13.0899631,
    "lng": 79.2625645,
    "url": "https://www.google.com/maps/place/Aranganathar+Temple,+Erukkampattu/@13.0899631,79.2625645,17z/data=!3m1!4b1!4m6!3m5!1s0x3bad4e5f0762e5af:0x60e931d0d455e761!8m2!3d13.0899631!4d79.2625645!16s%2Fg%2F1hm3mcsb3?entry=ttu&g_ep=EgoyMDI1MDgwNC4wIKXMDSoASAFQAw%3D%3D"
  },
  {
    "name": "Parashar Rushi - Shiv Temple, Pathardi",
    "lat": 20.3736039,
    "lng": 76.6482321,
    "url": "https://www.google.com/maps/place/Parashar+Rushi+-+Shiv+Temple,+Pathardi/@20.3736039,76.6482321,17z/data=!3m1!4b1!4m6!3m5!1s0x3bd0bbe7f564999b:0x12940724ca60839c!8m2!3d20.3736039!4d76.6482321!16s%2Fg%2F11kky05dvz?entry=ttu&g_ep=EgoyMDI1MDgwMy4wIKXMDSoASAFQAw%3D%3D"
  },
  {
    "name": "Deoghar Pitha, Temple, Mahasingi, Baliguda",
    "lat": 20.1537609,
    "lng": 83.9372803,
    "url": "https://www.google.com/maps/place/Deoghar+Pitha,+Temple,+Mahasingi,+Baliguda/@20.1537609,83.9372803,17z/data=!3m1!4b1!4m6!3m5!1s0x3a230b918f20671f:0xd3e729171f6fc19a!8m2!3d20.1537609!4d83.9372803!16s%2Fg%2F11qrv6bdd4?entry=ttu&g_ep=EgoyMDI1MDgwMy4wIKXMDSoASAFQAw%3D%3D"
  },
  {
    "name": "Prachin Murti",
    "lat": 20.539082,
    "lng": 81.0846728,
    "url": "https://www.google.com/maps/place/Prachin+Murti/@20.539082,81.0846728,17z/data=!3m1!4b1!4m6!3m5!1s0x3a2ebe8509c1496b:0x74e7ed9b7ba10bd9!8m2!3d20.539082!4d81.0846728!16s%2Fg%2F11f08ndd19?entry=ttu&g_ep=EgoyMDI1MDgwMy4wIKXMDSoASAFQAw%3D%3D"
  },
  {
    "name": "Shiv mandir pancharatnaa",
    "lat": 26.1967172,
    "lng": 90.5702821,
    "url": "https://www.google.com/maps/place/Shiv+mandir+pancharatnaa/@26.1967172,90.5702821,17z/data=!3m1!4b1!4m6!3m5!1s0x37584dea18af9c49:0x368b9b823b2984a7!8m2!3d26.1967172!4d90.5702821!16s%2Fg%2F11k05b87dt?entry=ttu&g_ep=EgoyMDI1MDgwMy4wIKXMDSoASAFQAw%3D%3D"
  },
  {
    "name": "Kubja Sangam Shiva Mandir",
    "lat": 22.1463498,
    "lng": 75.3402455,
    "url": "https://www.google.com/maps/place/Kubja+Sangam+Shiva+Mandir/@22.1463498,75.3402455,17z/data=!3m1!4b1!4m6!3m5!1s0x396213b4a6904fe9:0xccb0d601e4176ce5!8m2!3d22.1463498!4d75.3402455!16s%2Fg%2F11rq3_5wng?entry=ttu&g_ep=EgoyMDI1MDgwMy4wIKXMDSoASAFQAw%3D%3D"
  },
  {
    "name": "Ramling Temple , Gursale",
    "lat": 17.5203004,
    "lng": 74.4398306,
    "url": "https://www.google.com/maps/place/Chalukya+era+Shri+Ramling+Temple,+Gursale/@17.5203004,74.4398306,17z/data=!3m1!4b1!4m6!3m5!1s0x3bc3da27eec3200f:0x7f2ac5f7e152cb7d!8m2!3d17.5203004!4d74.4398306!16s%2Fg%2F11bydmblrp?entry=ttu&g_ep=EgoyMDI1MDgwNC4wIKXMDSoASAFQAw%3D%3D"
  },
  {
    "name": "Laksha Vinayak Temple",
    "lat": 20.0217997,
    "lng": 75.1670713,
    "url": "https://www.google.com/maps/place/Shree+Laksha+Vinayak+Ganapati+Temple,+Shree+Kshetra+Verul/@20.0217997,75.1670713,17z/data=!3m1!4b1!4m6!3m5!1s0x3bdb92653a37ac53:0x5cc2fe664f1f0fe!8m2!3d20.0217997!4d75.1670713!16s%2Fg%2F1262gyq3f?entry=ttu&g_ep=EgoyMDI1MDgwMy4wIKXMDSoASAFQAw%3D%3D"
  },
  {
    "name": "Chausat mata mandir Tihar",
    "lat": 25.6093672,
    "lng": 81.0400258,
    "url": "https://www.google.com/maps/place/Chausat+mata+mandir+Tihar/@25.6093672,81.0400258,17z/data=!3m1!4b1!4m6!3m5!1s0x399b458d28987ddb:0x5a82d3a99acca25!8m2!3d25.6093672!4d81.0400258!16s%2Fg%2F11nnrwrff0?entry=ttu&g_ep=EgoyMDI1MDgwMy4wIKXMDSoASAFQAw%3D%3D"
  },
  {
    "name": "Kaleswar Temple",
    "lat": 19.1199519,
    "lng": 77.2838657,
    "url": "https://www.google.com/maps/place/Kaleshwar+Mandir+Vishnupuri/@19.1199519,77.2838657,17z/data=!3m1!4b1!4m6!3m5!1s0x3bce2a01a3d8675d:0x5ec36295ff5ac693!8m2!3d19.1199519!4d77.2838657!16s%2Fg%2F11bxfw_bk6?entry=ttu&g_ep=EgoyMDI1MDgwMy4wIKXMDSoASAFQAw%3D%3D"
  },
  {
    "name": "Thenparagkundram Rock Cut Cave Temple",
    "lat": 9.8739875,
    "lng": 78.0707969,
    "url": "https://www.google.com/maps/place/Tiruparankundram+Rock+Cut+Cave+Temple/@9.8739875,78.0707969,17z/data=!3m1!4b1!4m6!3m5!1s0x3b00cfd40af65d13:0x231539fa6b1243e1!8m2!3d9.8739875!4d78.0707969!16s%2Fg%2F1th7wsl_?entry=ttu&g_ep=EgoyMDI1MDgwMy4wIKXMDSoASAFQAw%3D%3D"
  },
  {
    "name": "Shiv Mandir",
    "lat": 25.5118077,
    "lng": 75.022711,
    "url": "https://www.google.com/maps/place/Shiv+Mandir/@25.5118077,75.022711,17z/data=!3m1!4b1!4m6!3m5!1s0x396f2c5a794cd379:0x1d5fbb808f9b36a0!8m2!3d25.5118077!4d75.022711!16s%2Fg%2F11fxr7t322?entry=ttu&g_ep=EgoyMDI1MDgwMy4wIKXMDSoASAFQAw%3D%3D"
  },
  {
    "name": "Ancient Neelkantheshwar Mahadev Temple",
    "lat": 19.396915,
    "lng": 76.4987085,
    "url": "https://www.google.com/maps/place/Ancient+Neelkantheshwar+Mahadev+Temple/@19.396915,76.4987085,17z/data=!3m1!4b1!4m6!3m5!1s0x3bd00b556795c665:0xe6af69d5ba230366!8m2!3d19.396915!4d76.4987085!16s%2Fg%2F11kmqt4bl3?entry=ttu&g_ep=EgoyMDI1MDgwMy4wIKXMDSoASAFQAw%3D%3D"
  },
  {
    "name": "Narsimha Tirth",
    "lat": 19.6307067,
    "lng": 76.5361899,
    "url": "https://www.google.com/maps/place/Ancient+Chalukya+Shri+Narasimha+Tirth/@19.6307067,76.5361899,17z/data=!3m1!4b1!4m6!3m5!1s0x3bd079e2b94d144f:0x15e8c9c92b6c1253!8m2!3d19.6307067!4d76.5361899!16s%2Fg%2F1v1vbngk?entry=ttu&g_ep=EgoyMDI1MDgwMy4wIKXMDSoASAFQAw%3D%3D"
  },
  {
    "name": "Kashi Vishweshwar Temple",
    "lat": 17.1839126,
    "lng": 73.5571092,
    "url": "https://www.google.com/maps/place/Chalukya+style+Shri+Kashi+Vishweshwar+Temple/@17.1839126,73.5571092,17z/data=!3m1!4b1!4m6!3m5!1s0x3bc1fd18ff82518f:0xb1f06a6d4067b286!8m2!3d17.1839126!4d73.5571092!16s%2Fg%2F11rqwd7stf?entry=ttu&g_ep=EgoyMDI1MDgwMy4wIKXMDSoASAFQAw%3D%3D"
  },
  {
    "name": "Sri Kashi Bugga Mandir",
    "lat": 17.36055,
    "lng": 78.4475514,
    "url": "https://www.google.com/maps/place/Sri+Kashi+Bugga+Temple/@17.36055,78.4475514,17z/data=!3m1!4b1!4m6!3m5!1s0x3bcb97beba27654d:0xc0e744c45b4d3411!8m2!3d17.36055!4d78.4475514!16s%2Fg%2F11c3mpg0n2?entry=ttu&g_ep=EgoyMDI1MDgwMy4wIKXMDSoASAFQAw%3D%3D"
  },
  {
    "name": "Mahadev Mandir",
    "lat": 19.9361349,
    "lng": 73.8129205,
    "url": "https://www.google.com/maps/place/Mahadev+Mandir/@19.9361349,73.8129205,17z/data=!3m1!4b1!4m6!3m5!1s0x3bdd953e739641ab:0x591a6cd1022a206f!8m2!3d19.9361349!4d73.8129205!16s%2Fg%2F11bzt2sr0b?entry=ttu&g_ep=EgoyMDI1MDgwMy4wIKXMDSoASAFQAw%3D%3D"
  },
  {
    "name": "Jagannath Temple Mansoon Mandir",
    "lat": 26.1936598,
    "lng": 80.2468253,
    "url": "https://www.google.com/maps/place/Jagannath+Temple+Mansoon+Mandir/@26.1936598,80.2468253,17z/data=!3m1!4b1!4m6!3m5!1s0x399c50cf62b90591:0x481d438c31c9b0ea!8m2!3d26.1936598!4d80.2468253!16s%2Fg%2F11c2jr3jsj?entry=ttu&g_ep=EgoyMDI1MDgwMy4wIKXMDSoASAFQAw%3D%3D"
  },
  {
    "name": "Maylapatti Ancient Jain hill temple",
    "lat": 10.3846065,
    "lng": 78.7518775,
    "url": "https://www.google.com/maps/place/Maylapatti+MALAYA+KARUPAR+temple/@10.3846065,78.7518775,17z/data=!3m1!4b1!4m6!3m5!1s0x3b0078d23601bf0d:0xd16b515be50958f9!8m2!3d10.3846065!4d78.7518775!16s%2Fg%2F11bw7d1x22?entry=ttu&g_ep=EgoyMDI1MDgwMy4wIKXMDSoASAFQAw%3D%3D"
  },
  {
    "name": "Panangudi Vinnagaram",
    "lat": 10.4364598,
    "lng": 78.7158679,
    "url": "https://www.google.com/maps/place/Panangudi+Vinnagaram/@10.4364598,78.7158679,17z/data=!3m1!4b1!4m6!3m5!1s0x3baa81e2b089540f:0xf4f80fe9c097636e!8m2!3d10.4364598!4d78.7158679!16s%2Fg%2F11r1dqz26j?entry=ttu&g_ep=EgoyMDI1MDgwMy4wIKXMDSoASAFQAw%3D%3D"
  },
  {
    "name": "Shri Valamadisvara Temple",
    "lat": 10.6210693,
    "lng": 78.7109323,
    "url": "https://www.google.com/maps/place/Shri+Valarmadhiswarar+Temple/@10.6210693,78.7109323,17z/data=!3m1!4b1!4m6!3m5!1s0x3baa88f2536fe6b3:0x455ca769897b3685!8m2!3d10.6210693!4d78.7109323!16s%2Fg%2F11f57j0dnh?entry=ttu&g_ep=EgoyMDI1MDgwMy4wIKXMDSoASAFQAw%3D%3D"
  },
  {
    "name": "Bamu Chak Temple",
    "lat": 32.4840361,
    "lng": 74.9147847,
    "url": "https://www.google.com/maps/place/Bamu+Chak+Temple/@32.4840361,74.9147847,17z/data=!3m1!4b1!4m6!3m5!1s0x391ea1ae9c6d3271:0x35b65ca6f5a18926!8m2!3d32.4840361!4d74.9147847!16s%2Fg%2F11cntjf9rv?entry=ttu&g_ep=EgoyMDI1MDgwMy4wIKXMDSoASAFQAw%3D%3D"
  },
  {
    "name": "Prachin Shiv Mandir",
    "lat": 19.1353647,
    "lng": 81.7428424,
    "url": "https://www.google.com/maps/place/Prachin+Shiv+Mandir/@19.1353647,81.7428424,17z/data=!3m1!4b1!4m6!3m5!1s0x3a303bae4d96437b:0xa3359a85768509a3!8m2!3d19.1353647!4d81.7428424!16s%2Fg%2F11c1ly3ntw?entry=ttu&g_ep=EgoyMDI1MDgwMy4wIKXMDSoASAFQAw%3D%3D"
  },
  {
    "name": "Shri Uma Swayambhu Rameshwara Temple",
    "lat": 16.8554936,
    "lng": 75.2605808,
    "url": "https://www.google.com/maps/place/Ancient+Shri+Uma+Swayambhu+Rameshwara+Temple/@16.8554936,75.2605808,17z/data=!3m1!4b1!4m6!3m5!1s0x3bc6dc1ac6bc5be1:0x79c41cc22e92a363!8m2!3d16.8554936!4d75.2605808!16s%2Fg%2F11b6pw_0k2?entry=ttu&g_ep=EgoyMDI1MDgwMy4wIKXMDSoASAFQAw%3D%3D"
  },
  {
    "name": "Nilkanth Mahadev Mandir",
    "lat": 22.3269951,
    "lng": 75.3901492,
    "url": "https://www.google.com/maps/place/Nilkanth+Mahadev+Mandir/@22.3269951,75.3901492,17z/data=!3m1!4b1!4m6!3m5!1s0x39626a7e662b612d:0xe1475495986956ff!8m2!3d22.3269951!4d75.3901492!16s%2Fg%2F11bzt91tvv?entry=ttu&g_ep=EgoyMDI1MDgwNC4wIKXMDSoASAFQAw%3D%3D"
  },
  {
    "name": "Mahanubhav Sthan - Sarvatirth",
    "lat": 17.9896869,
    "lng": 74.4249355,
    "url": "https://www.google.com/maps/place/Mahanubhav+Sthan+-+Sarvatirth/@17.9896869,74.4249355,17z/data=!3m1!4b1!4m6!3m5!1s0x3bc3a548990ef2ed:0x73af26e4d8c616be!8m2!3d17.9896869!4d74.4249355!16s%2Fg%2F1pty8b1sq?entry=ttu&g_ep=EgoyMDI1MDgwMy4wIKXMDSoASAFQAw%3D%3D"
  },
  {
    "name": "Chandika Mata Temple, Katol",
    "lat": 21.2773375,
    "lng": 78.5847031,
    "url": "https://www.google.com/maps/place/Chandika+Mata+Temple,+Katol/@21.2773375,78.5847031,17z/data=!3m1!4b1!4m6!3m5!1s0x3bd4575f6a35e289:0x3972ccc39aea8bc3!8m2!3d21.2773375!4d78.5847031!16s%2Fg%2F1hjgtn7dx?entry=ttu&g_ep=EgoyMDI1MDgwMy4wIKXMDSoASAFQAw%3D%3D"
  }
]