[
  {
    "name": "Mir Mardan Ali Zaidi Makbara",
    "lat": 44.2423649,
    "lng": -119.8093025,
    "url": "https://www.google.com/maps/place//@44.2423649,-119.8093025,3z/data=!3m1!4b1?entry=ttu&g_ep=EgoyMDI1MDgwMy4wIKXMDSoASAFQAw%3D%3D"
  },
  {
    "name": "Ataga khan tomb",
    "lat": 28.5915099,
    "lng": 77.2422592,
    "url": "https://www.google.com/maps/place/Ataga+khan+tomb/@28.5915099,77.2422592,17z/data=!3m1!4b1!4m6!3m5!1s0x390ce3e584bbd2fb:0x7359198baec2bc13!8m2!3d28.5915099!4d77.2422592!16s%2Fg%2F11h6t9c8m9?entry=ttu&g_ep=EgoyMDI1MDgwMy4wIKXMDSoASAFQAw%3D%3D"
  },
  {
    "name": "Meer Nawab Shah Saiyed Qutubuddin Tomb",
    "lat": 22.2778137,
    "lng": 73.2069542,
    "url": "https://www.google.com/maps/place/Meer+Nawab+Shah+Saiyed+Qutubuddin+Tomb/@22.2778137,73.2069542,17z/data=!3m1!4b1!4m6!3m5!1s0x395fc5bfe5291357:0xd7fe20016f9158e6!8m2!3d22.2778137!4d73.2069542!16s%2Fm%2F02w3504?entry=ttu&g_ep=EgoyMDI1MDgwMy4wIKXMDSoASAFQAw%3D%3D"
  },
  {
    "name": "Maqbara Firoz Shah Jaunpur",
    "lat": 25.7486634,
    "lng": 82.6981399,
    "url": "https://www.google.com/maps/place/Maqbara+Firoz+Shah+Jaunpur/@25.7486634,82.6981399,17z/data=!3m1!4b1!4m6!3m5!1s0x39903a3174868f85:0xc36451288d78c2db!8m2!3d25.7486634!4d82.6981399!16s%2Fg%2F11crzft987?entry=ttu&g_ep=EgoyMDI1MDgwMy4wIKXMDSoASAFQAw%3D%3D"
  },
  {
    "name": "Shah Baba",
    "lat": 26.0520841,
    "lng": 82.687101,
    "url": "https://www.google.com/maps/place/Shah+Baba/@26.0520841,82.687101,17z/data=!3m1!4b1!4m6!3m5!1s0x39905b4c1e2b6853:0xbcdfe8ac2d98c846!8m2!3d26.0520841!4d82.687101!16s%2Fg%2F11fm03j_dz?entry=ttu&g_ep=EgoyMDI1MDgwMy4wIKXMDSoASAFQAw%3D%3D"
  },
  {
    "name": "Sufi Tombs",
    "lat": 26.9640136,
    "lng": 78.5934361,
    "url": "https://www.google.com/maps/place/Sufi+Tombs/@26.9640136,78.5934361,17z/data=!3m1!4b1!4m6!3m5!1s0x397433299f97957d:0xbb91946dcbc7549b!8m2!3d26.9640136!4d78.5934361!16s%2Fg%2F11gy6hdf5m?entry=ttu&g_ep=EgoyMDI1MDgwMy4wIKXMDSoASAFQAw%3D%3D"
  },
  {
    "name": "Tomb of Subhan, Sirhind",
    "lat": 30.6640027,
    "lng": 76.3660698,
    "url": "https://www.google.com/maps/place/Tomb+of+Subhan,+Sirhind/@30.6640027,76.3660698,17z/data=!3m1!4b1!4m6!3m5!1s0x39101dcf7a7ae091:0x3b4bce9266cf3c3!8m2!3d30.6640027!4d76.3660698!16s%2Fg%2F11hfgvv7xj?entry=ttu&g_ep=EgoyMDI1MDgwMy4wIKXMDSoASAFQAw%3D%3D"
  },
  {
    "name": "Dost Mohammad Khan Monument",
    "lat": 23.3336391,
    "lng": 77.4054988,
    "url": "https://www.google.com/maps/place/Dost+Mohammad+Khan+Monument/@23.3336391,77.4054988,17z/data=!3m1!4b1!4m6!3m5!1s0x397c692050ff6259:0x66fa24b74128c77a!8m2!3d23.3336391!4d77.4054988!16s%2Fg%2F11h922dzw_?entry=ttu&g_ep=EgoyMDI1MDgwMy4wIKXMDSoASAFQAw%3D%3D"
  },
  {
    "name": "Bada Gumbad",
    "lat": 28.5929147,
    "lng": 77.2204086,
    "url": "https://www.google.com/maps/place/Bada+Gumbad/@28.5929147,77.2204086,17z/data=!3m1!4b1!4m6!3m5!1s0x390ce2ecf772e831:0xc5ef9394650cf48e!8m2!3d28.5929147!4d77.2204086!16s%2Fg%2F120qdg04?entry=ttu&g_ep=EgoyMDI1MDgwMy4wIKXMDSoASAFQAw%3D%3D"
  },
  {
    "name": "Sufi Sarkar Peer Maabri Khandayat",
    "lat": 16.825148,
    "lng": 75.7207007,
    "url": "https://www.google.com/maps/place/Sufi+Sarkar+Peer+Maabri+Khandayat/@16.825148,75.7207007,17z/data=!3m1!4b1!4m6!3m5!1s0x3bc6557b93de687f:0x5a78d79c9644f08b!8m2!3d16.825148!4d75.7207007!16s%2Fg%2F1pyqj6jbz?entry=ttu&g_ep=EgoyMDI1MDgwMy4wIKXMDSoASAFQAw%3D%3D"
  },
  {
    "name": "Chhapan Mahal Mandu",
    "lat": 22.3426429,
    "lng": 75.3979074,
    "url": "https://www.google.com/maps/place/Chhapan+Mahal+Mandu/@22.3426429,75.3979074,17z/data=!3m1!4b1!4m6!3m5!1s0x396241d03fad4497:0x6d730f3561cd32e1!8m2!3d22.3426429!4d75.3979074!16s%2Fg%2F11cndjbmn0?entry=ttu&g_ep=EgoyMDI1MDgwMy4wIKXMDSoASAFQAw%3D%3D"
  },
  {
    "name": "Hazrat Sayyad Shaheed Fakhruddin Wali Memorial",
    "lat": 23.5201186,
    "lng": 74.0201601,
    "url": "https://www.google.com/maps/place/Syedi+Fakhruddin+Shaheed+Memorial/@23.5201186,74.0201601,17z/data=!3m1!4b1!4m6!3m5!1s0x39673ab7db3f56e5:0x9f267168b84fe939!8m2!3d23.5201186!4d74.0201601!16s%2Fg%2F119w92c33?entry=ttu&g_ep=EgoyMDI1MDgwMy4wIKXMDSoASAFQAw%3D%3D"
  },
  {
    "name": "Tomb of Pranpir Badshah",
    "lat": 29.1477316,
    "lng": 75.7165584,
    "url": "https://www.google.com/maps/place/Tomb+of+Pranpir+Badshah/@29.1477316,75.7165584,17z/data=!3m1!4b1!4m6!3m5!1s0x3912332cfef70175:0xff5b7f27ab9878fa!8m2!3d29.1477316!4d75.7165584!16s%2Fg%2F11c1njb8ls?entry=ttu&g_ep=EgoyMDI1MDgwMy4wIKXMDSoASAFQAw%3D%3D"
  },
  {
    "name": "Moulana Yaqub Dargah",
    "lat": 17.879417,
    "lng": 76.9429106,
    "url": "https://www.google.com/maps/place/Hazrat+Moulana+Yaqub+rh+Dargah/@17.879417,76.9429106,17z/data=!3m1!4b1!4m6!3m5!1s0x3bcf3b8d1682a2d7:0xc80e6921c03f2822!8m2!3d17.879417!4d76.9429106!16s%2Fg%2F1wfvl3j1?entry=ttu&g_ep=EgoyMDI1MDgwMy4wIKXMDSoASAFQAw%3D%3D"
  },
  {
    "name": "Darya Khan's Tomb",
    "lat": 28.5722418,
    "lng": 77.2166935,
    "url": "https://www.google.com/maps/place/Darya+Khan's+Tomb/@28.5722418,77.2166935,17z/data=!3m1!4b1!4m6!3m5!1s0x390ce260b0313b57:0x548b8e19bfafb73b!8m2!3d28.5722418!4d77.2166935!16s%2Fg%2F11b7hl7fpn?entry=ttu&g_ep=EgoyMDI1MDgwMy4wIKXMDSoASAFQAw%3D%3D"
  },
  {
    "name": "Kale Khan Ka Makbara",
    "lat": 28.570097,
    "lng": 77.218924,
    "url": "https://www.google.com/maps/place/Kale+Khan+Ka+Makbara/@28.570097,77.218924,17z/data=!3m1!4b1!4m6!3m5!1s0x390ce25d96079917:0x53c709620635f3c1!8m2!3d28.570097!4d77.218924!16s%2Fg%2F1ptwx_m8x?entry=ttu&g_ep=EgoyMDI1MDgwMy4wIKXMDSoASAFQAw%3D%3D"
  },
  {
    "name": "\u0939\u092b\u094d\u0924 \u0917\u0941\u092e\u094d\u092c\u0926",
    "lat": 17.3421087,
    "lng": 76.844779,
    "url": "https://www.google.com/maps/place/Haft+Gumbad/@17.3421087,76.844779,17z/data=!3m1!4b1!4m6!3m5!1s0x3bc8c7bf024f1075:0x24b20c9c8a635d82!8m2!3d17.3421087!4d76.844779!16s%2Fg%2F11llbj9vfr?entry=ttu&g_ep=EgoyMDI1MDgwMy4wIKXMDSoASAFQAw%3D%3D"
  },
  {
    "name": "Dai- Ka- Mahal",
    "lat": 22.3276267,
    "lng": 75.402326,
    "url": "https://www.google.com/maps/place/Dai-+Ka-+Mahal/@22.3276267,75.402326,16z/data=!3m1!4b1!4m6!3m5!1s0x39626a7727dd12d7:0x6f3b675e3a399d8e!8m2!3d22.3276267!4d75.402326!16s%2Fg%2F11f3p1jhdj?entry=ttu&g_ep=EgoyMDI1MDgwMy4wIKXMDSoASAFQAw%3D%3D"
  },
  {
    "name": "Tomb of Hayat Bakshi Begum",
    "lat": 17.3968016,
    "lng": 78.3969827,
    "url": "https://www.google.com/maps/place/Tomb+of+Hayat+Bakshi+Begum/@17.3968016,78.3969827,17z/data=!3m1!4b1!4m6!3m5!1s0x3bcb96979f7a434d:0xfac6d78539a67596!8m2!3d17.3968016!4d78.3969827!16s%2Fg%2F11bzz1qv7r?entry=ttu&g_ep=EgoyMDI1MDgwNC4wIKXMDSoASAFQAw%3D%3D"
  },
  {
    "name": "SHOR Gumbaz",
    "lat": 17.3483033,
    "lng": 76.8111869,
    "url": "https://www.google.com/maps/place/Shor+Gumbad+Gulbarga/@17.3483033,76.8111869,17z/data=!3m1!4b1!4m6!3m5!1s0x3bc8b8964bc234e3:0x65307f581ad04e46!8m2!3d17.3483033!4d76.8111869!16s%2Fg%2F11b5yvsk36?entry=ttu&g_ep=EgoyMDI1MDgwMy4wIKXMDSoASAFQAw%3D%3D"
  },
  {
    "name": "Hauz Khas Fort",
    "lat": 28.5531541,
    "lng": 77.1935275,
    "url": "https://www.google.com/maps/place/Hauz+Khas+Fort/@28.5531541,77.1935275,17z/data=!3m1!4b1!4m6!3m5!1s0x390d1d08938eeaf3:0xffba7696e9e12886!8m2!3d28.5531541!4d77.1935275!16s%2Fg%2F11qn3lr0rq?entry=ttu&g_ep=EgoyMDI1MDgwMy4wIKXMDSoASAFQAw%3D%3D"
  },
  {
    "name": "Humayun\u2019s Tomb",
    "lat": 28.5932848,
    "lng": 77.2507492,
    "url": "https://www.google.com/maps/place/Humayun%E2%80%99s+Tomb/@28.5932848,77.2507492,17z/data=!3m1!4b1!4m6!3m5!1s0x390ce31ce8460ba7:0xb9f1ba2d3bdfa80d!8m2!3d28.5932848!4d77.2507492!16zL20vMDR3OWMy?entry=ttu&g_ep=EgoyMDI1MDgwMy4wIKXMDSoASAFQAw%3D%3D"
  },
  {
    "name": "Chakar E Azam Rind Tomb",
    "lat": 30.9170337,
    "lng": 73.5129601,
    "url": "https://www.google.com/maps/place/Tomb+of+Mir+Chakar-i-Azam+Rind/@30.9170337,73.5129601,17z/data=!3m1!4b1!4m6!3m5!1s0x39180b2a056b0f3d:0xa1fc7c9ae2e746bf!8m2!3d30.9170337!4d73.5129601!16s%2Fg%2F1q5bm48yp?entry=ttu&g_ep=EgoyMDI1MDgwMy4wIKXMDSoASAFQAw%3D%3D"
  },
  {
    "name": "Munda Gumbad",
    "lat": 28.5566641,
    "lng": 77.1917062,
    "url": "https://www.google.com/maps/place/Munda+Gumbad/@28.5566641,77.1917062,17z/data=!3m1!4b1!4m6!3m5!1s0x390d1d8a34dac6d5:0x650bab519dabc5ff!8m2!3d28.5566641!4d77.1917062!16s%2Fg%2F11cmmr40xh?entry=ttu&g_ep=EgoyMDI1MDgwMy4wIKXMDSoASAFQAw%3D%3D"
  },
  {
    "name": "Quba Mir Shahdad Talpur",
    "lat": 26.1872161,
    "lng": 68.6336252,
    "url": "https://www.google.com/maps/place/Quba+Mir+Shahdad+Talpur/@26.1872161,68.6336252,17z/data=!3m1!4b1!4m6!3m5!1s0x394bcc1b67a25435:0x769c5582c6d3f24a!8m2!3d26.1872161!4d68.6336252!16s%2Fg%2F11c6_yrs12?entry=ttu&g_ep=EgoyMDI1MDgwMy4wIKXMDSoASAFQAw%3D%3D"
  },
  {
    "name": "Tomb of Khudawand Khan",
    "lat": 21.2042805,
    "lng": 72.8236552,
    "url": "https://www.google.com/maps/place/Tomb+of+Khudawand+Khan/@21.2042805,72.8236552,17z/data=!3m1!4b1!4m6!3m5!1s0x3be04e8b8d0b21ff:0x9e032d1837def659!8m2!3d21.2042805!4d72.8236552!16s%2Fg%2F1hm2knchl?entry=ttu&g_ep=EgoyMDI1MDgwMy4wIKXMDSoASAFQAw%3D%3D"
  },
  {
    "name": "Group Of Tombs",
    "lat": 28.6064568,
    "lng": 76.6693448,
    "url": "https://www.google.com/maps/place/Group+Of+Tombs/@28.6064568,76.6693448,17z/data=!3m1!4b1!4m6!3m5!1s0x390d705c901fb659:0x7cff9ef8ad20e429!8m2!3d28.6064568!4d76.6693448!16s%2Fg%2F11fzw8ncxk?entry=ttu&g_ep=EgoyMDI1MDgwMy4wIKXMDSoASAFQAw%3D%3D"
  },
  {
    "name": "Ancient Monuments and Archaeological Sites, Muzaffarnagar",
    "lat": 29.3098503,
    "lng": 77.9282241,
    "url": "https://www.google.com/maps/place/Ancient+Monuments+and+Archaeological+Sites,+Muzaffarnagar/@29.3098503,77.9282241,17z/data=!3m1!4b1!4m6!3m5!1s0x390bf5910907f399:0xbb87fcb6ddc16d4b!8m2!3d29.3098503!4d77.9282241!16s%2Fg%2F11ny470v6t?entry=ttu&g_ep=EgoyMDI1MDgwMy4wIKXMDSoASAFQAw%3D%3D"
  },
  {
    "name": "Makhdoom Shah Baba Ki Mazaar",
    "lat": 44.2423649,
    "lng": -119.8093025,
    "url": "https://www.google.com/maps/place//@44.2423649,-119.8093025,3z/data=!3m1!4b1?entry=ttu&g_ep=EgoyMDI1MDgwMy4wIKXMDSoASAFQAw%3D%3D"
  },
  {
    "name": "Tomb of Akbar the Great",
    "lat": 27.2205556,
    "lng": 77.9505086,
    "url": "https://www.google.com/maps/place/Tomb+of+Akbar/@27.2205556,77.9505086,17z/data=!3m1!4b1!4m6!3m5!1s0x3974781f5323d425:0x2ecbe9a4b4d33615!8m2!3d27.2205556!4d77.9505086!16s%2Fm%2F03c1kd9?entry=ttu&g_ep=EgoyMDI1MDgwMy4wIKXMDSoASAFQAw%3D%3D"
  },
  {
    "name": "Dargah Samshuddin Turk Panipat",
    "lat": 29.3869971,
    "lng": 76.9769854,
    "url": "https://www.google.com/maps/place/Dargah+Samshuddin+Turk+Panipat/@29.3869971,76.9769854,17z/data=!3m1!4b1!4m6!3m5!1s0x390ddbb32637b9d3:0xe13cb4fc863dc2d2!8m2!3d29.3869971!4d76.9769854!16s%2Fg%2F11c48p0fq0?entry=ttu&g_ep=EgoyMDI1MDgwNC4wIKXMDSoASAFQAw%3D%3D"
  },
  {
    "name": "Shaik roza",
    "lat": 17.3510748,
    "lng": 76.8238333,
    "url": "https://www.google.com/maps/place/Shaik+roza/@17.3510748,76.8238333,17z/data=!3m1!4b1!4m6!3m5!1s0x3bc8b9668b85c6ef:0x3edc1c8d69112b1f!8m2!3d17.3510748!4d76.8238333!16s%2Fg%2F11sw0dr5r4?entry=ttu&g_ep=EgoyMDI1MDgwMy4wIKXMDSoASAFQAw%3D%3D"
  },
  {
    "name": "Muhammad Shah Sayyid Tomb",
    "lat": 28.590971,
    "lng": 77.2183085,
    "url": "https://www.google.com/maps/place/Shah+Tomb,Delhi/@28.590971,77.2183085,17z/data=!3m1!4b1!4m6!3m5!1s0x390ce2ed3a62cbd1:0x7165949411fe46d!8m2!3d28.590971!4d77.2183085!16s%2Fg%2F11c55wjnsq?entry=ttu&g_ep=EgoyMDI1MDgwMy4wIKXMDSoASAFQAw%3D%3D"
  },
  {
    "name": "Barakhamba Monument",
    "lat": 28.5925594,
    "lng": 77.242533,
    "url": "https://www.google.com/maps/place/Barakhamba+Tomb+Monument/@28.5925594,77.242533,17z/data=!3m1!4b1!4m6!3m5!1s0x390ce31d3cf008a3:0x9a649a156a6157ca!8m2!3d28.5925594!4d77.242533!16s%2Fm%2F05t0gp2?entry=ttu&g_ep=EgoyMDI1MDgwMy4wIKXMDSoASAFQAw%3D%3D"
  },
  {
    "name": "Dargah of Hazrat Sayed Shah Qasim Quadri and Mosque of Sayed Shah Abul \nHasan Quadri",
    "lat": 16.8234073,
    "lng": 75.7331683,
    "url": "https://www.google.com/maps/place/Dargah+of+Hazrat+Sayed+Shah+Qasim+Quadri+and+Mosque+of+Sayed+Shah+Abul+Hasan+Quadri/@16.8234073,75.7331683,17z/data=!3m1!4b1!4m6!3m5!1s0x3bc655726a1a2ce9:0x18a0979d3dcc1832!8m2!3d16.8234073!4d75.7331683!16s%2Fg%2F1pyqn859h?entry=ttu&g_ep=EgoyMDI1MDgwMy4wIKXMDSoASAFQAw%3D%3D"
  },
  {
    "name": "Sheikh Chilli Tomb",
    "lat": 44.2423649,
    "lng": -119.8093025,
    "url": "https://www.google.com/maps/place//@44.2423649,-119.8093025,3z/data=!3m1!4b1?entry=ttu&g_ep=EgoyMDI1MDgwMy4wIKXMDSoASAFQAw%3D%3D"
  },
  {
    "name": "Gol Gumbaz",
    "lat": 16.8300989,
    "lng": 75.7361204,
    "url": "https://www.google.com/maps/place/Gol+Gumbaz/@16.8300989,75.7361204,17z/data=!3m1!4b1!4m6!3m5!1s0x3bc65574c0cdafa3:0xd964a78d4d2e25a6!8m2!3d16.8300989!4d75.7361204!16zL20vMDNsaGc4?entry=ttu&g_ep=EgoyMDI1MDgwMy4wIKXMDSoASAFQAw%3D%3D"
  },
  {
    "name": "Tomb of Pir Turkman",
    "lat": 28.0399815,
    "lng": 76.1013344,
    "url": "https://www.google.com/maps/place/Tomb+of+Pir+Turkman/@28.0399815,76.1013344,17z/data=!3m1!4b1!4m6!3m5!1s0x3912b5ef39c4c8e5:0x4120d3d559dbf728!8m2!3d28.0399815!4d76.1013344!16s%2Fg%2F11b6y492sk?entry=ttu&g_ep=EgoyMDI1MDgwMy4wIKXMDSoASAFQAw%3D%3D"
  },
  {
    "name": "Dargah-E-Hakimi",
    "lat": 21.3341174,
    "lng": 76.2263079,
    "url": "https://www.google.com/maps/place/Dargah-E-Hakimi/@21.3341174,76.2263079,17z/data=!3m1!4b1!4m6!3m5!1s0x3bd83254df246a81:0x47a9175dc432f2bf!8m2!3d21.3341174!4d76.2263079!16s%2Fg%2F1tfq7pm4?entry=ttu&g_ep=EgoyMDI1MDgwMy4wIKXMDSoASAFQAw%3D%3D"
  },
  {
    "name": "Tomb of Bijri Khan",
    "lat": 28.5587082,
    "lng": 77.1817737,
    "url": "https://www.google.com/maps/place/Tomb+of+Bijri+Khan/@28.5587082,77.1817737,17z/data=!3m1!4b1!4m6!3m5!1s0x390d1d91c6d7bc39:0x4b8155724e89fd1a!8m2!3d28.5587082!4d77.1817737!16s%2Fg%2F11fy96238b?entry=ttu&g_ep=EgoyMDI1MDgwMy4wIKXMDSoASAFQAw%3D%3D"
  },
  {
    "name": "Dargah Sharif Abdal Shah Baba",
    "lat": 26.6896802,
    "lng": 77.8810887,
    "url": "https://www.google.com/maps/place/Dargah+Sharif+Abdal+Shah+Baba/@26.6896802,77.8810887,17z/data=!3m1!4b1!4m6!3m5!1s0x3973ffa688097463:0xcfca417be57714bd!8m2!3d26.6896802!4d77.8810887!16s%2Fg%2F11h01x22_c?entry=ttu&g_ep=EgoyMDI1MDgwNC4wIKXMDSoASAFQAw%3D%3D"
  },
  {
    "name": "Hazrat Syed Shah Ishaq Sanaullah Quadri RA, Roza Dargah",
    "lat": 15.8439737,
    "lng": 78.0382878,
    "url": "https://www.google.com/maps/place/Hazrat+Syed+Shah+Ishaq+Sanaullah+Quadri+RA,+Roza+Dargah/@15.8439737,78.0382878,17z/data=!3m1!4b1!4m6!3m5!1s0x3bb5e74159bcf7f9:0xc01089e940e1464a!8m2!3d15.8439737!4d78.0382878!16s%2Fg%2F11g6q32hkw?entry=ttu&g_ep=EgoyMDI1MDgwMy4wIKXMDSoASAFQAw%3D%3D"
  },
  {
    "name": "Tomb of Mubarak Shah Sayyid (Badi Gumbad)",
    "lat": 28.5727543,
    "lng": 77.2229819,
    "url": "https://www.google.com/maps/place/Tomb+of+Mubarak+Shah+Sayyid+(Badi+Gumbad)/@28.5727543,77.2229819,17z/data=!3m1!4b1!4m6!3m5!1s0x390ce25eac394553:0x1748ca34dba935a0!8m2!3d28.5727543!4d77.2229819!16s%2Fg%2F11gczvr02c?entry=ttu&g_ep=EgoyMDI1MDgwMy4wIKXMDSoASAFQAw%3D%3D"
  },
  {
    "name": "",
    "lat": 17.5637109,
    "lng": 75.5701681,
    "url": "https://www.google.com/maps/place/Begambi+Dargah/@17.5637109,75.5701681,17z/data=!3m1!4b1!4m6!3m5!1s0x3bc42932bec6dfbb:0x560bd0b0128c0a90!8m2!3d17.5637109!4d75.5701681!16s%2Fg%2F11grqq4mkj?entry=ttu&g_ep=EgoyMDI1MDgwMy4wIKXMDSoASAFQAw%3D%3D"
  },
  {
    "name": "Maqbara Mandvi",
    "lat": 22.4954441,
    "lng": 73.5119499,
    "url": "https://www.google.com/maps/place/Maqbara+Mandvi/@22.4954441,73.5119499,17z/data=!3m1!4b1!4m6!3m5!1s0x39607fcaaa05f8e5:0xbbfe3537a86a8a5c!8m2!3d22.4954441!4d73.5119499!16s%2Fg%2F11gdkxxc7k?entry=ttu&g_ep=EgoyMDI1MDgwMy4wIKXMDSoASAFQAw%3D%3D"
  },
  {
    "name": "Bahamani era masjid",
    "lat": 20.7045779,
    "lng": 76.7425429,
    "url": "https://www.google.com/maps/place/Bahamani+era+masjid/@20.7045779,76.7425429,17z/data=!3m1!4b1!4m6!3m5!1s0x3bd7497130abaebd:0xa3814b590b85bb86!8m2!3d20.7045779!4d76.7425429!16s%2Fg%2F11tslnt3dw?entry=ttu&g_ep=EgoyMDI1MDgwMy4wIKXMDSoASAFQAw%3D%3D"
  },
  {
    "name": "Sultan Ali Mausoleum",
    "lat": 42.325993,
    "lng": 59.1460508,
    "url": "https://www.google.com/maps/place/Sultan+Ali+Mausoleum/@42.325993,59.1460508,17z/data=!3m1!4b1!4m6!3m5!1s0x41ddad12648b67d9:0x9a489a93f01012d9!8m2!3d42.325993!4d59.1460508!16s%2Fg%2F11_rm047v?entry=ttu&g_ep=EgoyMDI1MDgwNC4wIKXMDSoASAFQAw%3D%3D"
  },
  {
    "name": "Taj Mahal",
    "lat": 27.1751448,
    "lng": 78.0421422,
    "url": "https://www.google.com/maps/place/Taj+Mahal/@27.1751448,78.0421422,17z/data=!3m1!4b1!4m6!3m5!1s0x39747121d702ff6d:0xdd2ae4803f767dde!8m2!3d27.1751448!4d78.0421422!16zL20vMGw4Y2I?entry=ttu&g_ep=EgoyMDI1MDgwMy4wIKXMDSoASAFQAw%3D%3D"
  },
  {
    "name": "Daulaat Lodhi Mukbara",
    "lat": 21.3271131,
    "lng": 76.2252676,
    "url": "https://www.google.com/maps/place/Daulaat+Lodhi+Mukbara/@21.3271131,76.2252676,17z/data=!3m1!4b1!4m6!3m5!1s0x3bd833137fc853c5:0xdba7857ad25e4d66!8m2!3d21.3271131!4d76.2252676!16s%2Fg%2F11q3m_mv8y?entry=ttu&g_ep=EgoyMDI1MDgwMy4wIKXMDSoASAFQAw%3D%3D"
  },
  {
    "name": "Ancient Gumbad",
    "lat": 28.1524441,
    "lng": 77.3205498,
    "url": "https://www.google.com/maps/place/Ancient+Gumbad/@28.1524441,77.3205498,17z/data=!3m1!4b1!4m6!3m5!1s0x390cd3dfed9ce64f:0x5f6136dd5231d19e!8m2!3d28.1524441!4d77.3205498!16s%2Fg%2F11v3r8_mlc?entry=ttu&g_ep=EgoyMDI1MDgwMy4wIKXMDSoASAFQAw%3D%3D"
  },
  {
    "name": "Tomb of Bhura Khan",
    "lat": 28.5723239,
    "lng": 77.2208368,
    "url": "https://www.google.com/maps/place/Tomb+of+Bhura+Khan/@28.5723239,77.2208368,17z/data=!3m1!4b1!4m6!3m5!1s0x390ce3c5b7121c83:0x72cf7491e85e7109!8m2!3d28.5723239!4d77.2208368!16s%2Fg%2F11h_2fnq5s?entry=ttu&g_ep=EgoyMDI1MDgwMy4wIKXMDSoASAFQAw%3D%3D"
  },
  {
    "name": "Ancient Temple, Dharul",
    "lat": 21.1731261,
    "lng": 77.0536218,
    "url": "https://www.google.com/maps/place/Ancient+Temple,+Dharul/@21.1731261,77.0536218,17z/data=!3m1!4b1!4m6!3m5!1s0x3bd70529aa6d24e7:0xf858738dc11b2e48!8m2!3d21.1731261!4d77.0536218!16s%2Fg%2F11dfh1wjrc?entry=ttu&g_ep=EgoyMDI1MDgwMy4wIKXMDSoASAFQAw%3D%3D"
  },
  {
    "name": "Ancient Maqbara - Bar",
    "lat": 24.8646145,
    "lng": 78.5802795,
    "url": "https://www.google.com/maps/place/Ancient+Maqbara+-+Bar/@24.8646145,78.5802795,17z/data=!3m1!4b1!4m6!3m5!1s0x3979ca1042b434a9:0x7474d6b3fd400352!8m2!3d24.8646145!4d78.5802795!16s%2Fg%2F11g6rlkx1j?entry=ttu&g_ep=EgoyMDI1MDgwMy4wIKXMDSoASAFQAw%3D%3D"
  },
  {
    "name": "The Red Taj",
    "lat": 27.2091521,
    "lng": 78.0050027,
    "url": "https://www.google.com/maps/place/The+Red+Taj/@27.2091521,78.0050027,17z/data=!3m1!4b1!4m6!3m5!1s0x3974775b213f8de9:0xb6a06d268f95bf4b!8m2!3d27.2091521!4d78.0050027!16s%2Fg%2F11bv2lbxfv?entry=ttu&g_ep=EgoyMDI1MDgwMy4wIKXMDSoASAFQAw%3D%3D"
  },
  {
    "name": "Sheikh Chilli Tomb",
    "lat": 29.976698,
    "lng": 76.8281101,
    "url": "https://www.google.com/maps/place/Sheikh+Chilli+Tomb/@29.976698,76.8281101,17z/data=!3m1!4b1!4m6!3m5!1s0x390e4701deaf1a87:0xba52437e014c2ea5!8m2!3d29.976698!4d76.8281101!16s%2Fm%2F0nd4rm5?entry=ttu&g_ep=EgoyMDI1MDgwMy4wIKXMDSoASAFQAw%3D%3D"
  },
  {
    "name": "Tomb Of Nadir Shah",
    "lat": 21.3200816,
    "lng": 76.2474407,
    "url": "https://www.google.com/maps/place/Tomb+Of+Nadir+Shah/@21.3200816,76.2474407,17z/data=!3m1!4b1!4m6!3m5!1s0x3bd832ed310bcec1:0x830aa4da7ad7de3c!8m2!3d21.3200816!4d76.2474407!16s%2Fg%2F11cs5py8nw?entry=ttu&g_ep=EgoyMDI1MDgwMy4wIKXMDSoASAFQAw%3D%3D"
  },
  {
    "name": "Shah Ibrahim Shahid Masjid And Tomb",
    "lat": 23.0102704,
    "lng": 72.5924819,
    "url": "https://www.google.com/maps/place/Shah+Ibrahim+Shahid+Masjid+And+Tomb/@23.0102704,72.5924819,17z/data=!3m1!4b1!4m6!3m5!1s0x395e85c9cc2c1f39:0x9b87e14ecc41907!8m2!3d23.0102704!4d72.5924819!16s%2Fg%2F11cl_53l43?entry=ttu&g_ep=EgoyMDI1MDgwNC4wIKXMDSoASAFQAw%3D%3D"
  },
  {
    "name": "Sikandra Fort",
    "lat": 27.2210058,
    "lng": 77.9504244,
    "url": "https://www.google.com/maps/place/Sikandra+Fort/@27.2210058,77.9504244,17z/data=!3m1!4b1!4m6!3m5!1s0x39747818adf8191d:0xd2f1b5d6d032ba2!8m2!3d27.2210058!4d77.9504244!16s%2Fg%2F11hb603_ng?entry=ttu&g_ep=EgoyMDI1MDgwMy4wIKXMDSoASAFQAw%3D%3D"
  },
  {
    "name": "Khamosh Shah Baba Dargah",
    "lat": 26.1706744,
    "lng": 79.9642558,
    "url": "https://www.google.com/maps/place/Khamosh+Shah+Baba+Dargah/@26.1706744,79.9642558,17z/data=!3m1!4b1!4m6!3m5!1s0x399daf2965eed96b:0x481eb1f4c8e9b650!8m2!3d26.1706744!4d79.9642558!16s%2Fg%2F11c55wnpw6?entry=ttu&g_ep=EgoyMDI1MDgwMy4wIKXMDSoASAFQAw%3D%3D"
  },
  {
    "name": "Tomb of Tansen",
    "lat": 26.2315334,
    "lng": 78.179128,
    "url": "https://www.google.com/maps/place/Tomb+of+Tansen/@26.2315334,78.179128,17z/data=!3m1!4b1!4m6!3m5!1s0x3976c695f53376ad:0xe42f492cf7cd20ac!8m2!3d26.2315334!4d78.179128!16s%2Fg%2F11cr_ghmd8?entry=ttu&g_ep=EgoyMDI1MDgwMy4wIKXMDSoASAFQAw%3D%3D"
  },
  {
    "name": "Peer Pahar \u092a\u0940\u0930 \u092a\u0939\u093e\u095c",
    "lat": 25.3781116,
    "lng": 86.5104368,
    "url": "https://www.google.com/maps/place/Pir+Pahar/@25.3781116,86.5104368,17z/data=!3m1!4b1!4m6!3m5!1s0x39f1e9caafae4efd:0xcbc3a4e8c11274eb!8m2!3d25.3781116!4d86.5104368!16s%2Fg%2F11gjrccbrz?entry=ttu&g_ep=EgoyMDI1MDgwMy4wIKXMDSoASAFQAw%3D%3D"
  },
  {
    "name": "Dargah Hazratbal Shrine",
    "lat": 34.1288866,
    "lng": 74.8424915,
    "url": "https://www.google.com/maps/place/Dargah+Hazratbal+Shrine/@34.1288866,74.8424915,17z/data=!3m1!4b1!4m6!3m5!1s0x38e185bc7a3fbbd9:0x9b6cf66822475e36!8m2!3d34.1288866!4d74.8424915!16zL20vMGM2bnpz?entry=ttu&g_ep=EgoyMDI1MDgwMy4wIKXMDSoASAFQAw%3D%3D"
  },
  {
    "name": "Bade Khan Ka Gumbad",
    "lat": 28.5731113,
    "lng": 77.2201489,
    "url": "https://www.google.com/maps/place/Bade+Khan+Ka+Gumbad/@28.5731113,77.2201489,17z/data=!3m1!4b1!4m6!3m5!1s0x390ce25e6166a8f7:0x91071dfdb364688f!8m2!3d28.5731113!4d77.2201489!16s%2Fg%2F11cjp8r5k3?entry=ttu&g_ep=EgoyMDI1MDgwMy4wIKXMDSoASAFQAw%3D%3D"
  },
  {
    "name": "\u0930\u094b\u091c\u093c\u093e",
    "lat": 44.2423649,
    "lng": -119.8093025,
    "url": "https://www.google.com/maps/place//@44.2423649,-119.8093025,3z/data=!3m1!4b1?entry=ttu&g_ep=EgoyMDI1MDgwMy4wIKXMDSoASAFQAw%3D%3D"
  },
  {
    "name": "Safdarjung Tomb",
    "lat": 28.5894156,
    "lng": 77.2106219,
    "url": "https://www.google.com/maps/place/Safdarjung+Tomb,+Delhi/@28.5894156,77.2106219,17z/data=!3m1!4b1!4m6!3m5!1s0x390ce291e9cdc555:0xcd09511bfd9337ec!8m2!3d28.5894156!4d77.2106219!16s%2Fm%2F02q8l_h?entry=ttu&g_ep=EgoyMDI1MDgwMy4wIKXMDSoASAFQAw%3D%3D"
  },
  {
    "name": "Habsh khan tomb",
    "lat": 44.2423649,
    "lng": -119.8093025,
    "url": "https://www.google.com/maps/place//@44.2423649,-119.8093025,3z/data=!3m1!4b1?entry=ttu&g_ep=EgoyMDI1MDgwMy4wIKXMDSoASAFQAw%3D%3D"
  },
  {
    "name": "",
    "lat": 23.0143038,
    "lng": 72.6148076,
    "url": "https://www.google.com/maps/place/Bibi's+Tomb+Gomtipur/@23.0143038,72.6148076,17z/data=!3m1!4b1!4m6!3m5!1s0x395e85d61ed884b9:0x3017eddd2ab68aae!8m2!3d23.0143038!4d72.6148076!16s%2Fg%2F11c0xnlrqn?entry=ttu&g_ep=EgoyMDI1MDgwMy4wIKXMDSoASAFQAw%3D%3D"
  },
  {
    "name": "Bhadurshah Shah ka Makbara",
    "lat": 27.8833718,
    "lng": 79.912405,
    "url": "https://www.google.com/maps/place/Bhadurshah+Shah+ka+Makbara/@27.8833718,79.912405,17z/data=!3m1!4b1!4m6!3m5!1s0x399fbd044249b027:0x6d158e4d3233d13c!8m2!3d27.8833718!4d79.912405!16s%2Fg%2F11gxzkm92m?entry=ttu&g_ep=EgoyMDI1MDgwMy4wIKXMDSoASAFQAw%3D%3D"
  },
  {
    "name": "Tomb of Tilangani",
    "lat": 28.5912177,
    "lng": 77.2420431,
    "url": "https://www.google.com/maps/place/Tomb+of+Tilangani/@28.5912177,77.2420431,17z/data=!3m1!4b1!4m6!3m5!1s0x390ce31d34681657:0x297dc3e9232dfe28!8m2!3d28.5912177!4d77.2420431!16s%2Fg%2F11f659qkd9?entry=ttu&g_ep=EgoyMDI1MDgwMy4wIKXMDSoASAFQAw%3D%3D"
  },
  {
    "name": "Sikandar Lodi Tomb",
    "lat": 28.596284,
    "lng": 77.221555,
    "url": "https://www.google.com/maps/place/Sikandar+Lodhi+Tomb/@28.596284,77.221555,17z/data=!3m1!4b1!4m6!3m5!1s0x390ce2eb96f1b5f3:0x893c9bc7d45cc7a1!8m2!3d28.596284!4d77.221555!16s%2Fg%2F11bwpyhnjr?entry=ttu&g_ep=EgoyMDI1MDgwMy4wIKXMDSoASAFQAw%3D%3D"
  },
  {
    "name": "Kulsum Begum\u2019s Tomb",
    "lat": 17.3943086,
    "lng": 78.3944159,
    "url": "https://www.google.com/maps/place/Kulsum+Begum%E2%80%99s+Tomb/@17.3943086,78.3944159,17z/data=!3m1!4b1!4m6!3m5!1s0x3bcb9720dc56793b:0xd05db569eacb4c27!8m2!3d17.3943086!4d78.3944159!16s%2Fg%2F11svdtcgs7?entry=ttu&g_ep=EgoyMDI1MDgwMy4wIKXMDSoASAFQAw%3D%3D"
  },
  {
    "name": "Bara Lao Ka Gumbad",
    "lat": 28.5590207,
    "lng": 77.1653928,
    "url": "https://www.google.com/maps/place/Bara+Lao+Ka+Gumbad,+Delhi/@28.5590207,77.1653928,17z/data=!3m1!4b1!4m6!3m5!1s0x390d1da1b6bfd357:0x82c2c11d77fbf254!8m2!3d28.5590207!4d77.1653928!16s%2Fg%2F11t7lp4r9j?entry=ttu&g_ep=EgoyMDI1MDgwMy4wIKXMDSoASAFQAw%3D%3D"
  },
  {
    "name": "Black Tajmahal Burhanpur",
    "lat": 21.3282904,
    "lng": 76.2431578,
    "url": "https://www.google.com/maps/place/Black+Tajmahal+Burhanpur/@21.3282904,76.2431578,17z/data=!3m1!4b1!4m6!3m5!1s0x3bd832f411e2b6b5:0x19703a2d37afec3e!8m2!3d21.3282904!4d76.2431578!16s%2Fg%2F11d_1sprq1?entry=ttu&g_ep=EgoyMDI1MDgwMy4wIKXMDSoASAFQAw%3D%3D"
  },
  {
    "name": "PEER MUHAMMAD HANIF DARGAH",
    "lat": 27.5942735,
    "lng": 82.0728184,
    "url": "https://www.google.com/maps/place/Syed+PEER+MUHAMMAD+HANIF+DARGAH+(R.A).+balrampur(u.p)/@27.5942735,82.0728184,17z/data=!3m1!4b1!4m6!3m5!1s0x3999d162bfa605df:0xc7a8eb2e3b7104a0!8m2!3d27.5942735!4d82.0728184!16s%2Fg%2F11fk9n0x5w?entry=ttu&g_ep=EgoyMDI1MDgwMy4wIKXMDSoASAFQAw%3D%3D"
  },
  {
    "name": "Tomb of Mohd Quli Khan",
    "lat": 28.5225116,
    "lng": 77.1869856,
    "url": "https://www.google.com/maps/place/Quli+Tomb/@28.5225116,77.1869856,16z/data=!3m1!4b1!4m6!3m5!1s0x390d1e0421848257:0x8363cec7855bda5f!8m2!3d28.5225116!4d77.1869856!16s%2Fg%2F12625n4d4?entry=ttu&g_ep=EgoyMDI1MDgwNC4wIKXMDSoASAFQAw%3D%3D"
  },
  {
    "name": "",
    "lat": 44.2423649,
    "lng": -119.8093025,
    "url": "https://www.google.com/maps/place//@44.2423649,-119.8093025,3z/data=!3m1!4b1?entry=ttu&g_ep=EgoyMDI1MDgwMy4wIKXMDSoASAFQAw%3D%3D"
  },
  {
    "name": "\u0938\u092f\u094d\u092f\u0926 \u0916\u0932\u0940\u0932 \u0936\u093e\u0939 \u0910\u0930\u091a\u0940 (\u092e\u0941\u0915\u0930\u092c\u093e \u0936\u0930\u0940\u092b )",
    "lat": 25.7898097,
    "lng": 79.0937338,
    "url": "https://www.google.com/maps/place/%E0%A4%B8%E0%A4%AF%E0%A5%8D%E0%A4%AF%E0%A4%A6+%E0%A4%96%E0%A4%B2%E0%A5%80%E0%A4%B2+%E0%A4%B6%E0%A4%BE%E0%A4%B9+%E0%A4%90%E0%A4%B0%E0%A4%9A%E0%A5%80+(%E0%A4%AE%E0%A5%81%E0%A4%95%E0%A4%B0%E0%A4%AC%E0%A4%BE+%E0%A4%B6%E0%A4%B0%E0%A5%80%E0%A4%AB+)/@25.7898097,79.0937338,17z/data=!3m1!4b1!4m6!3m5!1s0x3977c7fed5d58c37:0x541e18da707f957f!8m2!3d25.7898097!4d79.0937338!16s%2Fg%2F11lg2w8qvk?entry=ttu&g_ep=EgoyMDI1MDgwMy4wIKXMDSoASAFQAw%3D%3D"
  },
  {
    "name": "Dargah Sharif Baba Bhikari Badshah",
    "lat": 26.8683971,
    "lng": 80.7863862,
    "url": "https://www.google.com/maps/place/Dargah+Sharif+Baba+Bhikari+Badshah/@26.8683971,80.7863862,17z/data=!3m1!4b1!4m6!3m5!1s0x399c0021b92bfbb1:0xdb41fb68c3b2cf87!8m2!3d26.8683971!4d80.7863862!16s%2Fg%2F11fxy33h2_?entry=ttu&g_ep=EgoyMDI1MDgwNC4wIKXMDSoASAFQAw%3D%3D"
  },
  {
    "name": "Group of four chhatris",
    "lat": 25.3407648,
    "lng": 78.634419,
    "url": "https://www.google.com/maps/place/Group+of+four+chhatris/@25.3407648,78.634419,17z/data=!3m1!4b1!4m6!3m5!1s0x397779534694f9c5:0x579cc5a721a354f8!8m2!3d25.3407648!4d78.634419!16s%2Fg%2F11s9x6v26r?entry=ttu&g_ep=EgoyMDI1MDgwMy4wIKXMDSoASAFQAw%3D%3D"
  },
  {
    "name": "Dargah Hazrat Khawaja Sufi Muhammad Shamsuddin shah Hasani",
    "lat": 28.2703005,
    "lng": 79.1535974,
    "url": "https://www.google.com/maps/place/Dargah+Hazrat+Khawaja+Sufi+Muhammad+Shamsuddin+shah+Hasani/@28.2703005,79.1535974,17z/data=!3m1!4b1!4m6!3m5!1s0x390ab347515b5833:0xbb7b8ef713a123d7!8m2!3d28.2703005!4d79.1535974!16s%2Fg%2F11j7g07q_b?entry=ttu&g_ep=EgoyMDI1MDgwMy4wIKXMDSoASAFQAw%3D%3D"
  },
  {
    "name": "Hazart Shah Husain badsha dargah shareef",
    "lat": 17.4542636,
    "lng": 77.1039471,
    "url": "https://www.google.com/maps/place/Hazart+Shah+Husain+badsha+dargah+shareef/@17.4542636,77.1039471,17z/data=!3m1!4b1!4m6!3m5!1s0x3bc8d77c42c113dd:0xe52b245038afbb46!8m2!3d17.4542636!4d77.1039471!16s%2Fg%2F11h_c6qk87?entry=ttu&g_ep=EgoyMDI1MDgwMy4wIKXMDSoASAFQAw%3D%3D"
  },
  {
    "name": "Tomb of Bibi Maryam",
    "lat": 23.6319088,
    "lng": 90.5110993,
    "url": "https://www.google.com/maps/place/Tomb+of+Bibi+Maryam/@23.6319088,90.5110993,17z/data=!3m1!4b1!4m6!3m5!1s0x3755b16dfbc4fee9:0x1009fdef07120062!8m2!3d23.6319088!4d90.5110993!16s%2Fg%2F11gfb36bgk?entry=ttu&g_ep=EgoyMDI1MDgwMy4wIKXMDSoASAFQAw%3D%3D"
  },
  {
    "name": "Bara khamba (Shamir Khan Tomb)",
    "lat": 26.9154168,
    "lng": 80.7022495,
    "url": "https://www.google.com/maps/place/Bara+khamba+(Shamir+Khan+Tomb)/@26.9154168,80.7022495,17z/data=!3m1!4b1!4m6!3m5!1s0x399ea9d53e856937:0xedbd1faa66539758!8m2!3d26.9154168!4d80.7022495!16s%2Fg%2F11pttpfzpt?entry=ttu&g_ep=EgoyMDI1MDgwMy4wIKXMDSoASAFQAw%3D%3D"
  },
  {
    "name": "",
    "lat": 27.2077529,
    "lng": 78.0009911,
    "url": "https://www.google.com/maps/place/Jhun+Jhun+Katora,+Pashupati+Colony,+Khandari,+Agra,+Uttar+Pradesh+282002,+India/@27.2077529,78.0009911,17z/data=!3m1!4b1!4m6!3m5!1s0x3974775cb5649965:0xb8447869e0aced5f!8m2!3d27.2077338!4d78.0010753!16s%2Fg%2F11b6bpy690?entry=ttu&g_ep=EgoyMDI1MDgwMy4wIKXMDSoASAFQAw%3D%3D"
  },
  {
    "name": "Tomb of Sheikh Musa",
    "lat": 27.1129808,
    "lng": 77.6645888,
    "url": "https://www.google.com/maps/place/%D9%85%D9%82%D8%A8%D8%B1%DB%81+%D8%B4%DB%8C%D8%AE+%D9%85%D9%88%D8%B3%DB%8C%D9%B0%E2%80%AD/@27.1129808,77.6645888,17z/data=!3m1!4b1!4m6!3m5!1s0x3973914f674592db:0x5e27bcfdb28c45aa!8m2!3d27.1129808!4d77.6645888!16s%2Fg%2F11c5srkxnb?entry=ttu&g_ep=EgoyMDI1MDgwMy4wIKXMDSoASAFQAw%3D%3D"
  },
  {
    "name": "Chini Ka Roza",
    "lat": 27.2008492,
    "lng": 78.0342606,
    "url": "https://www.google.com/maps/place/Chini+Ka+Rauza/@27.2008492,78.0342606,17z/data=!3m1!4b1!4m6!3m5!1s0x397470b8f1c17121:0x6ff9b6530f90bc39!8m2!3d27.2008492!4d78.0342606!16s%2Fm%2F04f2mzm?entry=ttu&g_ep=EgoyMDI1MDgwMy4wIKXMDSoASAFQAw%3D%3D"
  },
  {
    "name": "Tomb of Fateh Khan - Malda District, West Bengal, India",
    "lat": 44.2423649,
    "lng": -119.8093025,
    "url": "https://www.google.com/maps/place//@44.2423649,-119.8093025,3z/data=!3m1!4b1?entry=ttu&g_ep=EgoyMDI1MDgwMy4wIKXMDSoASAFQAw%3D%3D"
  },
  {
    "name": "Sakri Gumti, Delhi",
    "lat": 28.5532359,
    "lng": 77.2018806,
    "url": "https://www.google.com/maps/place/Sakri+Gumti/@28.5532359,77.2018806,17z/data=!3m1!4b1!4m6!3m5!1s0x390ce27335063ec5:0xa6d8b061be5cd01b!8m2!3d28.5532359!4d77.2018806!16s%2Fg%2F11clhqjy07?entry=ttu&g_ep=EgoyMDI1MDgwMy4wIKXMDSoASAFQAw%3D%3D"
  },
  {
    "name": "Tomb of Ahmad Saeed Kazmi",
    "lat": 30.2102661,
    "lng": 71.4782506,
    "url": "https://www.google.com/maps/place/Tomb+of+Allama+Syed+Ahmad+Saeed+Kazmi/@30.2102661,71.4782506,17z/data=!3m1!4b1!4m6!3m5!1s0x393b3409c36e861f:0x57ed935a4c3ed893!8m2!3d30.2102661!4d71.4782506!16s%2Fg%2F11xr12f32?entry=ttu&g_ep=EgoyMDI1MDgwMy4wIKXMDSoASAFQAw%3D%3D"
  },
  {
    "name": "Aalam Shahi Dargah",
    "lat": 44.2423649,
    "lng": -119.8093025,
    "url": "https://www.google.com/maps/place//@44.2423649,-119.8093025,3z/data=!3m1!4b1?entry=ttu&g_ep=EgoyMDI1MDgwMy4wIKXMDSoASAFQAw%3D%3D"
  },
  {
    "name": "Ahmedshah Badshah's Tomb",
    "lat": 23.0238079,
    "lng": 72.587949,
    "url": "https://www.google.com/maps/place/Ahmedshah+Badshah's+Tomb+(4+Ahmed)/@23.0238079,72.587949,17z/data=!3m1!4b1!4m6!3m5!1s0x395e844bd6ddd15b:0x2fb6557b75aa9bbe!8m2!3d23.0238079!4d72.587949!16s%2Fm%2F012fx84m?entry=ttu&g_ep=EgoyMDI1MDgwMy4wIKXMDSoASAFQAw%3D%3D"
  },
  {
    "name": "Hazrat Shah Wajihuddin Gujarati R.A. Dargah",
    "lat": 23.0284021,
    "lng": 72.5786528,
    "url": "https://www.google.com/maps/place/Hazrat+Shah+Wajeehuddeen+Alvi+Gujarati+Dargah/@23.0284021,72.5786528,17z/data=!3m1!4b1!4m6!3m5!1s0x395e8559aa46fe0b:0x44fb4b5f864ae389!8m2!3d23.0284021!4d72.5786528!16s%2Fg%2F11j_w7tn42?entry=ttu&g_ep=EgoyMDI1MDgwMy4wIKXMDSoASAFQAw%3D%3D"
  },
  {
    "name": "Hazrat Syed Shah Zia Uddin Rafai",
    "lat": 18.5480569,
    "lng": 77.5859441,
    "url": "https://www.google.com/maps/place/Hazrat+Syed+Shah+Zia+Uddin+Rafai/@18.5480569,77.5859441,17z/data=!3m1!4b1!4m6!3m5!1s0x3bce67a2be7f4d99:0xfb7b93886711e033!8m2!3d18.5480569!4d77.5859441!16s%2Fg%2F11b6np0tgx?entry=ttu&g_ep=EgoyMDI1MDgwNC4wIKXMDSoASAFQAw%3D%3D"
  },
  {
    "name": "Mini Golgumbaz",
    "lat": 16.8346571,
    "lng": 75.7684749,
    "url": "https://www.google.com/maps/place/Mini+Golgumbaz/@16.8346571,75.7684749,17z/data=!3m1!4b1!4m6!3m5!1s0x3bc655efb51665dd:0x91b463f0b911bfeb!8m2!3d16.8346571!4d75.7684749!16s%2Fg%2F11gjtbbtkt?entry=ttu&g_ep=EgoyMDI1MDgwMy4wIKXMDSoASAFQAw%3D%3D"
  },
  {
    "name": "Maqbara Khair un Nisa",
    "lat": 32.9778285,
    "lng": 73.5808776,
    "url": "https://www.google.com/maps/place/Maqbara+Khair+un+Nisa/@32.9778285,73.5808776,17z/data=!3m1!4b1!4m6!3m5!1s0x391f8c179a76a0c3:0x4dcea4d58a53b08d!8m2!3d32.9778285!4d73.5808776!16s%2Fg%2F11fy5ffq16?entry=ttu&g_ep=EgoyMDI1MDgwMy4wIKXMDSoASAFQAw%3D%3D"
  },
  {
    "name": "Tomb Hazrat Hafiz Jamal Ullah Multani",
    "lat": 30.195432,
    "lng": 71.4853014,
    "url": "https://www.google.com/maps/place/Tomb+Hazrat+Hafiz+Jamal+Ullah+Multani+R.A/@30.195432,71.4853014,17z/data=!3m1!4b1!4m6!3m5!1s0x393b36a9c4922d2d:0x790d5ea8451cf4f2!8m2!3d30.195432!4d71.4853014!16s%2Fg%2F11yjq8t8l?entry=ttu&g_ep=EgoyMDI1MDgwMy4wIKXMDSoASAFQAw%3D%3D"
  },
  {
    "name": "Azim Khan Tomb",
    "lat": 44.2423649,
    "lng": -119.8093025,
    "url": "https://www.google.com/maps/place//@44.2423649,-119.8093025,3z/data=!3m1!4b1?entry=ttu&g_ep=EgoyMDI1MDgwMy4wIKXMDSoASAFQAw%3D%3D"
  },
  {
    "name": "Jafrabad fort",
    "lat": 20.866928,
    "lng": 71.365083,
    "url": "https://www.google.com/maps/place/Jafrabad+fort/@20.866928,71.365083,17z/data=!3m1!4b1!4m6!3m5!1s0x3be25339ba653601:0x437d45f0e0e72274!8m2!3d20.866928!4d71.365083!16s%2Fg%2F11fmz9krcl?entry=ttu&g_ep=EgoyMDI1MDgwMy4wIKXMDSoASAFQAw%3D%3D"
  },
  {
    "name": "Behram khan's Makbara",
    "lat": 23.8666253,
    "lng": 72.0965666,
    "url": "https://www.google.com/maps/place/Bairam+khan's+Makbara/@23.8666253,72.0965666,17z/data=!3m1!4b1!4m6!3m5!1s0x395c87a705cea517:0x423ad0da08569cac!8m2!3d23.8666253!4d72.0965666!16s%2Fg%2F11c20bwl_y?entry=ttu&g_ep=EgoyMDI1MDgwMy4wIKXMDSoASAFQAw%3D%3D"
  },
  {
    "name": "Lodhi Era Tomb",
    "lat": 28.562695,
    "lng": 77.17508,
    "url": "https://www.google.com/maps/place/Lodhi+Era+Tomb,+Delhi/@28.562695,77.17508,17z/data=!3m1!4b1!4m6!3m5!1s0x390d1d99cfc70d75:0xac248578b4fb17c8!8m2!3d28.562695!4d77.17508!16s%2Fg%2F119wvghsv?entry=ttu&g_ep=EgoyMDI1MDgwMy4wIKXMDSoASAFQAw%3D%3D"
  },
  {
    "name": "60 Graves monument, Afzal Khan's 60 wives' graves",
    "lat": 16.8339206,
    "lng": 75.6760282,
    "url": "https://www.google.com/maps/place/Sath+Kabar,+tombs+of+Afzal+Khan's+63+wives/@16.8339206,75.6760282,17z/data=!3m1!4b1!4m6!3m5!1s0x3bc6ff068a7d21d3:0x20c2c021ebbc9873!8m2!3d16.8339206!4d75.6760282!16s%2Fg%2F11dym2kxhc?entry=ttu&g_ep=EgoyMDI1MDgwMy4wIKXMDSoASAFQAw%3D%3D"
  },
  {
    "name": "Black Taj (Tomb Of Shah Nawaz Khan)",
    "lat": 44.2423649,
    "lng": -119.8093025,
    "url": "https://www.google.com/maps/place//@44.2423649,-119.8093025,3z/data=!3m1!4b1?entry=ttu&g_ep=EgoyMDI1MDgwMy4wIKXMDSoASAFQAw%3D%3D"
  },
  {
    "name": "Tomb of Nawab Rashid Khan",
    "lat": 27.5638034,
    "lng": 79.357923,
    "url": "https://www.google.com/maps/place/Tomb+of+Nawab+Rashid+Khan/@27.5638034,79.357923,17z/data=!3m1!4b1!4m6!3m5!1s0x39757e3562209345:0x73d79f1c594177c0!8m2!3d27.5638034!4d79.357923!16s%2Fg%2F11fzb0s86c?entry=ttu&g_ep=EgoyMDI1MDgwMy4wIKXMDSoASAFQAw%3D%3D"
  },
  {
    "name": "Sunderwala Burj",
    "lat": 28.596109,
    "lng": 77.2453773,
    "url": "https://www.google.com/maps/place/Sunderwala+Burj,+Bharat+Scouts+and+Guides+Marg,+Nizamuddin,+National+Zoological+Park,+Sundar+Nagar,+New+Delhi,+Delhi+110013,+India/@28.596109,77.2453773,17z/data=!3m1!4b1!4m6!3m5!1s0x390ce31c131cc669:0xdb93f600bd472df8!8m2!3d28.5961822!4d77.245275!16s%2Fg%2F11b8tdftvr?entry=ttu&g_ep=EgoyMDI1MDgwMy4wIKXMDSoASAFQAw%3D%3D"
  },
  {
    "name": "Hazrat Ismail Shah Quadri Dargah Sharif",
    "lat": 17.9304606,
    "lng": 77.1008659,
    "url": "https://www.google.com/maps/place/Hazrat+Ismail+Shah+Quadri+Dargah+Sharif/@17.9304606,77.1008659,17z/data=!3m1!4b1!4m6!3m5!1s0x3bcf216240000001:0xd8804a2968da8a64!8m2!3d17.9304606!4d77.1008659!16s%2Fg%2F11b6stqnkc?entry=ttu&g_ep=EgoyMDI1MDgwMy4wIKXMDSoASAFQAw%3D%3D"
  },
  {
    "name": "Shahi Jama Masjid",
    "lat": 44.2423649,
    "lng": -119.8093025,
    "url": "https://www.google.com/maps/place//@44.2423649,-119.8093025,3z/data=!3m1!4b1?entry=ttu&g_ep=EgoyMDI1MDgwMy4wIKXMDSoASAFQAw%3D%3D"
  },
  {
    "name": "",
    "lat": 22.8818257,
    "lng": 72.5440762,
    "url": "https://www.google.com/maps/place/Hazrat+Baqar+Shah+Bawa+Roza/@22.8818257,72.5440762,17z/data=!3m1!4b1!4m6!3m5!1s0x395e8e0cb33b86eb:0x55d59c92c4e494a2!8m2!3d22.8818257!4d72.5440762!16s%2Fg%2F11g022rbgg?entry=ttu&g_ep=EgoyMDI1MDgwMy4wIKXMDSoASAFQAw%3D%3D"
  },
  {
    "name": "Hazrat Imam Badshah Dargah",
    "lat": 21.3604436,
    "lng": 74.2306454,
    "url": "https://www.google.com/maps/place/Hazrat+Imam+Badshah+Dargah/@21.3604436,74.2306454,17z/data=!3m1!4b1!4m6!3m5!1s0x3bdf09c2d9994e3f:0xbe5d3c0afffa6b12!8m2!3d21.3604436!4d74.2306454!16s%2Fg%2F1232fzgsq?entry=ttu&g_ep=EgoyMDI1MDgwNC4wIKXMDSoASAFQAw%3D%3D"
  },
  {
    "name": "Chhote Khan Tomb",
    "lat": 28.57304,
    "lng": 77.220497,
    "url": "https://www.google.com/maps/place/Chhote+Khan+Tomb,+Delhi/@28.57304,77.220497,17z/data=!3m1!4b1!4m6!3m5!1s0x390ce25e899500d7:0x365780acb5c8447b!8m2!3d28.57304!4d77.220497!16s%2Fg%2F11cjhlxc56?entry=ttu&g_ep=EgoyMDI1MDgwMy4wIKXMDSoASAFQAw%3D%3D"
  },
  {
    "name": "DARGAH QASIM SHAH SULEMANI'S SONS",
    "lat": 25.115613,
    "lng": 82.8693292,
    "url": "https://www.google.com/maps/place/DARGAH+QASIM+SHAH+SULEMANI'S+SONS/@25.115613,82.8693292,17z/data=!3m1!4b1!4m6!3m5!1s0x398fcbe40a109d41:0xaa09ca3ab90600c0!8m2!3d25.115613!4d82.8693292!16s%2Fg%2F11rgmbd9rs?entry=ttu&g_ep=EgoyMDI1MDgwMy4wIKXMDSoASAFQAw%3D%3D"
  },
  {
    "name": "Gumbaz-e-Shahi, Srirangapatna",
    "lat": 12.4100205,
    "lng": 76.7138937,
    "url": "https://www.google.com/maps/place/Gumbaz-e-Shahi+-+Srirangapattana/@12.4100205,76.7138937,17z/data=!3m1!4b1!4m6!3m5!1s0x3baf76945bc7c3fd:0x469601c15424428e!8m2!3d12.4100205!4d76.7138937!16s%2Fg%2F11b909r410?entry=ttu&g_ep=EgoyMDI1MDgwMy4wIKXMDSoASAFQAw%3D%3D"
  },
  {
    "name": "Samara Peer Dargaah Shareef",
    "lat": 25.3209904,
    "lng": 79.6342563,
    "url": "https://www.google.com/maps/place/Samara+Peer+Dargaah+Shareef/@25.3209904,79.6342563,17z/data=!3m1!4b1!4m6!3m5!1s0x399d4dedba23093d:0x574a9952ead91c25!8m2!3d25.3209904!4d79.6342563!16s%2Fg%2F11h_z7m88k?entry=ttu&g_ep=EgoyMDI1MDgwMy4wIKXMDSoASAFQAw%3D%3D"
  },
  {
    "name": "Kochrab Masjid And Tomb Shaikh Ali Bangali Shattari",
    "lat": 23.0104107,
    "lng": 72.565177,
    "url": "https://www.google.com/maps/place/Kochrab+Masjid+And+Tomb+Shaikh+Ali+Bangali+Shattari/@23.0104107,72.565177,17z/data=!3m1!4b1!4m6!3m5!1s0x395e845675814e45:0x452ab8e7e71463e7!8m2!3d23.0104107!4d72.565177!16s%2Fg%2F1tdqm13p?entry=ttu&g_ep=EgoyMDI1MDgwMy4wIKXMDSoASAFQAw%3D%3D"
  },
  {
    "name": "Hazrat Malik Shah Datar Dargah,Jalore Fort",
    "lat": 25.3275013,
    "lng": 72.6192675,
    "url": "https://www.google.com/maps/place/Hazrat+Malik+Shah+Datar+Dargah,Jalore+Fort/@25.3275013,72.6192675,17z/data=!3m1!4b1!4m6!3m5!1s0x394300d38a0d6ba3:0x2e67d333ffae3eb7!8m2!3d25.3275013!4d72.6192675!16s%2Fg%2F11gdpzwmwr?entry=ttu&g_ep=EgoyMDI1MDgwMy4wIKXMDSoASAFQAw%3D%3D"
  },
  {
    "name": "Tomb of Jahan-ara Begum",
    "lat": 28.591203,
    "lng": 77.2417479,
    "url": "https://www.google.com/maps/place/Tomb+Of+Jahan-ara+Begum+The+Daughter+of+Shahjahan/@28.591203,77.2417479,17z/data=!3m1!4b1!4m6!3m5!1s0x390ce302b4dc2283:0x6ae68ca9422bb189!8m2!3d28.591203!4d77.2417479!16s%2Fg%2F11cm_pxg4v?entry=ttu&g_ep=EgoyMDI1MDgwMy4wIKXMDSoASAFQAw%3D%3D"
  },
  {
    "name": "Tohfe wala Gumbad",
    "lat": 28.5491283,
    "lng": 77.2116629,
    "url": "https://www.google.com/maps/place/Tohfe+wala+Gumbad+(A+Mosque)/@28.5491283,77.2116629,16z/data=!3m1!4b1!4m6!3m5!1s0x390ce21408512db5:0x75ee4181c5c790a0!8m2!3d28.5491283!4d77.2116629!16s%2Fg%2F11dxch4ljt?entry=ttu&g_ep=EgoyMDI1MDgwMy4wIKXMDSoASAFQAw%3D%3D"
  },
  {
    "name": "Tomb Of The Nijam Shah",
    "lat": 19.1010684,
    "lng": 74.7279381,
    "url": "https://www.google.com/maps/place/Tomb+Of+The+Nijam+Shah/@19.1010684,74.7279381,17z/data=!3m1!4b1!4m6!3m5!1s0x3bdcb088ab034ae7:0x931480f942fe22b2!8m2!3d19.1010684!4d74.7279381!16s%2Fg%2F11f2b0kkxk?entry=ttu&g_ep=EgoyMDI1MDgwMy4wIKXMDSoASAFQAw%3D%3D"
  },
  {
    "name": "Jod Gumbaj Tombs",
    "lat": 16.8250671,
    "lng": 75.7123721,
    "url": "https://www.google.com/maps/place/Jod+Gumbaj+Tombs/@16.8250671,75.7123721,17z/data=!3m1!4b1!4m6!3m5!1s0x3bc6ff873edf6c4d:0x41a8c0d0c8c672a0!8m2!3d16.8250671!4d75.7123721!16s%2Fg%2F11bv5vj8w9?entry=ttu&g_ep=EgoyMDI1MDgwNC4wIKXMDSoASAFQAw%3D%3D"
  },
  {
    "name": "Begum Shah Shuja Tomb",
    "lat": 21.3224824,
    "lng": 76.2436414,
    "url": "https://www.google.com/maps/place/Begum+Shah+Shuja+Tomb/@21.3224824,76.2436414,17z/data=!3m1!4b1!4m6!3m5!1s0x3bd832f272a0ebdb:0x43344be5e7a270fa!8m2!3d21.3224824!4d76.2436414!16s%2Fg%2F11b7qdx77t?entry=ttu&g_ep=EgoyMDI1MDgwMy4wIKXMDSoASAFQAw%3D%3D"
  },
  {
    "name": "Katwaria Sarai Gumbad",
    "lat": 28.5428515,
    "lng": 77.1849284,
    "url": "https://www.google.com/maps/place/Gumbad%2FGumat,+Katwaria+Sarai/@28.5428515,77.1849284,17z/data=!3m1!4b1!4m6!3m5!1s0x390d1df1b3346873:0xd88c73a19e44fe4e!8m2!3d28.5428515!4d77.1849284!16s%2Fg%2F11c60fgx2l?entry=ttu&g_ep=EgoyMDI1MDgwNC4wIKXMDSoASAFQAw%3D%3D"
  },
  {
    "name": "Dargah Hazrat Shuhaab Uddin Shah baba",
    "lat": 44.2423649,
    "lng": -119.8093025,
    "url": "https://www.google.com/maps/place//@44.2423649,-119.8093025,3z/data=!3m1!4b1?entry=ttu&g_ep=EgoyMDI1MDgwMy4wIKXMDSoASAFQAw%3D%3D"
  },
  {
    "name": "Tomb of Abul Fazal",
    "lat": 26.0601991,
    "lng": 78.2099461,
    "url": "https://www.google.com/maps/place/Tomb+of+Abul+Fazal/@26.0601991,78.2099461,17z/data=!3m1!4b1!4m6!3m5!1s0x3976dc724863840d:0x8b66d1ae77093829!8m2!3d26.0601991!4d78.2099461!16s%2Fg%2F12607vxzv?entry=ttu&g_ep=EgoyMDI1MDgwMy4wIKXMDSoASAFQAw%3D%3D"
  },
  {
    "name": "Buriya ka taal",
    "lat": 27.2322025,
    "lng": 78.1845079,
    "url": "https://www.google.com/maps/place/BUDHIYA+KA+TAL+(BODHI+TAL)/@27.2322025,78.1845079,17z/data=!3m1!4b1!4m6!3m5!1s0x39746f2026596e01:0xd671e9d224dce503!8m2!3d27.2322025!4d78.1845079!16s%2Fg%2F11rw8yzgt0?entry=ttu&g_ep=EgoyMDI1MDgwMy4wIKXMDSoASAFQAw%3D%3D"
  },
  {
    "name": "Tilaa Shah",
    "lat": 25.755186,
    "lng": 68.994433,
    "url": "https://www.google.com/maps/place/Tilaa+Shah/@25.755186,68.994433,17z/data=!3m1!4b1!4m6!3m5!1s0x3949573173bad81b:0x8b1a4aa7e0ba1f21!8m2!3d25.755186!4d68.994433!16s%2Fg%2F11fyzfk59_?entry=ttu&g_ep=EgoyMDI1MDgwMy4wIKXMDSoASAFQAw%3D%3D"
  },
  {
    "name": "Tomb of Balban",
    "lat": 28.5196782,
    "lng": 77.1888205,
    "url": "https://www.google.com/maps/place/Tomb+of+Balban/@28.5196782,77.1888205,17z/data=!3m1!4b1!4m6!3m5!1s0x390d1e037d0f8123:0x62c6e64e0252de46!8m2!3d28.5196782!4d77.1888205!16s%2Fg%2F1wn32117?entry=ttu&g_ep=EgoyMDI1MDgwMy4wIKXMDSoASAFQAw%3D%3D"
  },
  {
    "name": "Khwaja Gharib Nawaz Dargah",
    "lat": 26.4561669,
    "lng": 74.6282585,
    "url": "https://www.google.com/maps/place/Khwaja+Gharib+Nawaz+Dargah+Sharif/@26.4561669,74.6282585,17z/data=!3m1!4b1!4m6!3m5!1s0x396be710a6295d19:0x17da9f02930d903b!8m2!3d26.4561669!4d74.6282585!16s%2Fm%2F0j3flpf?entry=ttu&g_ep=EgoyMDI1MDgwMy4wIKXMDSoASAFQAw%3D%3D"
  },
  {
    "name": "Bilqis Begum's tomb",
    "lat": 44.2423649,
    "lng": -119.8093025,
    "url": "https://www.google.com/maps/place//@44.2423649,-119.8093025,3z/data=!3m1!4b1?entry=ttu&g_ep=EgoyMDI1MDgwMy4wIKXMDSoASAFQAw%3D%3D"
  },
  {
    "name": "Lakkar Wala Gumbad",
    "lat": 28.5979536,
    "lng": 77.2439701,
    "url": "https://www.google.com/maps/place/Lakkar+Wala+Burj/@28.5979536,77.2439701,17z/data=!3m1!4b1!4m6!3m5!1s0x390ce31e8f862fd1:0x431eb61efe6d51c4!8m2!3d28.5979536!4d77.2439701!16s%2Fg%2F11cm_p3scb?entry=ttu&g_ep=EgoyMDI1MDgwMy4wIKXMDSoASAFQAw%3D%3D"
  },
  {
    "name": "Shah Shams Darbar Multan",
    "lat": 30.2011751,
    "lng": 71.4840812,
    "url": "https://www.google.com/maps/place/Shah+Shams+Darbar+Multan/@30.2011751,71.4840812,17z/data=!3m1!4b1!4m6!3m5!1s0x393b35aefd6b1985:0x64cba5e0b5416cc6!8m2!3d30.2011751!4d71.4840812!16s%2Fg%2F1tgw3d_v?entry=ttu&g_ep=EgoyMDI1MDgwMy4wIKXMDSoASAFQAw%3D%3D"
  },
  {
    "name": "Dariyakhan Ghumat",
    "lat": 23.0525884,
    "lng": 72.5867648,
    "url": "https://www.google.com/maps/place/DariyakhanGhummat/@23.0525884,72.5867648,17z/data=!3m1!4b1!4m6!3m5!1s0x395e846df5e9ef55:0x88361843132e0558!8m2!3d23.0525884!4d72.5867648!16s%2Fm%2F012fzgnb?entry=ttu&g_ep=EgoyMDI1MDgwMy4wIKXMDSoASAFQAw%3D%3D"
  },
  {
    "name": "Khwaja Khizr Tomb",
    "lat": 29.006971,
    "lng": 77.0140757,
    "url": "https://www.google.com/maps/place/Khwaja+Khizr+Tomb/@29.006971,77.0140757,17z/data=!3m1!4b1!4m6!3m5!1s0x390db079a586c8eb:0xb9006dbab49e1cd9!8m2!3d29.006971!4d77.0140757!16s%2Fg%2F11g0kd5872?entry=ttu&g_ep=EgoyMDI1MDgwMy4wIKXMDSoASAFQAw%3D%3D"
  },
  {
    "name": "Dargah Hazrath Syed shah Dawood (RA) Karamungii Dargah",
    "lat": 18.0346713,
    "lng": 77.5866247,
    "url": "https://www.google.com/maps/place/Dargah+Hazrath+Syed+shah+Dawood+(RA)+Karamungii+Dargah/@18.0346713,77.5866247,17z/data=!3m1!4b1!4m6!3m5!1s0x3bce9567bc70f93b:0x972be8a0353095aa!8m2!3d18.0346713!4d77.5866247!16s%2Fg%2F11f01pv8f0?entry=ttu&g_ep=EgoyMDI1MDgwMy4wIKXMDSoASAFQAw%3D%3D"
  },
  {
    "name": "Rumi ka makbara",
    "lat": 23.2023525,
    "lng": 75.767741,
    "url": "https://www.google.com/maps/place/Rumi+ka+makbara/@23.2023525,75.767741,17z/data=!3m1!4b1!4m6!3m5!1s0x396375203c6bfaf5:0xea09b4d6774e3572!8m2!3d23.2023525!4d75.767741!16s%2Fg%2F11txdt9pph?entry=ttu&g_ep=EgoyMDI1MDgwMy4wIKXMDSoASAFQAw%3D%3D"
  },
  {
    "name": "Tomb of Shamsher Khan, Batala",
    "lat": 31.812104,
    "lng": 75.2132317,
    "url": "https://www.google.com/maps/place/Tomb+of+Shamsher+Khan,+Batala/@31.812104,75.2132317,17z/data=!3m1!4b1!4m6!3m5!1s0x391bc3c6a957cd43:0x85c04c3da9c81e08!8m2!3d31.812104!4d75.2132317!16s%2Fg%2F11jg1nsdq7?entry=ttu&g_ep=EgoyMDI1MDgwMy4wIKXMDSoASAFQAw%3D%3D"
  },
  {
    "name": "Gajra ka Maqbara",
    "lat": 26.6991615,
    "lng": 77.8992466,
    "url": "https://www.google.com/maps/place/Gajra+ka+Maqbara/@26.6991615,77.8992466,17z/data=!3m1!4b1!4m6!3m5!1s0x3973ffa7496deb3f:0x70a8a9d965baa67a!8m2!3d26.6991615!4d77.8992466!16s%2Fg%2F11f10f0_nj?entry=ttu&g_ep=EgoyMDI1MDgwMy4wIKXMDSoASAFQAw%3D%3D"
  },
  {
    "name": "Masjid Sohailwali",
    "lat": 44.2423649,
    "lng": -119.8093025,
    "url": "https://www.google.com/maps/place//@44.2423649,-119.8093025,3z/data=!3m1!4b1?entry=ttu&g_ep=EgoyMDI1MDgwNC4wIKXMDSoASAFQAw%3D%3D"
  },
  {
    "name": "Dharma Mahal",
    "lat": 22.3211504,
    "lng": 75.3884229,
    "url": "https://www.google.com/maps/place/Dharma+Mahal/@22.3211504,75.3884229,17z/data=!3m1!4b1!4m6!3m5!1s0x39626b005e337f11:0xb6a143c8153ce3ac!8m2!3d22.3211504!4d75.3884229!16s%2Fg%2F11vt4ntm00?entry=ttu&g_ep=EgoyMDI1MDgwMy4wIKXMDSoASAFQAw%3D%3D"
  },
  {
    "name": "Dargah H. Surkh Abdal R. A.",
    "lat": 44.2423649,
    "lng": -119.8093025,
    "url": "https://www.google.com/maps/place//@44.2423649,-119.8093025,3z/data=!3m1!4b1?entry=ttu&g_ep=EgoyMDI1MDgwMy4wIKXMDSoASAFQAw%3D%3D"
  },
  {
    "name": "Nawab kila Burzi",
    "lat": 25.5931674,
    "lng": 83.5958236,
    "url": "https://www.google.com/maps/place/Nawab+kila+Burzi/@25.5931674,83.5958236,17z/data=!3m1!4b1!4m6!3m5!1s0x399201c77ce925e9:0x31486ff3356eec59!8m2!3d25.5931674!4d83.5958236!16s%2Fg%2F11l9xlpkbz?entry=ttu&g_ep=EgoyMDI1MDgwNC4wIKXMDSoASAFQAw%3D%3D"
  },
  {
    "name": "Rani no Hajiro",
    "lat": 23.0236183,
    "lng": 72.5891344,
    "url": "https://www.google.com/maps/place/Rani+no+Hajiro/@23.0236183,72.5891344,17z/data=!3m1!4b1!4m6!3m5!1s0x395e844a2f31190d:0xa116ee7245e6940f!8m2!3d23.0236183!4d72.5891344!16s%2Fm%2F012krs2c?entry=ttu&g_ep=EgoyMDI1MDgwMy4wIKXMDSoASAFQAw%3D%3D"
  },
  {
    "name": "Chauburgi",
    "lat": 31.5539958,
    "lng": 74.304654,
    "url": "https://www.google.com/maps/place/Chuburji/@31.5539958,74.304654,17z/data=!3m1!4b1!4m6!3m5!1s0x39190393415c6b2f:0xf9a821b0921b74bb!8m2!3d31.5539958!4d74.304654!16s%2Fg%2F11rf6r_sd0?entry=ttu&g_ep=EgoyMDI1MDgwNC4wIKXMDSoASAFQAw%3D%3D"
  },
  {
    "name": "Bu Halima's Tomb",
    "lat": 28.5937443,
    "lng": 77.2467343,
    "url": "https://www.google.com/maps/place/Bu+Halima+Tomb/@28.5937443,77.2467343,17z/data=!3m1!4b1!4m6!3m5!1s0x390ce31b7b2779a5:0xe09676615af2ee4!8m2!3d28.5937443!4d77.2467343!16s%2Fg%2F1td4n1zg?entry=ttu&g_ep=EgoyMDI1MDgwNC4wIKXMDSoASAFQAw%3D%3D"
  },
  {
    "name": "Bu Ali Shah Qalandar Dargah",
    "lat": 29.3920536,
    "lng": 76.9795305,
    "url": "https://www.google.com/maps/place/Dargah+Hazrat+Bu+Ali+Shah+Qalandar/@29.3920536,76.9795305,17z/data=!3m1!4b1!4m6!3m5!1s0x390dda44fa044bcb:0x6ce3433d40be4632!8m2!3d29.3920536!4d76.9795305!16s%2Fg%2F1tfz_gf5?entry=ttu&g_ep=EgoyMDI1MDgwMy4wIKXMDSoASAFQAw%3D%3D"
  },
  {
    "name": "Tomb of Ali Mohammed Kha",
    "lat": 28.2714606,
    "lng": 79.1529167,
    "url": "https://www.google.com/maps/place/Tomb+of+Ali+Mohammed+Kha/@28.2714606,79.1529167,17z/data=!3m1!4b1!4m6!3m5!1s0x390ab3a00d736e43:0xbe162658af3985ea!8m2!3d28.2714606!4d79.1529167!16s%2Fg%2F11n03f__2d?entry=ttu&g_ep=EgoyMDI1MDgwMy4wIKXMDSoASAFQAw%3D%3D"
  },
  {
    "name": "Adil Shahi Mausoleum (Jahan Begum Tomb)",
    "lat": 16.8276854,
    "lng": 75.7749464,
    "url": "https://www.google.com/maps/place/Adil+Shahi+Mausoleum+(Jahan+Begum+Tomb)/@16.8276854,75.7749464,17z/data=!3m1!4b1!4m6!3m5!1s0x3bc654f1aac8a893:0xa4cdf2457376d412!8m2!3d16.8276854!4d75.7749464!16s%2Fg%2F11c3k54cnk?entry=ttu&g_ep=EgoyMDI1MDgwMy4wIKXMDSoASAFQAw%3D%3D"
  },
  {
    "name": "Qutb-ud-Din Aibak's Tomb",
    "lat": 31.5747661,
    "lng": 74.3136062,
    "url": "https://www.google.com/maps/place/Qutb-ud-Din+Aibak's+Tomb/@31.5747661,74.3136062,17z/data=!3m1!4b1!4m6!3m5!1s0x39191b58c0e5efdb:0x5cc94b29e8f432d7!8m2!3d31.5747661!4d74.3136062!16s%2Fg%2F11xvx0fk5?entry=ttu&g_ep=EgoyMDI1MDgwMy4wIKXMDSoASAFQAw%3D%3D"
  },
  {
    "name": "Sunheri Masjid And Tomb \u0633\u0646\u06c1\u0631\u06cc \u0645\u0633\u062c\u062f \u0627\u0648\u0631 \u062f\u0631\u06af\u0627\u06c1",
    "lat": 23.0250625,
    "lng": 72.5828125,
    "url": "https://www.google.com/maps/place/Sunheri+Masjid+%26+Tomb/@23.0250625,72.5828125,17z/data=!3m1!4b1!4m6!3m5!1s0x395e844ef4515555:0x360f65fa3089882e!8m2!3d23.0250625!4d72.5828125!16s%2Fg%2F11clyn0qx2?entry=ttu&g_ep=EgoyMDI1MDgwMy4wIKXMDSoASAFQAw%3D%3D"
  },
  {
    "name": "Tomb of Muhammad Momin and Haji Jamal",
    "lat": 31.128259,
    "lng": 75.474599,
    "url": "https://www.google.com/maps/place/Tomb+of+Muhammad+Momin+and+Haji+Jamal/@31.128259,75.474599,17z/data=!3m1!4b1!4m6!3m5!1s0x391a69ae0540dd3d:0x8a79034a11c92c01!8m2!3d31.128259!4d75.474599!16s%2Fg%2F11cjkq4c2h?entry=ttu&g_ep=EgoyMDI1MDgwMy4wIKXMDSoASAFQAw%3D%3D"
  },
  {
    "name": "Hauz Khass Ki Madia",
    "lat": 24.7170371,
    "lng": 78.1320053,
    "url": "https://www.google.com/maps/place/Hauz+Khass+Ki+Madia/@24.7170371,78.1320053,17z/data=!3m1!4b1!4m6!3m5!1s0x397993dd0ce6fd4d:0x443517767f81e367!8m2!3d24.7170371!4d78.1320053!16s%2Fg%2F11hy_mj9nd?entry=ttu&g_ep=EgoyMDI1MDgwMy4wIKXMDSoASAFQAw%3D%3D"
  },
  {
    "name": "Turabek Khanum Mausoleum",
    "lat": 44.2423649,
    "lng": -119.8093025,
    "url": "https://www.google.com/maps/place//@44.2423649,-119.8093025,3z/data=!3m1!4b1?entry=ttu&g_ep=EgoyMDI1MDgwMy4wIKXMDSoASAFQAw%3D%3D"
  },
  {
    "name": "Ghiyasuddin Tughlaq's Tomb",
    "lat": 28.5092179,
    "lng": 77.2614527,
    "url": "https://www.google.com/maps/place/Ghiyasuddin+Tughlaq's+Tomb/@28.5092179,77.2614527,17z/data=!3m1!4b1!4m6!3m5!1s0x390ce115aff05b9f:0x9130d572e79ad209!8m2!3d28.5092179!4d77.2614527!16s%2Fg%2F1vpq57gh?entry=ttu&g_ep=EgoyMDI1MDgwMy4wIKXMDSoASAFQAw%3D%3D"
  },
  {
    "name": "Baber's Tomb",
    "lat": 28.5923084,
    "lng": 77.2518979,
    "url": "https://www.google.com/maps/place/Barbers+Tomb/@28.5923084,77.2518979,17z/data=!3m1!4b1!4m6!3m5!1s0x390ce31aaabf36ad:0xaee8bc1ae5d6b622!8m2!3d28.5923084!4d77.2518979!16s%2Fg%2F11bbwnn84n?entry=ttu&g_ep=EgoyMDI1MDgwMy4wIKXMDSoASAFQAw%3D%3D"
  },
  {
    "name": "Bhadrakali Temple",
    "lat": 29.6001279,
    "lng": 74.3851213,
    "url": "https://www.google.com/maps/place/Bhadrakali+Temple/@29.6001279,74.3851213,17z/data=!3m1!4b1!4m6!3m5!1s0x3916f2b67d50cf37:0x344ea66953f984ac!8m2!3d29.6001279!4d74.3851213!16s%2Fg%2F11xjv2x_k?entry=ttu&g_ep=EgoyMDI1MDgwMy4wIKXMDSoASAFQAw%3D%3D"
  },
  {
    "name": "Holy Shrine Of Hazrat Syed Badiuddin Zinda Shah Qutbul Madar RA",
    "lat": 26.9023615,
    "lng": 79.9780279,
    "url": "https://www.google.com/maps/place/Dargah+Hazrat+Zinda+Shah+Madar/@26.9023615,79.9780279,17z/data=!3m1!4b1!4m6!3m5!1s0x399e796459853b8d:0x29d338d313fb5c30!8m2!3d26.9023615!4d79.9780279!16s%2Fg%2F11c7s4_pnk?entry=ttu&g_ep=EgoyMDI1MDgwMy4wIKXMDSoASAFQAw%3D%3D"
  },
  {
    "name": "Ek-khamba Mahal",
    "lat": 22.3407151,
    "lng": 75.395619,
    "url": "https://www.google.com/maps/place/Ek-khamba+Mahal/@22.3407151,75.395619,17z/data=!3m1!4b1!4m6!3m5!1s0x396241d109c7380f:0xc480097aabe6ee1a!8m2!3d22.3407151!4d75.395619!16s%2Fg%2F11f120qxdq?entry=ttu&g_ep=EgoyMDI1MDgwMy4wIKXMDSoASAFQAw%3D%3D"
  },
  {
    "name": "Vadatalav Ka Maqbara",
    "lat": 22.4945681,
    "lng": 73.5504024,
    "url": "https://www.google.com/maps/place/Vadatalav+Ka+Maqbara/@22.4945681,73.5504024,17z/data=!3m1!4b1!4m6!3m5!1s0x39607e7232ff111d:0x78db0c16aa54bbc8!8m2!3d22.4945681!4d73.5504024!16s%2Fg%2F11b5pjszjl?entry=ttu&g_ep=EgoyMDI1MDgwMy4wIKXMDSoASAFQAw%3D%3D"
  },
  {
    "name": "Dargah Hazrat Khwaja Bandanawaz Gesudaraz RH",
    "lat": 17.3439501,
    "lng": 76.8509398,
    "url": "https://www.google.com/maps/place/Hazrat+Khwaja+Banda+Nawaz+Dargah/@17.3439501,76.8509398,17z/data=!3m1!4b1!4m6!3m5!1s0x3bc8c73f31179b39:0x78af95675e4a86c0!8m2!3d17.3439501!4d76.8509398!16s%2Fg%2F1hf147ktw?entry=ttu&g_ep=EgoyMDI1MDgwMy4wIKXMDSoASAFQAw%3D%3D"
  },
  {
    "name": "Bahu begam quen of awadh",
    "lat": 44.2423649,
    "lng": -119.8093025,
    "url": "https://www.google.com/maps/place//@44.2423649,-119.8093025,3z/data=!3m1!4b1?entry=ttu&g_ep=EgoyMDI1MDgwMy4wIKXMDSoASAFQAw%3D%3D"
  },
  {
    "name": "Tomb of Bai Harir Sultani",
    "lat": 23.0410005,
    "lng": 72.6050457,
    "url": "https://www.google.com/maps/place/Tomb+of+Bai+Harir+Sultani/@23.0410005,72.6050457,17z/data=!3m1!4b1!4m6!3m5!1s0x395e85e07e3b8597:0x9b105d9cd57ad621!8m2!3d23.0410005!4d72.6050457!16s%2Fg%2F11ph86nfq3?entry=ttu&g_ep=EgoyMDI1MDgwMy4wIKXMDSoASAFQAw%3D%3D"
  },
  {
    "name": "Tomb Of Shah Wilayat",
    "lat": 28.0410625,
    "lng": 76.1023125,
    "url": "https://www.google.com/maps/place/Tomb+Of+Shah+Ibrahim/@28.0410625,76.1023125,16z/data=!3m1!4b1!4m6!3m5!1s0x3912b5ef4889e62d:0xac2255c69917ce1b!8m2!3d28.0410625!4d76.1023125!16s%2Fg%2F11g7y7_t1y?entry=ttu&g_ep=EgoyMDI1MDgwMy4wIKXMDSoASAFQAw%3D%3D"
  },
  {
    "name": "Khusro Bagh Prayagraj (Allahabad)",
    "lat": 25.4422713,
    "lng": 81.8210388,
    "url": "https://www.google.com/maps/place/Khusro+Bagh,+Prayagraj/@25.4422713,81.8210388,17z/data=!3m1!4b1!4m6!3m5!1s0x399acb29be6196c1:0x28f4a30948dc5957!8m2!3d25.4422713!4d81.8210388!16zL20vMDhkbWhs?entry=ttu&g_ep=EgoyMDI1MDgwMy4wIKXMDSoASAFQAw%3D%3D"
  },
  {
    "name": "Dadi Poti's Tombs",
    "lat": 28.553357,
    "lng": 77.203557,
    "url": "https://www.google.com/maps/place/Dadi+Poti's+Tombs/@28.553357,77.203557,17z/data=!3m1!4b1!4m6!3m5!1s0x390ce272d3701a8f:0x32323e1056034045!8m2!3d28.553357!4d77.203557!16s%2Fg%2F1ptyw36mf?entry=ttu&g_ep=EgoyMDI1MDgwMy4wIKXMDSoASAFQAw%3D%3D"
  },
  {
    "name": "Hazrat Shekh Ahmad Nagauri",
    "lat": 26.1278916,
    "lng": 79.7413645,
    "url": "https://www.google.com/maps/place/Dargah+Hazrat+Shaikh+Ahmad+nagauri/@26.1278916,79.7413645,17z/data=!3m1!4b1!4m6!3m5!1s0x399da15ba9809cb7:0xe1c5217efde20aab!8m2!3d26.1278916!4d79.7413645!16s%2Fg%2F11sm6xkmwh?entry=ttu&g_ep=EgoyMDI1MDgwMy4wIKXMDSoASAFQAw%3D%3D"
  },
  {
    "name": "Khawaja Syed Bha-u-Deen Naqsaband, (Rehmatullahi Aala)",
    "lat": 44.2423649,
    "lng": -119.8093025,
    "url": "https://www.google.com/maps/place//@44.2423649,-119.8093025,3z/data=!3m1!4b1?entry=ttu&g_ep=EgoyMDI1MDgwMy4wIKXMDSoASAFQAw%3D%3D"
  },
  {
    "name": "Bahu Begam Maqbara",
    "lat": 26.7658915,
    "lng": 82.1444234,
    "url": "https://www.google.com/maps/place/Bahu+Begam+Maqbara/@26.7658915,82.1444234,17z/data=!3m1!4b1!4m6!3m5!1s0x399a08a0ca12c3f9:0x60568df11b773919!8m2!3d26.7658915!4d82.1444234!16s%2Fg%2F11f321nvw4?entry=ttu&g_ep=EgoyMDI1MDgwMy4wIKXMDSoASAFQAw%3D%3D"
  },
  {
    "name": "Traveling Point",
    "lat": 28.034566,
    "lng": 79.133511,
    "url": "https://www.google.com/maps/place/Tomb+of+Ikhlas+Khan/@28.034566,79.133511,17z/data=!3m1!4b1!4m6!3m5!1s0x39754594c2aaa3c7:0x6b54b53f436d7ccd!8m2!3d28.034566!4d79.133511!16s%2Fg%2F11bwhb3rng?entry=ttu&g_ep=EgoyMDI1MDgwMy4wIKXMDSoASAFQAw%3D%3D"
  },
  {
    "name": "Mahabat Maqbara Palace",
    "lat": 21.5275733,
    "lng": 70.4599927,
    "url": "https://www.google.com/maps/place/Mahabat+Maqbara+Palace/@21.5275733,70.4599927,17z/data=!3m1!4b1!4m6!3m5!1s0x3958018a3228c2ef:0xec2df8ed1c27c9d!8m2!3d21.5275733!4d70.4599927!16s%2Fm%2F0qkv285?entry=ttu&g_ep=EgoyMDI1MDgwMy4wIKXMDSoASAFQAw%3D%3D"
  },
  {
    "name": "\u0926\u0930\u0917\u093e\u0939 \u0939\u091c\u0930\u0924 \u0939\u093e\u091c\u0940 \u092e\u0915\u094d\u0915\u093e",
    "lat": 19.094109,
    "lng": 76.1610511,
    "url": "https://www.google.com/maps/place/%E0%A4%A6%E0%A4%B0%E0%A4%97%E0%A4%BE%E0%A4%B9+%E0%A4%B9%E0%A4%9C%E0%A4%B0%E0%A4%A4+%E0%A4%B9%E0%A4%BE%E0%A4%9C%E0%A5%80+%E0%A4%AE%E0%A4%95%E0%A5%8D%E0%A4%95%E0%A4%BE/@19.094109,76.1610511,17z/data=!3m1!4b1!4m6!3m5!1s0x3bdab597e26f92c1:0x2355f2f8d760ef2b!8m2!3d19.094109!4d76.1610511!16s%2Fg%2F11j5qg84p1?entry=ttu&g_ep=EgoyMDI1MDgwMy4wIKXMDSoASAFQAw%3D%3D"
  },
  {
    "name": "Ibrahim Roza - Vijayapura",
    "lat": 16.8270326,
    "lng": 75.7026712,
    "url": "https://www.google.com/maps/place/Ibrahim+Roza+-+Vijayapura/@16.8270326,75.7026712,17z/data=!3m1!4b1!4m6!3m5!1s0x3bc6ff833559619d:0xa9dec25fc76d370!8m2!3d16.8270326!4d75.7026712!16s%2Fg%2F1twyx_57?entry=ttu&g_ep=EgoyMDI1MDgwMy4wIKXMDSoASAFQAw%3D%3D"
  },
  {
    "name": "Dargah Hazrat Syed Makhdoom Alauddin Shah",
    "lat": 27.0724425,
    "lng": 80.5171285,
    "url": "https://www.google.com/maps/place/Dargah+Hazrat+Syed+Makhdoom+Alauddin+Shah/@27.0724425,80.5171285,17z/data=!3m1!4b1!4m6!3m5!1s0x399ebdea9521b0f3:0x5edb1cb0449abe18!8m2!3d27.0724425!4d80.5171285!16s%2Fg%2F11h047bbm1?entry=ttu&g_ep=EgoyMDI1MDgwMy4wIKXMDSoASAFQAw%3D%3D"
  },
  {
    "name": "Nadan Mahal Park",
    "lat": 26.8545652,
    "lng": 80.9108868,
    "url": "https://www.google.com/maps/place/Nadan+Mahal/@26.8545652,80.9108868,17z/data=!3m1!4b1!4m6!3m5!1s0x399bfdc2dd89c329:0x9f1461e6a5e44a76!8m2!3d26.8545652!4d80.9108868!16s%2Fm%2F0ynzppr?entry=ttu&g_ep=EgoyMDI1MDgwMy4wIKXMDSoASAFQAw%3D%3D"
  },
  {
    "name": "Kaane peer Baba Mazar",
    "lat": 25.9014208,
    "lng": 80.0370778,
    "url": "https://www.google.com/maps/place/Kaane+peer+Baba+Mazar/@25.9014208,80.0370778,17z/data=!3m1!4b1!4m6!3m5!1s0x399d033a2c9fd271:0x9e0e28c5552124e7!8m2!3d25.9014208!4d80.0370778!16s%2Fg%2F11gdvw45gp?entry=ttu&g_ep=EgoyMDI1MDgwMy4wIKXMDSoASAFQAw%3D%3D"
  },
  {
    "name": "Allahabad fort",
    "lat": 27.8927815,
    "lng": 77.1200457,
    "url": "https://www.google.com/maps/place/Allahabad+fort/@27.8927815,77.1200457,17z/data=!3m1!4b1!4m6!3m5!1s0x3972d7bc6a14705d:0xf965810a91a7ce9d!8m2!3d27.8927815!4d77.1200457!16s%2Fg%2F11fk82d7h1?entry=ttu&g_ep=EgoyMDI1MDgwMy4wIKXMDSoASAFQAw%3D%3D"
  },
  {
    "name": "Vishnu Temple",
    "lat": 21.2565328,
    "lng": 74.9544858,
    "url": "https://www.google.com/maps/place/Vishnu+mandir/@21.2565328,74.9544858,17z/data=!3m1!4b1!4m6!3m5!1s0x3bdf2b9835ce476d:0xc2deefcb833af518!8m2!3d21.2565328!4d74.9544858!16s%2Fg%2F11kq31_wd3?entry=ttu&g_ep=EgoyMDI1MDgwMy4wIKXMDSoASAFQAw%3D%3D"
  },
  {
    "name": "Neela Gumbad",
    "lat": 28.5919441,
    "lng": 77.2531303,
    "url": "https://www.google.com/maps/place/Neela+Gumbad/@28.5919441,77.2531303,17z/data=!3m1!4b1!4m6!3m5!1s0x390ce30ffaf53fc1:0x20496ab0eabae149!8m2!3d28.5919441!4d77.2531303!16s%2Fg%2F1222cl23?entry=ttu&g_ep=EgoyMDI1MDgwMy4wIKXMDSoASAFQAw%3D%3D"
  },
  {
    "name": "",
    "lat": 20.6595033,
    "lng": 79.1048308,
    "url": "https://www.google.com/maps/place/Sheikh+Farid+Dargah/@20.6595033,79.1048308,17z/data=!3m1!4b1!4m6!3m5!1s0x3bd35eac17a6cfa9:0x9cb36364cf77a61a!8m2!3d20.6595033!4d79.1048308!16s%2Fg%2F1hdzrmgrh?entry=ttu&g_ep=EgoyMDI1MDgwMy4wIKXMDSoASAFQAw%3D%3D"
  },
  {
    "name": "Salabat Khan Tomb Or Chandbibi's Mahel",
    "lat": 19.0934555,
    "lng": 74.8401744,
    "url": "https://www.google.com/maps/place/Salabat+Khan's+Tomb+Ahmednagar/@19.0934555,74.8401744,17z/data=!3m1!4b1!4m6!3m5!1s0x3bdcaf121fda3c31:0x74817832caffac21!8m2!3d19.0934555!4d74.8401744!16s%2Fm%2F0w4zmq8?entry=ttu&g_ep=EgoyMDI1MDgwMy4wIKXMDSoASAFQAw%3D%3D"
  },
  {
    "name": "Shaikh Sanawali Baba Dargah",
    "lat": 19.5308991,
    "lng": 75.6168067,
    "url": "https://www.google.com/maps/place/Shaikh+Sanawali+Baba+Dargah/@19.5308991,75.6168067,17z/data=!3m1!4b1!4m6!3m5!1s0x3bdb1bb008611379:0xe07c7457e99c3ff9!8m2!3d19.5308991!4d75.6168067!16s%2Fg%2F11g0w06kfr?entry=ttu&g_ep=EgoyMDI1MDgwMy4wIKXMDSoASAFQAw%3D%3D"
  },
  {
    "name": "Ancient historical Kabarista Dasna",
    "lat": 28.6841482,
    "lng": 77.5342267,
    "url": "https://www.google.com/maps/place/Ancient+historical+Kabarista+Dasna/@28.6841482,77.5342267,17z/data=!3m1!4b1!4m6!3m5!1s0x390cf30c63119893:0xcc94b4085aff64e6!8m2!3d28.6841482!4d77.5342267!16s%2Fg%2F11rhx3h77w?entry=ttu&g_ep=EgoyMDI1MDgwMy4wIKXMDSoASAFQAw%3D%3D"
  },
  {
    "name": "Itmad-ud-Daula",
    "lat": 27.1928873,
    "lng": 78.0309808,
    "url": "https://www.google.com/maps/place/Itmad-ud-Daula/@27.1928873,78.0309808,17z/data=!3m1!4b1!4m6!3m5!1s0x397470c5fd99a693:0x13f63c6b9f4ac458!8m2!3d27.1928873!4d78.0309808!16zL20vMDduOTNr?entry=ttu&g_ep=EgoyMDI1MDgwMy4wIKXMDSoASAFQAw%3D%3D"
  },
  {
    "name": "",
    "lat": 28.6002412,
    "lng": 77.2371161,
    "url": "https://www.google.com/maps/place/Tomb+of+Syed+Abid/@28.6002412,77.2371161,17z/data=!3m1!4b1!4m6!3m5!1s0x390ce2e0f08b249d:0x67ae57c624df0bc7!8m2!3d28.6002412!4d77.2371161!16s%2Fm%2F0sgg29j?entry=ttu&g_ep=EgoyMDI1MDgwNC4wIKXMDSoASAFQAw%3D%3D"
  },
  {
    "name": "The tombs of Shah Kazim Qalandar & Shah Ali Anwer Qalandar",
    "lat": 26.8607849,
    "lng": 80.7852963,
    "url": "https://www.google.com/maps/place/The+tombs+of+Shah+Kazim+Qalandar+%26+Shah+Ali+Anwer+Qalandar/@26.8607849,80.7852963,17z/data=!3m1!4b1!4m6!3m5!1s0x399c0022d534103d:0x1d5de78c3bb3251c!8m2!3d26.8607849!4d80.7852963!16s%2Fg%2F11b6z0w0_4?entry=ttu&g_ep=EgoyMDI1MDgwMy4wIKXMDSoASAFQAw%3D%3D"
  },
  {
    "name": "Dai ki Chhoti Bahan ka Maqbara",
    "lat": 22.3292733,
    "lng": 75.4024415,
    "url": "https://www.google.com/maps/place/Dai+ki+Chhoti+Bahan+ka+Maqbara/@22.3292733,75.4024415,17z/data=!3m1!4b1!4m6!3m5!1s0x39626bb3d6e6aa5d:0x53b0f0f9d15994cc!8m2!3d22.3292733!4d75.4024415!16s%2Fg%2F11rgghhkzx?entry=ttu&g_ep=EgoyMDI1MDgwMy4wIKXMDSoASAFQAw%3D%3D"
  },
  {
    "name": "Tombs of Battashewala Complex",
    "lat": 28.595969,
    "lng": 77.250564,
    "url": "https://www.google.com/maps/place/Batashewala+Complex/@28.595969,77.250564,17z/data=!3m1!4b1!4m6!3m5!1s0x390ce31a5a92a23d:0x5f0a166b19622add!8m2!3d28.595969!4d77.250564!16s%2Fm%2F012g41lk?entry=ttu&g_ep=EgoyMDI1MDgwMy4wIKXMDSoASAFQAw%3D%3D"
  },
  {
    "name": "Dargah Hazrat Abdur Rehman Janbaaz Qalandar",
    "lat": 27.7048227,
    "lng": 80.9086533,
    "url": "https://www.google.com/maps/place/Dargah+Hazrat+Abdur+Rehman+Janbaaz+Qalandar/@27.7048227,80.9086533,17z/data=!3m1!4b1!4m6!3m5!1s0x3998d6a53b79eba9:0xbf6e482c260e3257!8m2!3d27.7048227!4d80.9086533!16s%2Fg%2F11bw4vmfq8?entry=ttu&g_ep=EgoyMDI1MDgwMy4wIKXMDSoASAFQAw%3D%3D"
  },
  {
    "name": "Maqbara Malik Amber",
    "lat": 20.0140825,
    "lng": 75.1845124,
    "url": "https://www.google.com/maps/place/Malik+ambar+tomb/@20.0140825,75.1845124,17z/data=!3m1!4b1!4m6!3m5!1s0x3bdb93000a483c31:0x660743841b9386e9!8m2!3d20.0140825!4d75.1845124!16s%2Fg%2F11vl94xckk?entry=ttu&g_ep=EgoyMDI1MDgwMy4wIKXMDSoASAFQAw%3D%3D"
  },
  {
    "name": "The Tombs of Ustad-Shagird",
    "lat": 31.1273149,
    "lng": 75.4741322,
    "url": "https://www.google.com/maps/place/The+Tombs+of+Ustad-Shagird/@31.1273149,75.4741322,17z/data=!3m1!4b1!4m6!3m5!1s0x391a696ae2c1e00f:0x4f94d2dd03a45614!8m2!3d31.1273149!4d75.4741322!16s%2Fg%2F11h2mf126l?entry=ttu&g_ep=EgoyMDI1MDgwMy4wIKXMDSoASAFQAw%3D%3D"
  },
  {
    "name": "Firoz Shah's Tomb",
    "lat": 28.5530999,
    "lng": 77.193497,
    "url": "https://www.google.com/maps/place/Firoz+Shah's+Tomb/@28.5530999,77.193497,17z/data=!3m1!4b1!4m6!3m5!1s0x390d1d8ac73eb631:0x42edae69e42d9796!8m2!3d28.5530999!4d77.193497!16s%2Fg%2F11fxf01jp4?entry=ttu&g_ep=EgoyMDI1MDgwMy4wIKXMDSoASAFQAw%3D%3D"
  },
  {
    "name": "Sabz Burj",
    "lat": 28.5931794,
    "lng": 77.2436258,
    "url": "https://www.google.com/maps/place/Sabz+Burj/@28.5931794,77.2436258,17z/data=!3m1!4b1!4m6!3m5!1s0x390ce31ce163e95b:0x1647ce2764664122!8m2!3d28.5931794!4d77.2436258!16s%2Fg%2F11f11jtmz6?entry=ttu&g_ep=EgoyMDI1MDgwMy4wIKXMDSoASAFQAw%3D%3D"
  },
  {
    "name": "Chor Gumbad",
    "lat": 28.0570872,
    "lng": 76.1030367,
    "url": "https://www.google.com/maps/place/Chor+Gumbad/@28.0570872,76.1030367,17z/data=!3m1!4b1!4m6!3m5!1s0x3912b60bd55af171:0x43bdd77379feb9a9!8m2!3d28.0570872!4d76.1030367!16s%2Fg%2F1wh4d7jw?entry=ttu&g_ep=EgoyMDI1MDgwMy4wIKXMDSoASAFQAw%3D%3D"
  },
  {
    "name": "DARGAH HAZRAT SYED SALAR MASOOD GHAZI R.H",
    "lat": 27.5938976,
    "lng": 81.614587,
    "url": "https://www.google.com/maps/place/DARGAH+HAZRAT+SYED+SALAR+MASOOD+GHAZI+R.H/@27.5938976,81.614587,17z/data=!3m1!4b1!4m6!3m5!1s0x3999ac0ec440aa91:0xed6ed2bbf2cf4e67!8m2!3d27.5938976!4d81.614587!16s%2Fg%2F1vfwb7g0?entry=ttu&g_ep=EgoyMDI1MDgwMy4wIKXMDSoASAFQAw%3D%3D"
  },
  {
    "name": "Afzal Khan's Cenotaph",
    "lat": 44.2423649,
    "lng": -119.8093025,
    "url": "https://www.google.com/maps/place//@44.2423649,-119.8093025,3z/data=!3m1!4b1?entry=ttu&g_ep=EgoyMDI1MDgwNC4wIKXMDSoASAFQAw%3D%3D"
  },
  {
    "name": "DARGAH HAZRATH SYED SADAT RAHMATULLAHALAI",
    "lat": 17.9285077,
    "lng": 77.5092644,
    "url": "https://www.google.com/maps/place/Dargah+Hazrat+Syed+Sadat+Rahmatullah+Alaih+(%D8%AD%D8%B6%D8%B1%D8%AA+%D8%B3%DB%8C%D8%AF+%D8%B3%D8%A7%D8%AF%D8%A7%D8%AA+%D8%B1%D8%AD%D9%85%D8%AA%DB%81+%D8%A7%D9%84%D9%84%DB%81+%D8%B9%D9%84%DB%8C%DB%81)%E2%80%AD/@17.9285077,77.5092644,17z/data=!3m1!4b1!4m6!3m5!1s0x3bcec12c9468ff3d:0x4a2f289d0d78f6f4!8m2!3d17.9285077!4d77.5092644!16s%2Fg%2F11g6z2fzv4?entry=ttu&g_ep=EgoyMDI1MDgwMy4wIKXMDSoASAFQAw%3D%3D"
  },
  {
    "name": "NAWAB BANGASH'S TOMB",
    "lat": 27.3979557,
    "lng": 79.5539197,
    "url": "https://www.google.com/maps/place/NAWAB+BANGASH'S+TOMB/@27.3979557,79.5539197,17z/data=!3m1!4b1!4m6!3m5!1s0x399e2e2eba5c45cd:0xcf7d9f39ddcaf64c!8m2!3d27.3979557!4d79.5539197!16s%2Fg%2F11g8yb9dbj?entry=ttu&g_ep=EgoyMDI1MDgwNC4wIKXMDSoASAFQAw%3D%3D"
  },
  {
    "name": "Tomb of Lal Khan",
    "lat": 25.3260264,
    "lng": 83.0345852,
    "url": "https://www.google.com/maps/place/Tomb+of+Lal+Khan,+Rajghat,+Varanasi,+Uttar+Pradesh+221001,+India/@25.3260264,83.0345852,17z/data=!3m1!4b1!4m6!3m5!1s0x398e2e33664d3585:0x74f8a9ebefbc8455!8m2!3d25.3260264!4d83.0345852!16s%2Fg%2F11b6b90y_3?entry=ttu&g_ep=EgoyMDI1MDgwMy4wIKXMDSoASAFQAw%3D%3D"
  },
  {
    "name": "Hazrat Khaja Sayed Husaini Shirazi",
    "lat": 44.2423649,
    "lng": -119.8093025,
    "url": "https://www.google.com/maps/place//@44.2423649,-119.8093025,3z/data=!3m1!4b1?entry=ttu&g_ep=EgoyMDI1MDgwMy4wIKXMDSoASAFQAw%3D%3D"
  },
  {
    "name": "Islam Shah Suri Tomb",
    "lat": 24.9588905,
    "lng": 84.0028452,
    "url": "https://www.google.com/maps/place/Islam+Shah+Suri+Tomb/@24.9588905,84.0028452,17z/data=!3m1!4b1!4m6!3m5!1s0x398db744f781a1e5:0xb97c18f74c287e85!8m2!3d24.9588905!4d84.0028452!16s%2Fg%2F11bv1b_2qn?entry=ttu&g_ep=EgoyMDI1MDgwMy4wIKXMDSoASAFQAw%3D%3D"
  },
  {
    "name": "Chaumachi Khan's Tomb",
    "lat": 44.2423649,
    "lng": -119.8093025,
    "url": "https://www.google.com/maps/place//@44.2423649,-119.8093025,3z/data=!3m1!4b1?entry=ttu&g_ep=EgoyMDI1MDgwMy4wIKXMDSoASAFQAw%3D%3D"
  },
  {
    "name": "Dargah Hz Chhote Makhdoom Sahab",
    "lat": 27.5241954,
    "lng": 80.7465614,
    "url": "https://www.google.com/maps/place/Dargah+Hz+Chhote+Makhdoom+Sahab/@27.5241954,80.7465614,17z/data=!3m1!4b1!4m6!3m5!1s0x399ed5377f5d2241:0xfbd794d7ba7f471b!8m2!3d27.5241954!4d80.7465614!16s%2Fg%2F11h080kzh0?entry=ttu&g_ep=EgoyMDI1MDgwMy4wIKXMDSoASAFQAw%3D%3D"
  },
  {
    "name": "Mirza Muzaffar Hussain\u2019s Tomb",
    "lat": 28.5957885,
    "lng": 77.2489703,
    "url": "https://www.google.com/maps/place/Mirza+Muzaffar+Hussain%E2%80%99s+Tomb/@28.5957885,77.2489703,17z/data=!3m1!4b1!4m6!3m5!1s0x390ce31b3f393963:0x3a6deb001241243f!8m2!3d28.5957885!4d77.2489703!16s%2Fg%2F11h1z2px6w?entry=ttu&g_ep=EgoyMDI1MDgwMy4wIKXMDSoASAFQAw%3D%3D"
  },
  {
    "name": "Tomb Of Fateh Jung",
    "lat": 27.5623918,
    "lng": 76.6228322,
    "url": "https://www.google.com/maps/place/Tomb+Of+Fateh+Jung/@27.5623918,76.6228322,17z/data=!3m1!4b1!4m6!3m5!1s0x397299f3c1de5533:0x606c34a4d6bcf663!8m2!3d27.5623918!4d76.6228322!16s%2Fg%2F11p5n7kjqw?entry=ttu&g_ep=EgoyMDI1MDgwMy4wIKXMDSoASAFQAw%3D%3D"
  },
  {
    "name": "Manpura Bhakri Dargah Pali",
    "lat": 25.7377923,
    "lng": 73.3399601,
    "url": "https://www.google.com/maps/place/Manpura+Bhakri+Dargah+Pali/@25.7377923,73.3399601,17z/data=!3m1!4b1!4m6!3m5!1s0x394273db735c3d3f:0x34f9304f74fd38f5!8m2!3d25.7377923!4d73.3399601!16s%2Fg%2F11clwlfb52?entry=ttu&g_ep=EgoyMDI1MDgwNC4wIKXMDSoASAFQAw%3D%3D"
  },
  {
    "name": "Panch Devali",
    "lat": 22.3383862,
    "lng": 75.4021177,
    "url": "https://www.google.com/maps/place/Panch+Devali/@22.3383862,75.4021177,17z/data=!3m1!4b1!4m6!3m5!1s0x396241d980c70e57:0x657ec37c6db5164!8m2!3d22.3383862!4d75.4021177!16s%2Fg%2F11f0wq0v2m?entry=ttu&g_ep=EgoyMDI1MDgwMy4wIKXMDSoASAFQAw%3D%3D"
  },
  {
    "name": "Hoshang Shah\u2019s Tomb",
    "lat": 22.3484039,
    "lng": 75.3964767,
    "url": "https://www.google.com/maps/place/Hoshang+Shah%E2%80%99s+Tomb/@22.3484039,75.3964767,17z/data=!3m1!4b1!4m6!3m5!1s0x396241cedf1e66f1:0x1dab066508201b2e!8m2!3d22.3484039!4d75.3964767!16s%2Fg%2F11b5pkj8n2?entry=ttu&g_ep=EgoyMDI1MDgwMy4wIKXMDSoASAFQAw%3D%3D"
  },
  {
    "name": "Darya Khan's Tomb",
    "lat": 22.3378208,
    "lng": 75.4022964,
    "url": "https://www.google.com/maps/place/Darya+Khan's+Tomb/@22.3378208,75.4022964,17z/data=!3m1!4b1!4m6!3m5!1s0x396241d982e0bb45:0x66589a4242edb70c!8m2!3d22.3378208!4d75.4022964!16s%2Fg%2F11bxdvshwk?entry=ttu&g_ep=EgoyMDI1MDgwMy4wIKXMDSoASAFQAw%3D%3D"
  },
  {
    "name": "Dargah Hazrat Khwaja Sultan Burhanuddin Auliya Gareeb RA",
    "lat": 20.0051288,
    "lng": 75.1905745,
    "url": "https://www.google.com/maps/place/Dargah+Hazrat+Khwaja+Sultan+Burhanuddin+Auliya+Gareeb+(R.A)/@20.0051288,75.1905745,17z/data=!3m1!4b1!4m6!3m5!1s0x3bdb92374f408dc3:0xc344a22e197bdfd5!8m2!3d20.0051288!4d75.1905745!16s%2Fg%2F1thlljs0?entry=ttu&g_ep=EgoyMDI1MDgwMy4wIKXMDSoASAFQAw%3D%3D"
  },
  {
    "name": "Rani Roopmati-Baz Bahadur Tomb",
    "lat": 23.5650142,
    "lng": 76.4860496,
    "url": "https://www.google.com/maps/place/Rani+Roopmati-Baz+Bahadur+Tomb/@23.5650142,76.4860496,17z/data=!3m1!4b1!4m6!3m5!1s0x397b556ec7ec8909:0xede800e9075b5bee!8m2!3d23.5650142!4d76.4860496!16s%2Fg%2F11c1pl97rg?entry=ttu&g_ep=EgoyMDI1MDgwNC4wIKXMDSoASAFQAw%3D%3D"
  },
  {
    "name": "Tomb of Tahir Khan",
    "lat": 29.2398937,
    "lng": 70.8398904,
    "url": "https://www.google.com/maps/place/Tomb+of+Tahir+Khan/@29.2398937,70.8398904,17z/data=!3m1!4b1!4m6!3m5!1s0x393a42430ead28f1:0xcf7d1a2721bc8132!8m2!3d29.2398937!4d70.8398904!16s%2Fg%2F11xjm_m61?entry=ttu&g_ep=EgoyMDI1MDgwNC4wIKXMDSoASAFQAw%3D%3D"
  },
  {
    "name": "Isa Khan's Tomb",
    "lat": 28.592289,
    "lng": 77.246214,
    "url": "https://www.google.com/maps/place/Isa+Khan's+Tomb,+Delhi/@28.592289,77.246214,17z/data=!3m1!4b1!4m6!3m5!1s0x390ce31ca9cdc8ef:0xf1ad57820b3f6d48!8m2!3d28.592289!4d77.246214!16s%2Fg%2F12364yp_?entry=ttu&g_ep=EgoyMDI1MDgwMy4wIKXMDSoASAFQAw%3D%3D"
  },
  {
    "name": "\u0938\u092f\u094d\u092f\u0926\u092e\u0940\u0930 \u092c\u093e\u092c\u093e \u0926\u0930\u094d\u0917\u093e\u0939",
    "lat": 18.9593519,
    "lng": 74.8661989,
    "url": "https://www.google.com/maps/place/%E0%A4%B8%E0%A4%AF%E0%A5%8D%E0%A4%AF%E0%A4%A6%E0%A4%AE%E0%A5%80%E0%A4%B0+%E0%A4%AC%E0%A4%BE%E0%A4%AC%E0%A4%BE+%E0%A4%A6%E0%A4%B0%E0%A5%8D%E0%A4%97%E0%A4%BE%E0%A4%B9/@18.9593519,74.8661989,17z/data=!3m1!4b1!4m6!3m5!1s0x3bdcadcd8a5ec3ef:0x230ba084153caba4!8m2!3d18.9593519!4d74.8661989!16s%2Fg%2F11h31_m1r3?entry=ttu&g_ep=EgoyMDI1MDgwMy4wIKXMDSoASAFQAw%3D%3D"
  },
  {
    "name": "Khanqah e Qudratiya",
    "lat": 26.7362195,
    "lng": 80.3429093,
    "url": "https://www.google.com/maps/place/Khanqah+e+Qudratiya/@26.7362195,80.3429093,17z/data=!3m1!4b1!4m6!3m5!1s0x399c257c51d8fd03:0x1cbfba73ebeb765f!8m2!3d26.7362195!4d80.3429093!16s%2Fg%2F11g4lc8xwh?entry=ttu&g_ep=EgoyMDI1MDgwMy4wIKXMDSoASAFQAw%3D%3D"
  },
  {
    "name": "Tomb of Jahangir",
    "lat": 31.6226896,
    "lng": 74.3032029,
    "url": "https://www.google.com/maps/place/Tomb+of+Emperor+Jahangir/@31.6226896,74.3032029,17z/data=!3m1!4b1!4m6!3m5!1s0x39191c72ef8dbeb5:0xeb7e40e5a8c7eb8e!8m2!3d31.6226896!4d74.3032029!16zL20vMGZ3cmhf?entry=ttu&g_ep=EgoyMDI1MDgwMy4wIKXMDSoASAFQAw%3D%3D"
  },
  {
    "name": "Kabristan",
    "lat": 28.0345491,
    "lng": 79.1161373,
    "url": "https://www.google.com/maps/place/Kabristan/@28.0345491,79.1161373,17z/data=!3m1!4b1!4m6!3m5!1s0x397545e6cd970c07:0x42268943230dd3c!8m2!3d28.0345491!4d79.1161373!16s%2Fg%2F11gdkkh_cr?entry=ttu&g_ep=EgoyMDI1MDgwMy4wIKXMDSoASAFQAw%3D%3D"
  },
  {
    "name": "Sikander Shahs Tomb",
    "lat": 22.5055625,
    "lng": 73.4736719,
    "url": "https://www.google.com/maps/place/Sikander+Shah's+Tomb/@22.5055625,73.4736719,17z/data=!3m1!4b1!4m6!3m5!1s0x39607ffa53ef64cd:0x4aef5e706ecbc97c!8m2!3d22.5055625!4d73.4736719!16s%2Fg%2F11gfhx0h6q?entry=ttu&g_ep=EgoyMDI1MDgwNC4wIKXMDSoASAFQAw%3D%3D"
  },
  {
    "name": "Tomb of Hazrat Shah Rukn-e-Alam",
    "lat": 30.1989306,
    "lng": 71.4717102,
    "url": "https://www.google.com/maps/place/Tomb+of+Hazrat+Shah+Rukn-e-Alam/@30.1989306,71.4717102,17z/data=!3m1!4b1!4m6!3m5!1s0x393b33fea7d1cc09:0x37a1710776c8a032!8m2!3d30.1989306!4d71.4717102!16s%2Fm%2F0zg6x70?entry=ttu&g_ep=EgoyMDI1MDgwMy4wIKXMDSoASAFQAw%3D%3D"
  },
  {
    "name": "Dargah Udero Lal",
    "lat": 25.7010904,
    "lng": 68.5615684,
    "url": "https://www.google.com/maps/place/Dargah+Udero+Lal/@25.7010904,68.5615684,17z/data=!3m1!4b1!4m6!3m5!1s0x394bf3e5de03ce09:0x7c1932aec990031d!8m2!3d25.7010904!4d68.5615684!16s%2Fg%2F11c6tskvmv?entry=ttu&g_ep=EgoyMDI1MDgwMy4wIKXMDSoASAFQAw%3D%3D"
  },
  {
    "name": "Shah Alam's Tomb Wazirabad",
    "lat": 28.7117682,
    "lng": 77.2280775,
    "url": "https://www.google.com/maps/place/Shah+Alam's+Tomb+Wazirabad/@28.7117682,77.2280775,17z/data=!3m1!4b1!4m6!3m5!1s0x390cfdd7571d1feb:0xfa09f5015a94e84b!8m2!3d28.7117682!4d77.2280775!16s%2Fg%2F1tghbj7h?entry=ttu&g_ep=EgoyMDI1MDgwMy4wIKXMDSoASAFQAw%3D%3D"
  },
  {
    "name": "Eco Point Mandav",
    "lat": 22.3279375,
    "lng": 75.4013125,
    "url": "https://www.google.com/maps/place/Eco+Point+Mandav/@22.3279375,75.4013125,17z/data=!3m1!4b1!4m6!3m5!1s0x39626a773c27bb69:0xe32b4bb225a5969a!8m2!3d22.3279375!4d75.4013125!16s%2Fg%2F11cn5rv2tw?entry=ttu&g_ep=EgoyMDI1MDgwMy4wIKXMDSoASAFQAw%3D%3D"
  },
  {
    "name": "Miya Sahab Dargah Masjid",
    "lat": 44.2423649,
    "lng": -119.8093025,
    "url": "https://www.google.com/maps/place//@44.2423649,-119.8093025,3z/data=!3m1!4b1?entry=ttu&g_ep=EgoyMDI1MDgwMy4wIKXMDSoASAFQAw%3D%3D"
  },
  {
    "name": "Bua Hasan monument",
    "lat": 28.6064439,
    "lng": 76.6693394,
    "url": "https://www.google.com/maps/place/Bua+Hasan+monument/@28.6064439,76.6693394,17z/data=!3m1!4b1!4m6!3m5!1s0x390d7197830edf19:0xa32f44d50edef185!8m2!3d28.6064439!4d76.6693394!16s%2Fg%2F11fv4b7rvy?entry=ttu&g_ep=EgoyMDI1MDgwMy4wIKXMDSoASAFQAw%3D%3D"
  },
  {
    "name": "Ibrahim Lodhi Tomb",
    "lat": 29.4016034,
    "lng": 76.9728525,
    "url": "https://www.google.com/maps/place/Ibrahim+Lodi+Tomb/@29.4016034,76.9728525,17z/data=!3m1!4b1!4m6!3m5!1s0x390dda3635e9097d:0x64a81a27bb9d0921!8m2!3d29.4016034!4d76.9728525!16s%2Fg%2F11cmyb1m1h?entry=ttu&g_ep=EgoyMDI1MDgwMy4wIKXMDSoASAFQAw%3D%3D"
  },
  {
    "name": "Shahbabu Dargah",
    "lat": 20.4588992,
    "lng": 76.932556,
    "url": "https://www.google.com/maps/place/Shahbabu+Dargah/@20.4588992,76.932556,17z/data=!3m1!4b1!4m6!3m5!1s0x3bd0cf2b0d87d68f:0x421bdc7442442b7f!8m2!3d20.4588992!4d76.932556!16s%2Fg%2F11q1l2xp7h?entry=ttu&g_ep=EgoyMDI1MDgwMy4wIKXMDSoASAFQAw%3D%3D"
  },
  {
    "name": "",
    "lat": 28.5339385,
    "lng": 77.2190467,
    "url": "https://www.google.com/maps/place/Shaikh+Yusuf+Qattal's+Tomb,+New+Delhi/@28.5339385,77.2190467,17z/data=!3m1!4b1!4m6!3m5!1s0x390ce22048759923:0xf741962307534b12!8m2!3d28.5339385!4d77.2190467!16s%2Fg%2F11c1w0tzg8?entry=ttu&g_ep=EgoyMDI1MDgwNC4wIKXMDSoASAFQAw%3D%3D"
  },
  {
    "name": "Sheeshe Wali Majar(Aleem Shah Dargah)",
    "lat": 26.7385587,
    "lng": 80.3404285,
    "url": "https://www.google.com/maps/place/Sheeshe+Wali+Majar(Aleem+Shah+Dargah)/@26.7385587,80.3404285,17z/data=!3m1!4b1!4m6!3m5!1s0x399c242326b9c039:0x4f168fe153b860bb!8m2!3d26.7385587!4d80.3404285!16s%2Fg%2F11gfdv9z__?entry=ttu&g_ep=EgoyMDI1MDgwMy4wIKXMDSoASAFQAw%3D%3D"
  },
  {
    "name": "Takht-i-Akbari",
    "lat": 32.018151,
    "lng": 75.1646885,
    "url": "https://www.google.com/maps/place/Takht-i-Akbari/@32.018151,75.1646885,17z/data=!3m1!4b1!4m6!3m5!1s0x391beffd69c40975:0x714920fcf01b190f!8m2!3d32.018151!4d75.1646885!16s%2Fg%2F11b6gcdpdm?entry=ttu&g_ep=EgoyMDI1MDgwMy4wIKXMDSoASAFQAw%3D%3D"
  },
  {
    "name": "Tomb of Zain-ul-Abidin's Mother",
    "lat": 34.0950071,
    "lng": 74.8060998,
    "url": "https://www.google.com/maps/place/Tomb+of+Zain-ul-Abidin's+Mother/@34.0950071,74.8060998,17z/data=!3m1!4b1!4m6!3m5!1s0x38e18567abc2b983:0x540e5b386b56e2f6!8m2!3d34.0950071!4d74.8060998!16s%2Fg%2F1thkvn13?entry=ttu&g_ep=EgoyMDI1MDgwMy4wIKXMDSoASAFQAw%3D%3D"
  },
  {
    "name": "Shrine of Hazrat Shiekh Abdul Qadir Jeelani ( R.A )",
    "lat": 44.2423649,
    "lng": -119.8093025,
    "url": "https://www.google.com/maps/place//@44.2423649,-119.8093025,3z/data=!3m1!4b1?entry=ttu&g_ep=EgoyMDI1MDgwMy4wIKXMDSoASAFQAw%3D%3D"
  },
  {
    "name": "Ancient caravan serai",
    "lat": 19.9325894,
    "lng": 75.2280426,
    "url": "https://www.google.com/maps/place/Ancient+caravan+serai/@19.9325894,75.2280426,17z/data=!3m1!4b1!4m6!3m5!1s0x3bdb91461f2f091d:0x4b133068bf1fedfe!8m2!3d19.9325894!4d75.2280426!16s%2Fg%2F11jjjhvkrz?entry=ttu&g_ep=EgoyMDI1MDgwMy4wIKXMDSoASAFQAw%3D%3D"
  },
  {
    "name": "Sufi sant ka makbra chanderi",
    "lat": 24.70363,
    "lng": 78.1314776,
    "url": "https://www.google.com/maps/place/Sufi+sant+ka+makbra+chanderi/@24.70363,78.1314776,17z/data=!3m1!4b1!4m6!3m5!1s0x397991ad9f835757:0xdd76c1542f747e68!8m2!3d24.70363!4d78.1314776!16s%2Fg%2F11lgzk5ppf?entry=ttu&g_ep=EgoyMDI1MDgwMy4wIKXMDSoASAFQAw%3D%3D"
  },
  {
    "name": "Panihari Makbara",
    "lat": 23.5773733,
    "lng": 76.46949,
    "url": "https://www.google.com/maps/place/Panihari+Makbara/@23.5773733,76.46949,17z/data=!3m1!4b1!4m6!3m5!1s0x397b5531761d7c39:0xe281a32cc1ff7535!8m2!3d23.5773733!4d76.46949!16s%2Fg%2F11mvq3pjj2?entry=ttu&g_ep=EgoyMDI1MDgwMy4wIKXMDSoASAFQAw%3D%3D"
  },
  {
    "name": "Mir Abu Turab's Tomb",
    "lat": 23.0046612,
    "lng": 72.5766508,
    "url": "https://www.google.com/maps/place/Mir+Abu+Turab's+Tomb+Behrampura/@23.0046612,72.5766508,17z/data=!3m1!4b1!4m6!3m5!1s0x395e85a59d6f2807:0xb15e7212c0f0eb99!8m2!3d23.0046612!4d72.5766508!16s%2Fm%2F012fz9cv?entry=ttu&g_ep=EgoyMDI1MDgwMy4wIKXMDSoASAFQAw%3D%3D"
  },
  {
    "name": "Shahpeer Sahab ka Mazaar",
    "lat": 28.9791574,
    "lng": 77.7104049,
    "url": "https://www.google.com/maps/place/Shahpeer+Sahab+ka+Mazaar/@28.9791574,77.7104049,17z/data=!3m1!4b1!4m6!3m5!1s0x390c64f00760e8bf:0x1cf86a539a5dde09!8m2!3d28.9791574!4d77.7104049!16s%2Fg%2F124yddkwf?entry=ttu&g_ep=EgoyMDI1MDgwMy4wIKXMDSoASAFQAw%3D%3D"
  },
  {
    "name": "Khanqah Shah Niyaz Naqshbandi",
    "lat": 34.0940048,
    "lng": 74.8128619,
    "url": "https://www.google.com/maps/place/3RV7%2BH5V,+Bohri+Kadal,+Srinagar,+190002/@34.0940048,74.8128619,17z/data=!3m1!4b1!4m6!3m5!1s0x38e185648b20bdf3:0xc43ade751424925!8m2!3d34.0939836!4d74.8129236!16s%2Fg%2F11bvtb8qgc?entry=ttu&g_ep=EgoyMDI1MDgwMy4wIKXMDSoASAFQAw%3D%3D"
  },
  {
    "name": "Chausath Khamba nizamuddin new delhi",
    "lat": 28.591234,
    "lng": 77.2430166,
    "url": "https://www.google.com/maps/place/Chausath+Khambha/@28.591234,77.2430166,17z/data=!3m1!4b1!4m6!3m5!1s0x390ce302d3634d53:0xe187a5ea84c9e316!8m2!3d28.591234!4d77.2430166!16s%2Fm%2F05sylh1?entry=ttu&g_ep=EgoyMDI1MDgwMy4wIKXMDSoASAFQAw%3D%3D"
  },
  {
    "name": "Anarkali Tomb",
    "lat": 31.5674515,
    "lng": 74.3007329,
    "url": "https://www.google.com/maps/place/Anarkali+Tomb/@31.5674515,74.3007329,17z/data=!3m1!4b1!4m6!3m5!1s0x39191cb00ee1d43f:0xa22f0b3033b41491!8m2!3d31.5674515!4d74.3007329!16s%2Fg%2F11xgr7n1f?entry=ttu&g_ep=EgoyMDI1MDgwMy4wIKXMDSoASAFQAw%3D%3D"
  },
  {
    "name": "Razia sultan tomb",
    "lat": 29.8040979,
    "lng": 76.3792493,
    "url": "https://www.google.com/maps/place/Razia+sultanah+tomb/@29.8040979,76.3792493,17z/data=!3m1!4b1!4m6!3m5!1s0x3911e1fade7d45d7:0x10bc1afbd447bc21!8m2!3d29.8040979!4d76.3792493!16s%2Fg%2F11fpqs56c0?entry=ttu&g_ep=EgoyMDI1MDgwNC4wIKXMDSoASAFQAw%3D%3D"
  },
  {
    "name": "\u0907\u092b\u094d\u0924\u093f\u0916\u093e\u0930 \u0916\u093e\u0901 \u0915\u093e \u092e\u0915\u092c\u0930\u093e \u2022 1613 \u2022 Iftikhar Khan's Tomb",
    "lat": 25.1228836,
    "lng": 82.8948617,
    "url": "https://www.google.com/maps/place/Iftikhar+Khan's+Tomb/@25.1228836,82.8948617,17z/data=!3m1!4b1!4m6!3m5!1s0x398fcb8fb50c5f41:0x59e0f6e1ea6ae79d!8m2!3d25.1228836!4d82.8948617!16s%2Fg%2F11q959vq6k?entry=ttu&g_ep=EgoyMDI1MDgwMy4wIKXMDSoASAFQAw%3D%3D"
  },
  {
    "name": "Abdul Rahim Khan-i-Khanan's Tomb",
    "lat": 28.5880627,
    "lng": 77.248014,
    "url": "https://www.google.com/maps/place/Abdur+Rahim+Khan-i-Khanan's+Tomb/@28.5880627,77.248014,17z/data=!3m1!4b1!4m6!3m5!1s0x390ce3044377c4b9:0xdca679b53ebe6634!8m2!3d28.5880627!4d77.248014!16s%2Fg%2F1thvwnj3?entry=ttu&g_ep=EgoyMDI1MDgwMy4wIKXMDSoASAFQAw%3D%3D"
  },
  {
    "name": "Dargah Hazrat Shahjamal Shamsul Arifeen R.A.",
    "lat": 27.8826132,
    "lng": 78.0540757,
    "url": "https://www.google.com/maps/place/Dargah+Hazrat+Shahjamal+Shamsul+Arifeen+R.A./@27.8826132,78.0540757,17z/data=!3m1!4b1!4m6!3m5!1s0x3974a47aabcea411:0xbbe9f05be918723c!8m2!3d27.8826132!4d78.0540757!16s%2Fg%2F11g7nsznp2?entry=ttu&g_ep=EgoyMDI1MDgwMy4wIKXMDSoASAFQAw%3D%3D"
  },
  {
    "name": "Tomb of Timur Shah Bahadur",
    "lat": 29.9665996,
    "lng": 77.5266381,
    "url": "https://www.google.com/maps/place/Tomb+of+Timur+Shah+Bahadur/@29.9665996,77.5266381,17z/data=!3m1!4b1!4m6!3m5!1s0x390eeae54cd3748f:0xbf79bf3a0847636a!8m2!3d29.9665996!4d77.5266381!16s%2Fg%2F11bbrllhhx?entry=ttu&g_ep=EgoyMDI1MDgwMy4wIKXMDSoASAFQAw%3D%3D"
  },
  {
    "name": "",
    "lat": 29.7909913,
    "lng": 76.3901489,
    "url": "https://www.google.com/maps/place/Sheikh+Tayyab+Ka+Makbra/@29.7909913,76.3901489,17z/data=!3m1!4b1!4m6!3m5!1s0x3911e13ab4ff50eb:0x5ff88029ac1a3758!8m2!3d29.7909913!4d76.3901489!16s%2Fg%2F11fjy4f80s?entry=ttu&g_ep=EgoyMDI1MDgwMy4wIKXMDSoASAFQAw%3D%3D"
  },
  {
    "name": "Zaibunnisa Tomb",
    "lat": 31.5422157,
    "lng": 74.2942423,
    "url": "https://www.google.com/maps/place/Zaibunnisa+Tomb/@31.5422157,74.2942423,17z/data=!3m1!4b1!4m6!3m5!1s0x3919031cc37db013:0x9d1b24062db4af07!8m2!3d31.5422157!4d74.2942423!16s%2Fg%2F11fct12693?entry=ttu&g_ep=EgoyMDI1MDgwNC4wIKXMDSoASAFQAw%3D%3D"
  },
  {
    "name": "Thaneshwar Shiv Tample",
    "lat": 26.5583596,
    "lng": 74.4651553,
    "url": "https://www.google.com/maps/place/Thaneshwar+Shiv+Tample/@26.5583596,74.4651553,17z/data=!3m1!4b1!4m6!3m5!1s0x396bc4454b5ae061:0xaee1b6be4ac3e685!8m2!3d26.5583596!4d74.4651553!16s%2Fg%2F11fxvgnwyk?entry=ttu&g_ep=EgoyMDI1MDgwMy4wIKXMDSoASAFQAw%3D%3D"
  },
  {
    "name": "Tomb of Mariam-UZ-Zamani",
    "lat": 27.2153344,
    "lng": 77.9427211,
    "url": "https://www.google.com/maps/place/Tomb+of+Mariam-UZ-Zamani/@27.2153344,77.9427211,17z/data=!3m1!4b1!4m6!3m5!1s0x3974781d9eee8d7d:0x5b18dc5e425cd458!8m2!3d27.2153344!4d77.9427211!16s%2Fm%2F04dzphl?entry=ttu&g_ep=EgoyMDI1MDgwMy4wIKXMDSoASAFQAw%3D%3D"
  },
  {
    "name": "Old Tomb Sarkhej \u067e\u0631\u0627\u0646\u0627 \u0642\u0628\u0631 \u0633\u0631\u062c\u062c",
    "lat": 22.9940913,
    "lng": 72.5058657,
    "url": "https://www.google.com/maps/place/Tomb+of+Khwajah+Ghiyasuddin+Ali+Qazwini/@22.9940913,72.5058657,17z/data=!3m1!4b1!4m6!3m5!1s0x395e9ac5acfed521:0xac77252df7301d7c!8m2!3d22.9940913!4d72.5058657!16s%2Fg%2F11b8twrnh6?entry=ttu&g_ep=EgoyMDI1MDgwMy4wIKXMDSoASAFQAw%3D%3D"
  },
  {
    "name": "Khokari Tombs",
    "lat": 18.3016746,
    "lng": 72.981023,
    "url": "https://www.google.com/maps/place/Khokhri+Tombs/@18.3016746,72.981023,17z/data=!3m1!4b1!4m6!3m5!1s0x3be8441005a1e88f:0x1ce6f899a0c5c835!8m2!3d18.3016746!4d72.981023!16s%2Fm%2F047f72n?entry=ttu&g_ep=EgoyMDI1MDgwMy4wIKXMDSoASAFQAw%3D%3D"
  },
  {
    "name": "Lodhi Tomb",
    "lat": 44.2423649,
    "lng": -119.8093025,
    "url": "https://www.google.com/maps/place//@44.2423649,-119.8093025,3z/data=!3m1!4b1?entry=ttu&g_ep=EgoyMDI1MDgwMy4wIKXMDSoASAFQAw%3D%3D"
  },
  {
    "name": "Dawoodi Bohra Dargah",
    "lat": 23.915396,
    "lng": 72.3713005,
    "url": "https://www.google.com/maps/place/Dawoodi+Bohra+Dargah+Sidhpur/@23.915396,72.3713005,17z/data=!3m1!4b1!4m6!3m5!1s0x395cf4fdea700001:0x898f704d225e6022!8m2!3d23.915396!4d72.3713005!16s%2Fg%2F11d_8lbmf9?entry=ttu&g_ep=EgoyMDI1MDgwMy4wIKXMDSoASAFQAw%3D%3D"
  },
  {
    "name": "Historical Ancient Building",
    "lat": 25.7259225,
    "lng": 82.7052045,
    "url": "https://www.google.com/maps/place/Historical+Ancient+Building+jaunpur/@25.7259225,82.7052045,17z/data=!3m1!4b1!4m6!3m5!1s0x39903bef38c90933:0xdb4f426230e8e5e9!8m2!3d25.7259225!4d82.7052045!16s%2Fg%2F11t3q2z7b3?entry=ttu&g_ep=EgoyMDI1MDgwMy4wIKXMDSoASAFQAw%3D%3D"
  },
  {
    "name": "Bahmani Tombs - Bidar District, Karnataka, India",
    "lat": 17.9151492,
    "lng": 77.5614371,
    "url": "https://www.google.com/maps/place/Bahmani+Tombs+(Bidar+District)/@17.9151492,77.5614371,17z/data=!3m1!4b1!4m6!3m5!1s0x3bcec7588696bf07:0xbaf112a5c6aba514!8m2!3d17.9151492!4d77.5614371!16s%2Fg%2F11h_z7tvgd?entry=ttu&g_ep=EgoyMDI1MDgwMy4wIKXMDSoASAFQAw%3D%3D"
  },
  {
    "name": "",
    "lat": 22.8818056,
    "lng": 72.5424647,
    "url": "https://www.google.com/maps/place/Imamshah+Bawa+Dargah+-+Pirana/@22.8818056,72.5424647,17z/data=!3m1!4b1!4m6!3m5!1s0x395e8e0c91869e35:0x9ea28d05472f9bde!8m2!3d22.8818056!4d72.5424647!16s%2Fg%2F11q3r6d6w0?entry=ttu&g_ep=EgoyMDI1MDgwMy4wIKXMDSoASAFQAw%3D%3D"
  },
  {
    "name": "Son Burj",
    "lat": 28.5108755,
    "lng": 77.1776733,
    "url": "https://www.google.com/maps/place/Son+Burj/@28.5108755,77.1776733,17z/data=!3m1!4b1!4m6!3m5!1s0x390d1e1153f26b33:0x10a44333e8e812c1!8m2!3d28.5108755!4d77.1776733!16s%2Fg%2F11dy1klwhf?entry=ttu&g_ep=EgoyMDI1MDgwMy4wIKXMDSoASAFQAw%3D%3D"
  },
  {
    "name": "Jali Mahal",
    "lat": 22.3215931,
    "lng": 75.401221,
    "url": "https://www.google.com/maps/place/Jali+Mahal/@22.3215931,75.401221,17z/data=!3m1!4b1!4m6!3m5!1s0x39626b50e84e9a87:0x57424411d0898fe3!8m2!3d22.3215931!4d75.401221!16s%2Fg%2F11h2ndqqdx?entry=ttu&g_ep=EgoyMDI1MDgwMy4wIKXMDSoASAFQAw%3D%3D"
  },
  {
    "name": "Bibi ka maqbara",
    "lat": 19.9012041,
    "lng": 75.3202551,
    "url": "https://www.google.com/maps/place/BIBI+KA+MAQBARA+CHATRAPATI+SAMBHAJI+NAGAR/@19.9012041,75.3202551,17z/data=!3m1!4b1!4m6!3m5!1s0x3bdb981f052f9c79:0x846308f37cdb4f9!8m2!3d19.9006246!4d75.319353!16zL20vMGI4aHR0?entry=ttu&g_ep=EgoyMDI1MDgwMy4wIKXMDSoASAFQAw%3D%3D"
  },
  {
    "name": "Tomb Of Hafiz Rehmat Khan",
    "lat": 28.3643088,
    "lng": 79.3934475,
    "url": "https://www.google.com/maps/place/Tomb+Of+Hafiz+Rehmat+Khan/@28.3643088,79.3934475,17z/data=!3m1!4b1!4m6!3m5!1s0x39a007456ede39b3:0x3073cf03446adcf1!8m2!3d28.3643088!4d79.3934475!16s%2Fg%2F11c6slq114?entry=ttu&g_ep=EgoyMDI1MDgwMy4wIKXMDSoASAFQAw%3D%3D"
  },
  {
    "name": "Biran Ka Gumbad",
    "lat": 28.5555756,
    "lng": 77.2028798,
    "url": "https://www.google.com/maps/place/Biran+Ka+Gumbad,+Delhi/@28.5555756,77.2028798,17z/data=!3m1!4b1!4m6!3m5!1s0x390ce273039c02a1:0x8062963c3cd24b5!8m2!3d28.5555756!4d77.2028798!16s%2Fg%2F1hm5twmj9?entry=ttu&g_ep=EgoyMDI1MDgwMy4wIKXMDSoASAFQAw%3D%3D"
  },
  {
    "name": "Dargah of Meer Shah Alauddin (Meera Baba)",
    "lat": 26.8927696,
    "lng": 80.2079686,
    "url": "https://www.google.com/maps/place/Dargah+of+Meer+Shah+Alauddin+(Meera+Baba)/@26.8927696,80.2079686,17z/data=!3m1!4b1!4m6!3m5!1s0x399e83c7c4242389:0x57abb42deb39e7e0!8m2!3d26.8927696!4d80.2079686!16s%2Fg%2F1q67v9str?entry=ttu&g_ep=EgoyMDI1MDgwMy4wIKXMDSoASAFQAw%3D%3D"
  },
  {
    "name": "Bara Kaman",
    "lat": 16.8303151,
    "lng": 75.7182706,
    "url": "https://www.google.com/maps/place/Bara+Kaman/@16.8303151,75.7182706,17z/data=!3m1!4b1!4m6!3m5!1s0x3bc6557f3d58b6c3:0xb88249aca0674c16!8m2!3d16.8303151!4d75.7182706!16zL20vMGJmX2Zz?entry=ttu&g_ep=EgoyMDI1MDgwMy4wIKXMDSoASAFQAw%3D%3D"
  },
  {
    "name": "Saiyed Usman Tomb And Mosque",
    "lat": 23.0479395,
    "lng": 72.5688523,
    "url": "https://www.google.com/maps/place/Saiyed+Usman+Tomb+%26+Mosque/@23.0479395,72.5688523,17z/data=!3m1!4b1!4m6!3m5!1s0x395e85ce4f1c1963:0xb37fee658a77ca95!8m2!3d23.0479395!4d72.5688523!16s%2Fm%2F012fww13?entry=ttu&g_ep=EgoyMDI1MDgwMy4wIKXMDSoASAFQAw%3D%3D"
  },
  {
    "name": "Lal Bangla Mausoleums",
    "lat": 28.6003359,
    "lng": 77.2382326,
    "url": "https://www.google.com/maps/place/Lal+Bangla+Monument/@28.6003359,77.2382326,17z/data=!3m1!4b1!4m6!3m5!1s0x390ce2e05a924697:0xe74e0411645becd0!8m2!3d28.6003359!4d77.2382326!16s%2Fm%2F0rfbbk4?entry=ttu&g_ep=EgoyMDI1MDgwMy4wIKXMDSoASAFQAw%3D%3D"
  },
  {
    "name": "",
    "lat": 22.8825403,
    "lng": 72.5418214,
    "url": "https://www.google.com/maps/place/Bale+Muhammed+Shah+Bawa/@22.8825403,72.5418214,17z/data=!3m1!4b1!4m6!3m5!1s0x395e8f95a77284dd:0x5608f404d4fae981!8m2!3d22.8825403!4d72.5418214!16s%2Fg%2F11fd0bxlkr?entry=ttu&g_ep=EgoyMDI1MDgwMy4wIKXMDSoASAFQAw%3D%3D"
  },
  {
    "name": "",
    "lat": 26.7564559,
    "lng": 83.1366167,
    "url": "https://www.google.com/maps/place/Kabir+Das+Shadhana+Cave/@26.7564559,83.1366167,17z/data=!3m1!4b1!4m6!3m5!1s0x39913b4bf16c2393:0x9c43705965438998!8m2!3d26.7564559!4d83.1366167!16s%2Fg%2F11lqg_4t35?entry=ttu&g_ep=EgoyMDI1MDgwMy4wIKXMDSoASAFQAw%3D%3D"
  },
  {
    "name": "\u092e\u094b\u0939\u092e\u094d\u092e\u094d\u0926 \u0936\u093e\u0939 \u092b\u093e\u0930\u0942\u0915\u0940 \u0914\u0930 \u0906\u0926\u093f\u0932 \u0936\u093e\u0939 \u092b\u093e\u0930\u0942\u0915\u0940 \u0915\u093e \u092e\u0915\u092c\u0930\u093e ( Mohammd Shah Faruqui and \nAdil Shah's Tomb )",
    "lat": 44.2423649,
    "lng": -119.8093025,
    "url": "https://www.google.com/maps/place//@44.2423649,-119.8093025,3z/data=!3m1!4b1?entry=ttu&g_ep=EgoyMDI1MDgwMy4wIKXMDSoASAFQAw%3D%3D"
  },
  {
    "name": "",
    "lat": 44.2423649,
    "lng": -119.8093025,
    "url": "https://www.google.com/maps/place//@44.2423649,-119.8093025,3z/data=!3m1!4b1?entry=ttu&g_ep=EgoyMDI1MDgwMy4wIKXMDSoASAFQAw%3D%3D"
  },
  {
    "name": "Museum",
    "lat": 17.3303604,
    "lng": 76.8415338,
    "url": "https://www.google.com/maps/place/Museum+Gulbarga/@17.3303604,76.8415338,17z/data=!3m1!4b1!4m6!3m5!1s0x3bc8c74c3c0ce50f:0xe52463137b1eb900!8m2!3d17.3303604!4d76.8415338!16s%2Fg%2F1tf273r6?entry=ttu&g_ep=EgoyMDI1MDgwMy4wIKXMDSoASAFQAw%3D%3D"
  },
  {
    "name": "Tomb of Mohammad Quli Qutub Shah",
    "lat": 17.3941112,
    "lng": 78.3949711,
    "url": "https://www.google.com/maps/place/Tomb+of+Mohammad+Quli+Qutub+Shah/@17.3941112,78.3949711,17z/data=!3m1!4b1!4m6!3m5!1s0x3bcb9699fa8ac01b:0x2cb9d0d08b4b20ff!8m2!3d17.3941112!4d78.3949711!16s%2Fg%2F11h9_s4wsh?entry=ttu&g_ep=EgoyMDI1MDgwMy4wIKXMDSoASAFQAw%3D%3D"
  },
  {
    "name": "Razia Sultan Tomb",
    "lat": 28.6464141,
    "lng": 77.2318161,
    "url": "https://www.google.com/maps/place/Razia+Sultan+Tomb/@28.6464141,77.2318161,17z/data=!3m1!4b1!4m6!3m5!1s0x390cfd246bffffff:0xa585c4f5a51bb2b7!8m2!3d28.6464141!4d77.2318161!16s%2Fg%2F11cs6f8hg0?entry=ttu&g_ep=EgoyMDI1MDgwMy4wIKXMDSoASAFQAw%3D%3D"
  },
  {
    "name": "Kadam Sharif",
    "lat": 44.2423649,
    "lng": -119.8093025,
    "url": "https://www.google.com/maps/place//@44.2423649,-119.8093025,3z/data=!3m1!4b1?entry=ttu&g_ep=EgoyMDI1MDgwMy4wIKXMDSoASAFQAw%3D%3D"
  },
  {
    "name": "Chilla Zinda Shah Madar",
    "lat": 28.0412051,
    "lng": 79.1115618,
    "url": "https://www.google.com/maps/place/Chilla+Zinda+Shah+Madar/@28.0412051,79.1115618,17z/data=!3m1!4b1!4m6!3m5!1s0x39754548696bf285:0xd2c4856b45c381fb!8m2!3d28.0412051!4d79.1115618!16s%2Fg%2F11gj72_cft?entry=ttu&g_ep=EgoyMDI1MDgwMy4wIKXMDSoASAFQAw%3D%3D"
  },
  {
    "name": "Maqbara",
    "lat": 28.9821983,
    "lng": 77.6927865,
    "url": "https://www.google.com/maps/place/Abu+Ka+Maqbara/@28.9821983,77.6927865,17z/data=!3m1!4b1!4m6!3m5!1s0x390c6451469a29ab:0xb64b151b83b168e5!8m2!3d28.9821983!4d77.6927865!16s%2Fg%2F11c1qrrsh3?entry=ttu&g_ep=EgoyMDI1MDgwMy4wIKXMDSoASAFQAw%3D%3D"
  },
  {
    "name": "Tomb of Dai Anga",
    "lat": 31.5792049,
    "lng": 74.3640733,
    "url": "https://www.google.com/maps/place/Tomb+of+Dai+Anga/@31.5792049,74.3640733,17z/data=!3m1!4b1!4m6!3m5!1s0x39191ad9839f9daf:0x14aa53ba8d618e17!8m2!3d31.5792049!4d74.3640733!16s%2Fg%2F11c5262kl4?entry=ttu&g_ep=EgoyMDI1MDgwMy4wIKXMDSoASAFQAw%3D%3D"
  },
  {
    "name": "Hazrat Sayyed Rizwan Ullah Shamsi",
    "lat": 26.1243327,
    "lng": 79.7265048,
    "url": "https://www.google.com/maps/place/Hazrat+Sayyed+Rizwan+Ullah+Shamsi/@26.1243327,79.7265048,17z/data=!3m1!4b1!4m6!3m5!1s0x399d9ff932489cf1:0xf634c05114e2b683!8m2!3d26.1243327!4d79.7265048!16s%2Fg%2F11nz0q5cb2?entry=ttu&g_ep=EgoyMDI1MDgwMy4wIKXMDSoASAFQAw%3D%3D"
  },
  {
    "name": "Gol Gumbaj",
    "lat": 16.2362134,
    "lng": 74.6011913,
    "url": "https://www.google.com/maps/place/Gol+Gumbaj,+Hukkeri/@16.2362134,74.6011913,17z/data=!3m1!4b1!4m6!3m5!1s0x3bc0bdfa661b5d65:0x69f0ed4d4e8c1ad7!8m2!3d16.2362134!4d74.6011913!16s%2Fg%2F11cs3_hc1w?entry=ttu&g_ep=EgoyMDI1MDgwMy4wIKXMDSoASAFQAw%3D%3D"
  },
  {
    "name": "",
    "lat": 26.4351919,
    "lng": 82.7713639,
    "url": "https://www.google.com/maps/place/Dargah+Hazrat+Makhdoom+Ashraf+Jahangir+Simnani/@26.4351919,82.7713639,17z/data=!3m1!4b1!4m6!3m5!1s0x3990e4d5dfded471:0xeda74072963f7e7f!8m2!3d26.4351919!4d82.7713639!16s%2Fg%2F11b7jxk9z9?entry=ttu&g_ep=EgoyMDI1MDgwMy4wIKXMDSoASAFQAw%3D%3D"
  },
  {
    "name": "DARGAH HAZRAT QASIM SHAH SULEMANI",
    "lat": 25.1151546,
    "lng": 82.8682118,
    "url": "https://www.google.com/maps/place/CHUNAR+DARGAAH+SHARIF+HAZRAT+QASIM+SHAH+SULEMANI/@25.1151546,82.8682118,17z/data=!3m1!4b1!4m6!3m5!1s0x398fca8184deb785:0x838f715194b4e6f!8m2!3d25.1151546!4d82.8682118!16s%2Fg%2F11b907x1bf?entry=ttu&g_ep=EgoyMDI1MDgwMy4wIKXMDSoASAFQAw%3D%3D"
  },
  {
    "name": "\u062f \u0627\u062d\u0645\u062f \u0634\u0627\u0647 \u0628\u0627\u0628\u0627 \u0632\u06cc\u0627\u0631\u062a Ahmad Shah Baba Tomb",
    "lat": 44.2423649,
    "lng": -119.8093025,
    "url": "https://www.google.com/maps/place//@44.2423649,-119.8093025,3z/data=!3m1!4b1?entry=ttu&g_ep=EgoyMDI1MDgwMy4wIKXMDSoASAFQAw%3D%3D"
  },
  {
    "name": "Hazrat Khaja Khanjahan Ali Majar",
    "lat": 22.660924,
    "lng": 89.7583454,
    "url": "https://www.google.com/maps/place/Khan+Jahan+Ali+Mazar/@22.660924,89.7583454,17z/data=!3m1!4b1!4m6!3m5!1s0x39fff5e784e41455:0x709076e0c21d1ee2!8m2!3d22.660924!4d89.7583454!16s%2Fg%2F12lknwf5d?entry=ttu&g_ep=EgoyMDI1MDgwMy4wIKXMDSoASAFQAw%3D%3D"
  },
  {
    "name": "Roza-Rozi Dargah Sharif",
    "lat": 22.8425559,
    "lng": 72.7733767,
    "url": "https://www.google.com/maps/place/Roza-Rozi+Dargah+Sharif/@22.8425559,72.7733767,17z/data=!3m1!4b1!4m6!3m5!1s0x395e60ef5d032623:0x9ec9aab4aa66a1c5!8m2!3d22.8425559!4d72.7733767!16s%2Fg%2F11c1rt0rsz?entry=ttu&g_ep=EgoyMDI1MDgwNC4wIKXMDSoASAFQAw%3D%3D"
  },
  {
    "name": "Kandhari Begum Tomb",
    "lat": 27.1720828,
    "lng": 78.043992,
    "url": "https://www.google.com/maps/place/Kandhari+Begum+Tomb/@27.1720828,78.043992,17z/data=!3m1!4b1!4m6!3m5!1s0x3974711f3f00127f:0x38b0de686286be01!8m2!3d27.1720828!4d78.043992!16s%2Fg%2F11gfjdcywf?entry=ttu&g_ep=EgoyMDI1MDgwMy4wIKXMDSoASAFQAw%3D%3D"
  },
  {
    "name": "Tomb of Mughal Emperor Aurangzeb",
    "lat": 20.0050532,
    "lng": 75.1914278,
    "url": "https://www.google.com/maps/place/Tomb+of+Mughal+Aurangzeb/@20.0050532,75.1914278,17z/data=!3m1!4b1!4m6!3m5!1s0x3bdb923736c71bd3:0xed0bfc63cee01ee4!8m2!3d20.0050532!4d75.1914278!16s%2Fm%2F0130s3py?entry=ttu&g_ep=EgoyMDI1MDgwMy4wIKXMDSoASAFQAw%3D%3D"
  },
  {
    "name": "Makbara of Hayat Mohd Khan",
    "lat": 23.3584676,
    "lng": 77.4194114,
    "url": "https://www.google.com/maps/place/Makbara+of+Hayat+Mohd+Khan/@23.3584676,77.4194114,17z/data=!3m1!4b1!4m6!3m5!1s0x397c6f7a9ed5a86b:0xda6aa1a90dce097f!8m2!3d23.3584676!4d77.4194114!16s%2Fg%2F11lkx3zpgl?entry=ttu&g_ep=EgoyMDI1MDgwMy4wIKXMDSoASAFQAw%3D%3D"
  },
  {
    "name": "Diler's Khan Tomb",
    "lat": 27.8652147,
    "lng": 79.9146685,
    "url": "https://www.google.com/maps/place/Diler's+Khan+Tomb/@27.8652147,79.9146685,17z/data=!3m1!4b1!4m6!3m5!1s0x399fbdb9443701bf:0xe31e43fbc85eb15e!8m2!3d27.8652147!4d79.9146685!16s%2Fg%2F11qq71dd7l?entry=ttu&g_ep=EgoyMDI1MDgwMy4wIKXMDSoASAFQAw%3D%3D"
  },
  {
    "name": "Shish Gumbad",
    "lat": 28.5938185,
    "lng": 77.2202047,
    "url": "https://www.google.com/maps/place/Shish+Gumbad/@28.5938185,77.2202047,17z/data=!3m1!4b1!4m6!3m5!1s0x390ce2ed9f799bc5:0x837156090a96bb02!8m2!3d28.5938185!4d77.2202047!16s%2Fg%2F122fjcf0?entry=ttu&g_ep=EgoyMDI1MDgwMy4wIKXMDSoASAFQAw%3D%3D"
  },
  {
    "name": "DARGAH OF HAZRAT MAKHDOOM SHAAH MOHAMMAD KHADIM SAFI",
    "lat": 26.7369318,
    "lng": 80.3419692,
    "url": "https://www.google.com/maps/place/Dargah+Shah+Khadim+Safi+muhammadi+(Rh.)/@26.7369318,80.3419692,17z/data=!3m1!4b1!4m6!3m5!1s0x399c243d378207f1:0x937a2c45db8315fb!8m2!3d26.7369318!4d80.3419692!16s%2Fg%2F11d_z33gkw?entry=ttu&g_ep=EgoyMDI1MDgwNC4wIKXMDSoASAFQAw%3D%3D"
  },