[
  {
    "name": "Ram Mandir (\u0930\u093e\u092e \u092e\u0902\u0926\u093f\u0930)",
    "lat": 18.4038473,
    "lng": 74.1669788,
    "url": "https://www.google.com/maps/place/Ram+Mandir+(%E0%A4%B0%E0%A4%BE%E0%A4%AE+%E0%A4%AE%E0%A4%82%E0%A4%A6%E0%A4%BF%E0%A4%B0)/@18.4038473,74.1669788,17z/data=!3m1!4b1!4m6!3m5!1s0x3bc2e3ef406ce1c7:0x964ac48cc8838bd9!8m2!3d18.4038473!4d74.1669788!16s%2Fg%2F11lkvp3kg4?entry=ttu&g_ep=EgoyMDI1MDgwMy4wIKXMDSoASAFQAw%3D%3D"
  },
  {
    "name": "Rajeshwar temple",
    "lat": 18.4037537,
    "lng": 74.1676041,
    "url": "https://www.google.com/maps/place/Rajeshwar+temple/@18.4037537,74.1676041,17z/data=!3m1!4b1!4m6!3m5!1s0x3bc2e34489e6a34b:0x6bdf6de9970bb299!8m2!3d18.4037537!4d74.1676041!16s%2Fg%2F11tj2kxxw_?entry=ttu&g_ep=EgoyMDI1MDgwNC4wIKXMDSoASAFQAw%3D%3D"
  },
  {
    "name": "Eswaran Temple",
    "lat": 11.5218685,
    "lng": 77.5854822,
    "url": "https://www.google.com/maps/place/Eswaran+Temple/@11.5218685,77.5854822,17z/data=!3m1!4b1!4m6!3m5!1s0x3ba940c9d00d3267:0xfa6da3fc5169b568!8m2!3d11.5218685!4d77.5854822!16s%2Fg%2F11g_870pp?entry=ttu&g_ep=EgoyMDI1MDgwNC4wIKXMDSoASAFQAw%3D%3D"
  },
  {
    "name": "Haluswami Mata",
    "lat": 13.4318817,
    "lng": 75.921857,
    "url": "https://www.google.com/maps/place/Haluswami+Mata/@13.4318817,75.921857,17z/data=!3m1!4b1!4m6!3m5!1s0x3bbac34604a4ea07:0xe079e6c68bfd714!8m2!3d13.4318817!4d75.921857!16s%2Fg%2F11gxtkcl9d?entry=ttu&g_ep=EgoyMDI1MDgwMy4wIKXMDSoASAFQAw%3D%3D"
  },
  {
    "name": "Shri Vitthal Temple",
    "lat": 18.9976827,
    "lng": 74.5925816,
    "url": "https://www.google.com/maps/place/Shri+Vitthal+Temple/@18.9976827,74.5925816,17z/data=!3m1!4b1!4m6!3m5!1s0x3bdccb81a212b4dd:0x2aed875aedd559ba!8m2!3d18.9976827!4d74.5925816!16s%2Fg%2F11f66g3pz3?entry=ttu&g_ep=EgoyMDI1MDgwMy4wIKXMDSoASAFQAw%3D%3D"
  },
  {
    "name": "Pracheen Shiv Mandir",
    "lat": 26.515173,
    "lng": 79.6013159,
    "url": "https://www.google.com/maps/place/Pracheen+Shiv+Mandir/@26.515173,79.6013159,17z/data=!3m1!4b1!4m6!3m5!1s0x399defafacd97cf5:0xcd7b87e49cedc63c!8m2!3d26.515173!4d79.6013159!16s%2Fg%2F11gk8qpzwt?entry=ttu&g_ep=EgoyMDI1MDgwMy4wIKXMDSoASAFQAw%3D%3D"
  },
  {
    "name": "Prachin Shiv Mandir",
    "lat": 25.7015714,
    "lng": 81.0392473,
    "url": "https://www.google.com/maps/place/Prachin+Shiv+Mandir/@25.7015714,81.0392473,17z/data=!3m1!4b1!4m6!3m5!1s0x399b43c21beec179:0x10f076dfa8e4a1d3!8m2!3d25.7015714!4d81.0392473!16s%2Fg%2F11qpzk_hf_?entry=ttu&g_ep=EgoyMDI1MDgwMy4wIKXMDSoASAFQAw%3D%3D"
  },
  {
    "name": "Ancient Shri Krishnayya Swamy Temple",
    "lat": 15.0436689,
    "lng": 76.352715,
    "url": "https://www.google.com/maps/place/Ancient+Shri+Krishnayya+Swamy+Temple/@15.0436689,76.352715,17z/data=!3m1!4b1!4m6!3m5!1s0x3bb9dc2e0503f373:0xf18c1155605f3394!8m2!3d15.0436689!4d76.352715!16s%2Fg%2F11g9r1vt92?entry=ttu&g_ep=EgoyMDI1MDgwMy4wIKXMDSoASAFQAw%3D%3D"
  },
  {
    "name": "Prachin Shiv Mandir & Mahamaya Devi Mandir Damru",
    "lat": 21.7215379,
    "lng": 82.2565343,
    "url": "https://www.google.com/maps/place/Prachin+Shiv+Mandir+%26+Mahamaya+Devi+Mandir+Damru/@21.7215379,82.2565343,17z/data=!3m1!4b1!4m6!3m5!1s0x3a27d5fba20f17f9:0x5dfbaf4d0eba9ff0!8m2!3d21.7215379!4d82.2565343!16s%2Fg%2F11s4rxnvrr?entry=ttu&g_ep=EgoyMDI1MDgwMy4wIKXMDSoASAFQAw%3D%3D"
  },
  {
    "name": "Bhagirthimata temple kati",
    "lat": 19.5532437,
    "lng": 73.0506451,
    "url": "https://www.google.com/maps/place/Bhagirthimata+Ancient+Vajreshwari+Temple,+Kati/@19.5532437,73.0506451,17z/data=!3m1!4b1!4m6!3m5!1s0x3be70afae0302079:0x7f72117196fd302c!8m2!3d19.5532437!4d73.0506451!16s%2Fg%2F1yg4vbg9k?entry=ttu&g_ep=EgoyMDI1MDgwMy4wIKXMDSoASAFQAw%3D%3D"
  },
  {
    "name": "Kodavooru Shankaranarayana Temple, \u0c95\u0cca\u0ca1\u0cb5\u0cc2\u0cb0\u0cc1 \u0cb6\u0c82\u0c95\u0cb0\u0ca8\u0cbe\u0cb0\u0cbe\u0caf\u0ca3 \u0ca6\u0cc7\u0cb5\u0cb8\u0ccd\u0ca5\u0cbe\u0ca8",
    "lat": 13.3564479,
    "lng": 74.7155339,
    "url": "https://www.google.com/maps/place/Mahathobara+Shree+Shankaranarayana+Temple+Kodavoor,+%E0%B2%AE%E0%B2%B9%E0%B2%A4%E0%B3%8B%E0%B2%AC%E0%B2%BE%E0%B2%B0+%E0%B2%B6%E0%B3%8D%E0%B2%B0%E0%B3%80+%E0%B2%B6%E0%B2%82%E0%B2%95%E0%B2%B0%E0%B2%A8%E0%B2%BE%E0%B2%B0%E0%B2%BE%E0%B2%AF%E0%B2%A3+%E0%B2%A6%E0%B3%87%E0%B2%B5%E0%B2%B8%E0%B3%8D%E0%B2%A5%E0%B2%BE%E0%B2%A8+%E0%B2%95%E0%B3%8A%E0%B2%A1%E0%B2%B5%E0%B3%82%E0%B2%B0%E0%B3%81/@13.3564479,74.7155339,17z/data=!3m1!4b1!4m6!3m5!1s0x3bbcbc73f991504f:0x9fd2b33dcf7a53be!8m2!3d13.3564479!4d74.7155339!16s%2Fg%2F1tgcwhw1?entry=ttu&g_ep=EgoyMDI1MDgwMy4wIKXMDSoASAFQAw%3D%3D"
  },
  {
    "name": "\u092a\u094d\u0930\u093e\u091a\u0940\u0928 \u0935\u0928\u0916\u0902\u0921\u0940 (\u0936\u093f\u0935 \u092e\u0902\u0926\u093f\u0930) \u0932\u094d\u092f\u093e\u0921\u093e \u0915\u093e \u0917\u0941\u0935\u093e\u0921\u093e",
    "lat": 27.2442659,
    "lng": 76.4525253,
    "url": "https://www.google.com/maps/place/%E0%A4%AA%E0%A5%8D%E0%A4%B0%E0%A4%BE%E0%A4%9A%E0%A5%80%E0%A4%A8+%E0%A4%B5%E0%A4%A8%E0%A4%96%E0%A4%82%E0%A4%A1%E0%A5%80+(%E0%A4%B9%E0%A4%A8%E0%A5%81%E0%A4%AE%E0%A4%BE%E0%A4%A8+%E0%A4%9C%E0%A5%80+)+%E0%A4%AE%E0%A4%82%E0%A4%A6%E0%A4%BF%E0%A4%B0+%E0%A4%B2%E0%A5%8D%E0%A4%AF%E0%A4%BE%E0%A4%A1%E0%A4%BE+%E0%A4%95%E0%A4%BE+%E0%A4%97%E0%A5%81%E0%A4%B5%E0%A4%BE%E0%A4%A1%E0%A4%BE/@27.2442659,76.4525253,17z/data=!3m1!4b1!4m6!3m5!1s0x396d8166b85ddb2b:0x7b9990f11a9302d4!8m2!3d27.2442659!4d76.4525253!16s%2Fg%2F11px4z2qj4?entry=ttu&g_ep=EgoyMDI1MDgwNC4wIKXMDSoASAFQAw%3D%3D"
  },
  {
    "name": "Hanuman Dhara, Chitrakoot",
    "lat": 25.154928,
    "lng": 80.882902,
    "url": "https://www.google.com/maps/place/Hanuman+Dhara+Mandir+(+Panchmukhi+Hanuman)/@25.154928,80.882902,17z/data=!3m1!4b1!4m6!3m5!1s0x3984a7fe43bba08f:0xfd44a018180e7d50!8m2!3d25.154928!4d80.882902!16s%2Fg%2F11hzjhyvgv?entry=ttu&g_ep=EgoyMDI1MDgwMy4wIKXMDSoASAFQAw%3D%3D"
  },
  {
    "name": "\u0c28\u0c30\u0c38\u0c3f\u0c02\u0c39 \u0c38\u0c4d\u0c35\u0c3e\u0c2e\u0c3f \u0c17\u0c41\u0c21\u0c3f",
    "lat": 14.3646737,
    "lng": 78.3554323,
    "url": "https://www.google.com/maps/place/%E0%B0%A8%E0%B0%B0%E0%B0%B8%E0%B0%BF%E0%B0%82%E0%B0%B9+%E0%B0%B8%E0%B1%8D%E0%B0%B5%E0%B0%BE%E0%B0%AE%E0%B0%BF+%E0%B0%97%E0%B1%81%E0%B0%A1%E0%B0%BF/@14.3646737,78.3554323,17z/data=!3m1!4b1!4m6!3m5!1s0x3bb3be26adfe5ed5:0x8e174440534fe881!8m2!3d14.3646737!4d78.3554323!16s%2Fg%2F11f0l37bfv?entry=ttu&g_ep=EgoyMDI1MDgwMy4wIKXMDSoASAFQAw%3D%3D"
  },
  {
    "name": "Kailash mandir",
    "lat": 27.2381194,
    "lng": 77.9357642,
    "url": "https://www.google.com/maps/place/Kailash+mandir/@27.2381194,77.9357642,17z/data=!3m1!4b1!4m6!3m5!1s0x3974794972e53bf5:0x5fee77d0d9dd0e8c!8m2!3d27.2381194!4d77.9357642!16s%2Fg%2F11jjdc8nk0?entry=ttu&g_ep=EgoyMDI1MDgwMy4wIKXMDSoASAFQAw%3D%3D"
  },
  {
    "name": "Sant Ghat Temple",
    "lat": 27.1302253,
    "lng": 84.33985,
    "url": "https://www.google.com/maps/place/Sant+Ghat+Temple/@27.1302253,84.33985,17z/data=!3m1!4b1!4m6!3m5!1s0x39936e8dda620e1f:0xb635d95047501b90!8m2!3d27.1302253!4d84.33985!16s%2Fg%2F1z3t9qs0z?entry=ttu&g_ep=EgoyMDI1MDgwMy4wIKXMDSoASAFQAw%3D%3D"
  },
  {
    "name": "Lord Shiva Temple",
    "lat": 19.1362352,
    "lng": 73.9008115,
    "url": "https://www.google.com/maps/place/Lord+Shiva+Temple/@19.1362352,73.9008115,17z/data=!3m1!4b1!4m6!3m5!1s0x3bdd3f60a34cb181:0x6dd4a7aff7588adc!8m2!3d19.1362352!4d73.9008115!16s%2Fg%2F11rf1pp43g?entry=ttu&g_ep=EgoyMDI1MDgwMy4wIKXMDSoASAFQAw%3D%3D"
  },
  {
    "name": "Shri Sridevi Bhudevi Sametha Chennakeshava Temple",
    "lat": 13.209394,
    "lng": 78.3683816,
    "url": "https://www.google.com/maps/place/Shri+Sridevi+Bhudevi+Sametha+Chennakeshava+Temple/@13.209394,78.3683816,17z/data=!3m1!4b1!4m6!3m5!1s0x3bad8b5c5fe32093:0xf64f715ec1c908b5!8m2!3d13.209394!4d78.3683816!16s%2Fg%2F11p12s6tdk?entry=ttu&g_ep=EgoyMDI1MDgwMy4wIKXMDSoASAFQAw%3D%3D"
  },
  {
    "name": "Old Bolhai Temple",
    "lat": 18.5884331,
    "lng": 74.0749587,
    "url": "https://www.google.com/maps/place/Old+Bolhai+Temple/@18.5884331,74.0749587,17z/data=!3m1!4b1!4m6!3m5!1s0x3bc2dc8730856791:0xe07bfdb0dfb5e227!8m2!3d18.5884331!4d74.0749587!16s%2Fg%2F11dz2gkyz3?entry=ttu&g_ep=EgoyMDI1MDgwMy4wIKXMDSoASAFQAw%3D%3D"
  },
  {
    "name": "Prachin Shiv Mandir Parjanpur",
    "lat": 25.331999,
    "lng": 82.9008744,
    "url": "https://www.google.com/maps/place/Prachin+Shiv+Mandir+Parjanpur/@25.331999,82.9008744,17z/data=!3m1!4b1!4m6!3m5!1s0x398fd38b11adeb9d:0x7474dfd37b21a2f4!8m2!3d25.331999!4d82.9008744!16s%2Fg%2F11j01ptpz3?entry=ttu&g_ep=EgoyMDI1MDgwMy4wIKXMDSoASAFQAw%3D%3D"
  },
  {
    "name": "Hooli ancient Temples",
    "lat": 15.7997118,
    "lng": 75.191797,
    "url": "https://www.google.com/maps/place/Hooli+ancient+Temples/@15.7997118,75.191797,17z/data=!3m1!4b1!4m6!3m5!1s0x3bb8bb29312190b5:0x66d73df1e7438280!8m2!3d15.7997118!4d75.191797!16s%2Fg%2F11mw70myjq?entry=ttu&g_ep=EgoyMDI1MDgwMy4wIKXMDSoASAFQAw%3D%3D"
  },
  {
    "name": "Mallikarjuna swamy temple",
    "lat": 13.4358333,
    "lng": 78.6919444,
    "url": "https://www.google.com/maps/place/Mallikarjuna+swamy+temple/@13.4358333,78.6919444,17z/data=!3m1!4b1!4m6!3m5!1s0x3bb287af9a11239f:0xf13e62173bb32c75!8m2!3d13.4358333!4d78.6919444!16s%2Fg%2F1hd_srn4j?entry=ttu&g_ep=EgoyMDI1MDgwMy4wIKXMDSoASAFQAw%3D%3D"
  },
  {
    "name": "Shri Malyavanta Raghunatha Temple",
    "lat": 15.3244881,
    "lng": 76.4882913,
    "url": "https://www.google.com/maps/place/Shri+Malyavanta+Raghunatha+Temple/@15.3244881,76.4882913,17z/data=!3m1!4b1!4m6!3m5!1s0x3bb77fb3b67e469f:0xe51abe096709b3ea!8m2!3d15.3244881!4d76.4882913!16s%2Fg%2F11b6dgd99x?entry=ttu&g_ep=EgoyMDI1MDgwMy4wIKXMDSoASAFQAw%3D%3D"
  },
  {
    "name": "Shiv Mandir",
    "lat": 19.7002606,
    "lng": 73.7760459,
    "url": "https://www.google.com/maps/place/Shiv+Mandir/@19.7002606,73.7760459,17z/data=!3m1!4b1!4m6!3m5!1s0x3bdd9915edef3d67:0x2706bd20d70ed0ce!8m2!3d19.7002606!4d73.7760459!16s%2Fg%2F11gg4jbbv1?entry=ttu&g_ep=EgoyMDI1MDgwMy4wIKXMDSoASAFQAw%3D%3D"
  },
  {
    "name": "Shri Lakshminarayana Perumal Temple",
    "lat": 11.4878681,
    "lng": 77.6200122,
    "url": "https://www.google.com/maps/place/Shri+Lakshminarayana+Perumal+Temple,+Periyavadamalaipalayam/@11.4878681,77.6200122,17z/data=!3m1!4b1!4m6!3m5!1s0x3ba941086d4dc313:0x140ca3f45fc39e0b!8m2!3d11.4878681!4d77.6200122!16s%2Fg%2F1tgfv1ky?entry=ttu&g_ep=EgoyMDI1MDgwMy4wIKXMDSoASAFQAw%3D%3D"
  },
  {
    "name": "KedarNath Temple",
    "lat": 27.6683735,
    "lng": 75.3932168,
    "url": "https://www.google.com/maps/place/KedarNath+Temple/@27.6683735,75.3932168,17z/data=!3m1!4b1!4m6!3m5!1s0x396cc648a876f747:0xea318447144a00e7!8m2!3d27.6683735!4d75.3932168!16s%2Fg%2F11g65g9j4f?entry=ttu&g_ep=EgoyMDI1MDgwMy4wIKXMDSoASAFQAw%3D%3D"
  },
  {
    "name": "Ancient Hoysala Shri Channakesava Temple",
    "lat": 12.5778,
    "lng": 76.4463441,
    "url": "https://www.google.com/maps/place/Ancient+Hoysala+Shri+Channakesava+Swamy+Gudi/@12.5778,76.4463441,17z/data=!3m1!4b1!4m6!3m5!1s0x3ba57d6c7607c841:0x5b772dec20550991!8m2!3d12.5778!4d76.4463441!16s%2Fg%2F11n0_xq_sq?entry=ttu&g_ep=EgoyMDI1MDgwMy4wIKXMDSoASAFQAw%3D%3D"
  },
  {
    "name": "Kurudumale Ganesha Temple",
    "lat": 13.2097967,
    "lng": 78.3697667,
    "url": "https://www.google.com/maps/place/Kurudumale+Ganesha+Temple/@13.2097967,78.3697667,17z/data=!3m1!4b1!4m6!3m5!1s0x3bad8bc3e7a27607:0xbce25940cc151202!8m2!3d13.2097967!4d78.3697667!16s%2Fg%2F11c1_v_j83?entry=ttu&g_ep=EgoyMDI1MDgwMy4wIKXMDSoASAFQAw%3D%3D"
  },
  {
    "name": "Mrugvyadheshwar mandir",
    "lat": 20.0126173,
    "lng": 74.1506196,
    "url": "https://www.google.com/maps/place/Mrugvyadheshwar+mandir/@20.0126173,74.1506196,17z/data=!3m1!4b1!4m6!3m5!1s0x3bddca41ca560bff:0x2247173ba47073ba!8m2!3d20.0126173!4d74.1506196!16s%2Fg%2F11cs6999n4?entry=ttu&g_ep=EgoyMDI1MDgwMy4wIKXMDSoASAFQAw%3D%3D"
  },
  {
    "name": "Sri Ram Janki, Hanuman Mandir",
    "lat": 26.7829302,
    "lng": 82.2067181,
    "url": "https://www.google.com/maps/place/Sri+Ram+Janki,+Hanuman+Mandir/@26.7829302,82.2067181,17z/data=!3m1!4b1!4m6!3m5!1s0x399a07f080b26b59:0x6a7aaa86c488817c!8m2!3d26.7829302!4d82.2067181!16s%2Fg%2F11f40nkrj7?entry=ttu&g_ep=EgoyMDI1MDgwMy4wIKXMDSoASAFQAw%3D%3D"
  },
  {
    "name": "Sri Sharanabasaveswar Temple",
    "lat": 15.6410704,
    "lng": 75.9505134,
    "url": "https://www.google.com/maps/place/Sri+Sharanabasaveswar+Temple/@15.6410704,75.9505134,17z/data=!3m1!4b1!4m6!3m5!1s0x3bb843a622ff6981:0x5e36d8eb58b6620a!8m2!3d15.6410704!4d75.9505134!16s%2Fg%2F11ddwr8bhh?entry=ttu&g_ep=EgoyMDI1MDgwMy4wIKXMDSoASAFQAw%3D%3D"
  },
  {
    "name": "ManKameshwar Mahadev Temple",
    "lat": 23.2010918,
    "lng": 77.0780846,
    "url": "https://www.google.com/maps/place/ManKameshwar+Mahadev+Temple/@23.2010918,77.0780846,17z/data=!3m1!4b1!4m6!3m5!1s0x397cf31541d5502d:0xce812c5bf5af6a0e!8m2!3d23.2010918!4d77.0780846!16s%2Fg%2F124yfrqpv?entry=ttu&g_ep=EgoyMDI1MDgwMy4wIKXMDSoASAFQAw%3D%3D"
  },
  {
    "name": "Arulmigu Kachaleeswarar Temple",
    "lat": 13.0932419,
    "lng": 80.2884236,
    "url": "https://www.google.com/maps/place/Kachaleeswarar+Temple,+Armenian+Street/@13.0932419,80.2884236,17z/data=!3m1!4b1!4m6!3m5!1s0x3a526f501d75ec0d:0xd00710570ac4e0e1!8m2!3d13.0932419!4d80.2884236!16s%2Fm%2F0j4502q?entry=ttu&g_ep=EgoyMDI1MDgwMy4wIKXMDSoASAFQAw%3D%3D"
  },
  {
    "name": "Kundawale Maharaj",
    "lat": 26.0935608,
    "lng": 77.9055425,
    "url": "https://www.google.com/maps/place/Kundawale+Maharaj/@26.0935608,77.9055425,17z/data=!3m1!4b1!4m6!3m5!1s0x39712d1a71189f91:0xc443f850325e3ddf!8m2!3d26.0935608!4d77.9055425!16s%2Fg%2F11rpdrj45m?entry=ttu&g_ep=EgoyMDI1MDgwMy4wIKXMDSoASAFQAw%3D%3D"
  },
  {
    "name": "Amruteshwar Temple",
    "lat": 19.5176993,
    "lng": 73.7230073,
    "url": "https://www.google.com/maps/place/Shree+Amruteshwar+Temple/@19.5176993,73.7230073,17z/data=!3m1!4b1!4m6!3m5!1s0x3bdd76ecc2d572cb:0xf691afa96001fc43!8m2!3d19.5176993!4d73.7230073!16s%2Fg%2F11c1wyxmp6?entry=ttu&g_ep=EgoyMDI1MDgwNC4wIKXMDSoASAFQAw%3D%3D"
  },
  {
    "name": "Shri Panchamukhi Pranesh Temple",
    "lat": 16.5227416,
    "lng": 76.7573299,
    "url": "https://www.google.com/maps/place/Shri+Panchamukhi+Pranesh+Temple/@16.5227416,76.7573299,17z/data=!3m1!4b1!4m6!3m5!1s0x3bc86bf8e64279c5:0x60cdc4d11d1aa4fc!8m2!3d16.5227416!4d76.7573299!16s%2Fg%2F11pctkw1cq?entry=ttu&g_ep=EgoyMDI1MDgwNC4wIKXMDSoASAFQAw%3D%3D"
  },
  {
    "name": "Shri Bankanath Temple",
    "lat": 15.8699464,
    "lng": 74.8346456,
    "url": "https://www.google.com/maps/place/Shri+Bankanath+Temple/@15.8699464,74.8346456,17z/data=!3m1!4b1!4m6!3m5!1s0x3bbf511969ff1497:0x58b3408d5ff311a1!8m2!3d15.8699464!4d74.8346456!16s%2Fg%2F11gg9l50d6?entry=ttu&g_ep=EgoyMDI1MDgwMy4wIKXMDSoASAFQAw%3D%3D"
  },
  {
    "name": "Delwada Mevad Tirth",
    "lat": 24.7759374,
    "lng": 73.7500834,
    "url": "https://www.google.com/maps/place/Shri+Delwada+Mevad+Tirth/@24.7759374,73.7500834,17z/data=!3m1!4b1!4m6!3m5!1s0x39680b1441aae3b9:0xdad0c113e9e40bd4!8m2!3d24.7759374!4d73.7500834!16s%2Fg%2F11h5_w22dr?entry=ttu&g_ep=EgoyMDI1MDgwMy4wIKXMDSoASAFQAw%3D%3D"
  },
  {
    "name": "Ambur Ancient Jain Temple",
    "lat": 12.7866707,
    "lng": 78.7124746,
    "url": "https://www.google.com/maps/place/Ambur+Ancient+Jain+Temple/@12.7866707,78.7124746,17z/data=!3m1!4b1!4m6!3m5!1s0x3bad08fca394a72f:0x24918bc919841473!8m2!3d12.7866707!4d78.7124746!16s%2Fg%2F11g6b1jfly?entry=ttu&g_ep=EgoyMDI1MDgwMy4wIKXMDSoASAFQAw%3D%3D"
  },
  {
    "name": "Mahanandi temple",
    "lat": 15.4710697,
    "lng": 78.62765,
    "url": "https://www.google.com/maps/place/Sri+Mahanandeeshwara+Swamy+Devasthanam/@15.4710697,78.62765,17z/data=!3m1!4b1!4m6!3m5!1s0x3bb4555650e89fbf:0x3d377d4c37418608!8m2!3d15.4710697!4d78.62765!16s%2Fg%2F11ny3frctr?entry=ttu&g_ep=EgoyMDI1MDgwMy4wIKXMDSoASAFQAw%3D%3D"
  },
  {
    "name": "Anusuya Devi Temple",
    "lat": 30.4801698,
    "lng": 79.282442,
    "url": "https://www.google.com/maps/place/Anusuya+Devi+Mandir/@30.4801698,79.282442,17z/data=!3m1!4b1!4m6!3m5!1s0x39082c992536d7e9:0x944c2a6bf951386c!8m2!3d30.4801698!4d79.282442!16s%2Fg%2F11h1d55gq?entry=ttu&g_ep=EgoyMDI1MDgwMy4wIKXMDSoASAFQAw%3D%3D"
  },
  {
    "name": "Sri Venkateshwara Swamy Temple",
    "lat": 17.0773211,
    "lng": 78.2068066,
    "url": "https://www.google.com/maps/place/Sri+Venkateshwara+Swamy+Temple/@17.0773211,78.2068066,17z/data=!3m1!4b1!4m6!3m5!1s0x3bcbc92c33b1446d:0x4fb92d897923bd04!8m2!3d17.0773211!4d78.2068066!16s%2Fg%2F1tnpjgg4?entry=ttu&g_ep=EgoyMDI1MDgwMy4wIKXMDSoASAFQAw%3D%3D"
  },
  {
    "name": "SRI KAMAKSHI TRETESWARA SWAMI TEMPLE",
    "lat": 14.2436099,
    "lng": 79.1647792,
    "url": "https://www.google.com/maps/place/SRI+KAMAKSHI+TRETESWARA+SWAMI+TEMPLE/@14.2436099,79.1647792,17z/data=!3m1!4b1!4m6!3m5!1s0x3bb33adcc02063e1:0x85482db2c74c261c!8m2!3d14.2436099!4d79.1647792!16s%2Fg%2F1tk6nsc2?entry=ttu&g_ep=EgoyMDI1MDgwMy4wIKXMDSoASAFQAw%3D%3D"
  },
  {
    "name": "Adishaktyatmaka Shri Mahalakshmi Temple",
    "lat": 13.4761226,
    "lng": 76.1298442,
    "url": "https://www.google.com/maps/place/Adishaktyatmaka+Keresante+Shri+Mahalakshmi+Temple/@13.4761226,76.1298442,17z/data=!3m1!4b1!4m6!3m5!1s0x3bbabf004de15aa7:0x850cc3d0f7fa4df4!8m2!3d13.4761226!4d76.1298442!16s%2Fg%2F11btwvxcjn?entry=ttu&g_ep=EgoyMDI1MDgwMy4wIKXMDSoASAFQAw%3D%3D"
  },
  {
    "name": "Jhaji Ram Pura Dham Hanuman Temple",
    "lat": 27.1470406,
    "lng": 76.6266028,
    "url": "https://www.google.com/maps/place/Jhaji+Ram+Pura+Dham+Hanuman+Temple/@27.1470406,76.6266028,17z/data=!3m1!4b1!4m6!3m5!1s0x39727b24496d0f45:0x9c07d0214c4db1e2!8m2!3d27.1470406!4d76.6266028!16s%2Fg%2F11fx7rx16j?entry=ttu&g_ep=EgoyMDI1MDgwMy4wIKXMDSoASAFQAw%3D%3D"
  },
  {
    "name": "Bagnath Temple, Bageshwar",
    "lat": 29.836916,
    "lng": 79.772281,
    "url": "https://www.google.com/maps/place/Bagnath+Temple,+Bageshwar/@29.836916,79.772281,17z/data=!3m1!4b1!4m6!3m5!1s0x39a735c5e8a11ce9:0x4a3a14a25920f9fc!8m2!3d29.836916!4d79.772281!16s%2Fm%2F0nb7q4r?entry=ttu&g_ep=EgoyMDI1MDgwMy4wIKXMDSoASAFQAw%3D%3D"
  },
  {
    "name": "Baba Baijnath Temple Agar Malwa",
    "lat": 23.7349802,
    "lng": 76.0402709,
    "url": "https://www.google.com/maps/place/Baba+Baijnath+Temple+Agar+Malwa/@23.7349802,76.0402709,17z/data=!3m1!4b1!4m6!3m5!1s0x39649786ae75a481:0x86f85ce61b5a2046!8m2!3d23.7349802!4d76.0402709!16s%2Fg%2F11fjmtlbxh?entry=ttu&g_ep=EgoyMDI1MDgwMy4wIKXMDSoASAFQAw%3D%3D"
  },
  {
    "name": "108 Shri Giruaji Parshwanath Jain Murtipujak Sansthan",
    "lat": 21.0418864,
    "lng": 75.0652209,
    "url": "https://www.google.com/maps/place/108+Shri+Girua+Parshwanath+Shwetambar+Jain+Derasar+Tirth/@21.0418864,75.0652209,17z/data=!3m1!4b1!4m6!3m5!1s0x3bd92e7ef2072143:0x5a2527802875bc4c!8m2!3d21.0418864!4d75.0652209!16s%2Fg%2F11cmq_nryw?entry=ttu&g_ep=EgoyMDI1MDgwMy4wIKXMDSoASAFQAw%3D%3D"
  },
  {
    "name": "An Ancient Temple at Dumri Bazar",
    "lat": 25.8612,
    "lng": 84.550152,
    "url": "https://www.google.com/maps/place/An+Ancient+Temple+at+Dumri+Bazar/@25.8612,84.550152,17z/data=!3m1!4b1!4m6!3m5!1s0x3992943bb87e49e1:0x5e9578b99d41a888!8m2!3d25.8612!4d84.550152!16s%2Fg%2F1hhhp82bw?entry=ttu&g_ep=EgoyMDI1MDgwMy4wIKXMDSoASAFQAw%3D%3D"
  },
  {
    "name": "Shiv Mandir(bda mandir)",
    "lat": 28.1425988,
    "lng": 77.6386012,
    "url": "https://www.google.com/maps/place/Shiv+Mandir(bda+mandir)/@28.1425988,77.6386012,17z/data=!3m1!4b1!4m6!3m5!1s0x390cb49107e49ee7:0x65bd81793764d9ab!8m2!3d28.1425988!4d77.6386012!16s%2Fg%2F11c5g7d965?entry=ttu&g_ep=EgoyMDI1MDgwMy4wIKXMDSoASAFQAw%3D%3D"
  },
  {
    "name": "Darekhu Prachin Shiv Mandir",
    "lat": 25.2801839,
    "lng": 82.9051312,
    "url": "https://www.google.com/maps/place/Darekhu+Prachin+Shiv+Mandir/@25.2801839,82.9051312,17z/data=!3m1!4b1!4m6!3m5!1s0x398fcd4a91e33c97:0x4ff4974b30da5571!8m2!3d25.2801839!4d82.9051312!16s%2Fg%2F11gcx_52jp?entry=ttu&g_ep=EgoyMDI1MDgwNC4wIKXMDSoASAFQAw%3D%3D"
  },
  {
    "name": "Gangoli Shivala",
    "lat": 25.4387309,
    "lng": 81.9029659,
    "url": "https://www.google.com/maps/place/Gangoli+Shivalay/@25.4387309,81.9029659,17z/data=!3m1!4b1!4m6!3m5!1s0x39854ad337f9959b:0x5ee5ae267ea6af40!8m2!3d25.4387309!4d81.9029659!16s%2Fg%2F11b7q4gw9k?entry=ttu&g_ep=EgoyMDI1MDgwMy4wIKXMDSoASAFQAw%3D%3D"
  },
  {
    "name": "Ancient Siva Temple",
    "lat": 11.9504298,
    "lng": 79.1465586,
    "url": "https://www.google.com/maps/place/Ancient+Siva+Temple/@11.9504298,79.1465586,17z/data=!3m1!4b1!4m6!3m5!1s0x3baca7097699d9a9:0x129c381d55c620c0!8m2!3d11.9504298!4d79.1465586!16s%2Fg%2F11rlktszr8?entry=ttu&g_ep=EgoyMDI1MDgwMy4wIKXMDSoASAFQAw%3D%3D"
  },
  {
    "name": "Sri Ma Anandmayi Aashram",
    "lat": 21.9806576,
    "lng": 73.4432837,
    "url": "https://www.google.com/maps/place/Sri+Ma+Anandmayi+Aashram/@21.9806576,73.4432837,17z/data=!3m1!4b1!4m6!3m5!1s0x395fe2956bb6dec1:0xe581aacf757e1bcb!8m2!3d21.9806576!4d73.4432837!16s%2Fg%2F11c5422f6t?entry=ttu&g_ep=EgoyMDI1MDgwMy4wIKXMDSoASAFQAw%3D%3D"
  },
  {
    "name": "Arulmigu Shri Pushpakuja Ambal udanurai Shri Singeeshwarar Swamy Temple",
    "lat": 13.0302598,
    "lng": 79.8582973,
    "url": "https://www.google.com/maps/place/Singeeswarar+Temple/@13.0302598,79.8582973,17z/data=!3m1!4b1!4m6!3m5!1s0x3a5293a49a155555:0x2614524b1e284c43!8m2!3d13.0302598!4d79.8582973!16s%2Fg%2F11b6yc2zwg?entry=ttu&g_ep=EgoyMDI1MDgwMy4wIKXMDSoASAFQAw%3D%3D"
  },
  {
    "name": "Sivalayam Very ancient temples",
    "lat": 14.7738555,
    "lng": 78.4783546,
    "url": "https://www.google.com/maps/place/Sivalayam+Very+ancient+temples(subramanya+temple)/@14.7738555,78.4783546,17z/data=!3m1!4b1!4m6!3m5!1s0x3bb479954215eebf:0xe92eafc51aba82b2!8m2!3d14.7738555!4d78.4783546!16s%2Fg%2F11tsxmlwbk?entry=ttu&g_ep=EgoyMDI1MDgwMy4wIKXMDSoASAFQAw%3D%3D"
  },
  {
    "name": "Shami Vighnesh - Ganesh Temple, Adasa",
    "lat": 21.3318985,
    "lng": 78.9406906,
    "url": "https://www.google.com/maps/place/Shri+Vighnesh+-+Ganpathi+Temple,+Adasa/@21.3318985,78.9406906,17z/data=!3m1!4b1!4m6!3m5!1s0x3bd4e67025555555:0x30d5399dceee19bc!8m2!3d21.3318985!4d78.9406906!16s%2Fg%2F11g8bb3ql0?entry=ttu&g_ep=EgoyMDI1MDgwMy4wIKXMDSoASAFQAw%3D%3D"
  },
  {
    "name": "Jankeshwar Mahadev Temple",
    "lat": 21.9216379,
    "lng": 73.3921403,
    "url": "https://www.google.com/maps/place/Jankeshwar+Mahadev+Temple/@21.9216379,73.3921403,17z/data=!3m1!4b1!4m6!3m5!1s0x395ffc937b18b72b:0xacdadf2e15e2a9c2!8m2!3d21.9216379!4d73.3921403!16s%2Fg%2F11c3tq7mvd?entry=ttu&g_ep=EgoyMDI1MDgwNC4wIKXMDSoASAFQAw%3D%3D"
  },
  {
    "name": "Shri Radha Rani Mandir, Barsana",
    "lat": 27.6500099,
    "lng": 77.3733519,
    "url": "https://www.google.com/maps/place/Shri+Radha+Rani+Temple,+Barsana/@27.6500099,77.3733519,17z/data=!3m1!4b1!4m6!3m5!1s0x397319f33f22f46b:0x483a5ed54d5f441e!8m2!3d27.6500099!4d77.3733519!16s%2Fg%2F11py5dlw37?entry=ttu&g_ep=EgoyMDI1MDgwNC4wIKXMDSoASAFQAw%3D%3D"
  },
  {
    "name": "Shree Vajreshwari Yogini Devi Temple",
    "lat": 19.4869402,
    "lng": 73.0260751,
    "url": "https://www.google.com/maps/place/Shree+Vajreshwari+Yogini+Devi+sansthan/@19.4869402,73.0260751,17z/data=!3m1!4b1!4m6!3m5!1s0x3be7a0edadc26ae7:0x26c62558416ab065!8m2!3d19.4869402!4d73.0260751!16s%2Fm%2F03gz_0_?entry=ttu&g_ep=EgoyMDI1MDgwMy4wIKXMDSoASAFQAw%3D%3D"
  },
  {
    "name": "Pracheen Shiv Mandir",
    "lat": 26.1985195,
    "lng": 78.1794025,
    "url": "https://www.google.com/maps/place/Pracheen+Shiv+Mandir/@26.1985195,78.1794025,17z/data=!3m1!4b1!4m6!3m5!1s0x3976c5ce6acf1fa1:0x9a1c3849cf1fbd15!8m2!3d26.1985195!4d78.1794025!16s%2Fg%2F11t0ngskvz?entry=ttu&g_ep=EgoyMDI1MDgwNC4wIKXMDSoASAFQAw%3D%3D"
  },
  {
    "name": "Arulmigu Sri Sthala Sayana Perumal Temple",
    "lat": 12.6174743,
    "lng": 80.1929973,
    "url": "https://www.google.com/maps/place/Arulmigu+Sri+Sthala+Sayana+Perumal+Temple/@12.6174743,80.1929973,17z/data=!3m1!4b1!4m6!3m5!1s0x3a53aca94a911743:0xfa517c8346f0e432!8m2!3d12.6174743!4d80.1929973!16s%2Fm%2F02r5v7n?entry=ttu&g_ep=EgoyMDI1MDgwMy4wIKXMDSoASAFQAw%3D%3D"
  },
  {
    "name": "Ancient Shri Virupaksha Devalaya",
    "lat": 13.143513,
    "lng": 78.3665844,
    "url": "https://www.google.com/maps/place/Ancient+Shri+Virupaksha+Swamy+Temple+(Mulabagilu)/@13.143513,78.3665844,17z/data=!3m1!4b1!4m6!3m5!1s0x3bad8c3473628555:0x2e30cc59166e39ac!8m2!3d13.143513!4d78.3665844!16s%2Fg%2F1hhw3_fm8?entry=ttu&g_ep=EgoyMDI1MDgwMy4wIKXMDSoASAFQAw%3D%3D"
  },
  {
    "name": "Shree Godiji Parshwanath Jain Tirth",
    "lat": 20.6590023,
    "lng": 76.7717374,
    "url": "https://www.google.com/maps/place/Shree+Godiji+Parshwanath+Jain+Tirth/@20.6590023,76.7717374,17z/data=!3m1!4b1!4m6!3m5!1s0x3bd74bb9a541024b:0x858297fe1f8b6fb6!8m2!3d20.6590023!4d76.7717374!16s%2Fg%2F11h_60tbw5?entry=ttu&g_ep=EgoyMDI1MDgwMy4wIKXMDSoASAFQAw%3D%3D"
  },
  {
    "name": "Shri Veerebhadra Swamy temple (\u0cb6\u0ccd\u0cb0\u0cc0 \u0cb5\u0cc0\u0cb0\u0cad\u0ca6\u0ccd\u0cb0\u0cb8\u0ccd\u0cb5\u0cbe\u0cae\u0cbf \u0ca6\u0cc7\u0cb5\u0cb8\u0ccd\u0ca5\u0cbe\u0ca8. \u0ca8\u0cbf\u0cb2\u0c95\u0cc1\u0c82\u0ca6.)",
    "lat": 14.4548362,
    "lng": 74.6998346,
    "url": "https://www.google.com/maps/place/Shri+Veerebhadra+Swamy+temple+(%E0%B2%B6%E0%B3%8D%E0%B2%B0%E0%B3%80+%E0%B2%B5%E0%B3%80%E0%B2%B0%E0%B2%AD%E0%B2%A6%E0%B3%8D%E0%B2%B0%E0%B2%B8%E0%B3%8D%E0%B2%B5%E0%B2%BE%E0%B2%AE%E0%B2%BF+%E0%B2%A6%E0%B3%87%E0%B2%B5%E0%B2%B8%E0%B3%8D%E0%B2%A5%E0%B2%BE%E0%B2%A8.+%E0%B2%A8%E0%B2%BF%E0%B2%B2%E0%B2%95%E0%B3%81%E0%B2%82%E0%B2%A6.)/@14.4548362,74.6998346,17z/data=!3m1!4b1!4m6!3m5!1s0x3bbc1db3cdde1be1:0x5f526dfef2d79b66!8m2!3d14.4548362!4d74.6998346!16s%2Fg%2F11lgmyr59z?entry=ttu&g_ep=EgoyMDI1MDgwMy4wIKXMDSoASAFQAw%3D%3D"
  },
  {
    "name": "Saubhagya Sundari Mata Mandir Kanjetha",
    "lat": 21.9315124,
    "lng": 73.3593111,
    "url": "https://www.google.com/maps/place/Saubhagya+Sundari+Mata+Mandir+Kanjetha/@21.9315124,73.3593111,17z/data=!3m1!4b1!4m6!3m5!1s0x395ffb4855536ca9:0x3294dc590a6d871!8m2!3d21.9315124!4d73.3593111!16s%2Fg%2F11c58t_2mm?entry=ttu&g_ep=EgoyMDI1MDgwMy4wIKXMDSoASAFQAw%3D%3D"
  },
  {
    "name": "Mamaleshwar Temple",
    "lat": 34.00981,
    "lng": 75.3118826,
    "url": "https://www.google.com/maps/place/Mamaleshwar+Temple,+Pahalgam+(J%26K)/@34.00981,75.3118826,17z/data=!3m1!4b1!4m6!3m5!1s0x38e23f9817420ced:0xc47afd24a98b2f38!8m2!3d34.00981!4d75.3118826!16s%2Fg%2F11pphvyw__?entry=ttu&g_ep=EgoyMDI1MDgwMy4wIKXMDSoASAFQAw%3D%3D"
  },
  {
    "name": "Mahadev Mandir",
    "lat": 19.9361349,
    "lng": 73.8129205,
    "url": "https://www.google.com/maps/place/Mahadev+Mandir/@19.9361349,73.8129205,17z/data=!3m1!4b1!4m6!3m5!1s0x3bdd953e739641ab:0x591a6cd1022a206f!8m2!3d19.9361349!4d73.8129205!16s%2Fg%2F11bzt2sr0b?entry=ttu&g_ep=EgoyMDI1MDgwMy4wIKXMDSoASAFQAw%3D%3D"
  },
  {
    "name": "Pracheen Shri Laxmi Narayan Temple",
    "lat": 27.2158594,
    "lng": 75.818948,
    "url": "https://www.google.com/maps/place/Pracheen+Shri+Laxmi+Narayan+Temple/@27.2158594,75.818948,17z/data=!3m1!4b1!4m6!3m5!1s0x396d07508f05b2d1:0x747ac4159f9de0fc!8m2!3d27.2158594!4d75.818948!16s%2Fg%2F11f7r4tcq6?entry=ttu&g_ep=EgoyMDI1MDgwNC4wIKXMDSoASAFQAw%3D%3D"
  },
  {
    "name": "Lakshmana Teertha",
    "lat": 13.1097804,
    "lng": 78.324984,
    "url": "https://www.google.com/maps/place/Lakshmana+Teertha/@13.1097804,78.324984,17z/data=!3m1!4b1!4m6!3m5!1s0x3bad8de0de073b71:0x4c20c12a6298aa34!8m2!3d13.1097804!4d78.324984!16s%2Fg%2F11gnq0j94h?entry=ttu&g_ep=EgoyMDI1MDgwMy4wIKXMDSoASAFQAw%3D%3D"
  },
  {
    "name": "Lakshmi chennkesava swamy temple",
    "lat": 14.8195607,
    "lng": 78.5805293,
    "url": "https://www.google.com/maps/place/Lakshmi+Chennkesava+Swamy+Temple/@14.8195607,78.5805293,17z/data=!3m1!4b1!4m6!3m5!1s0x3bb47f8aa98d79d7:0x49c54fc9c25464df!8m2!3d14.8195607!4d78.5805293!16s%2Fg%2F11kk6wp8cx?entry=ttu&g_ep=EgoyMDI1MDgwMy4wIKXMDSoASAFQAw%3D%3D"
  },
  {
    "name": "Shiv Shankar Temple",
    "lat": 19.9809878,
    "lng": 74.6702082,
    "url": "https://www.google.com/maps/place/Shiv+Shankar+Temple/@19.9809878,74.6702082,17z/data=!3m1!4b1!4m6!3m5!1s0x3bdc1338eaaaaaab:0x92e19ffd601189f7!8m2!3d19.9809878!4d74.6702082!16s%2Fg%2F11c2jfk7f1?entry=ttu&g_ep=EgoyMDI1MDgwMy4wIKXMDSoASAFQAw%3D%3D"
  },
  {
    "name": "Lord Shiva Temple",
    "lat": 12.7531994,
    "lng": 78.6638726,
    "url": "https://www.google.com/maps/place/Lord+Shiva+Temple/@12.7531994,78.6638726,17z/data=!3m1!4b1!4m6!3m5!1s0x3bad09d07a91ba77:0x76917a3151fbeffa!8m2!3d12.7531994!4d78.6638726!16s%2Fg%2F11syf5zqg8?entry=ttu&g_ep=EgoyMDI1MDgwMy4wIKXMDSoASAFQAw%3D%3D"
  },
  {
    "name": "Shri Marikamba Devi Temple",
    "lat": 14.612293,
    "lng": 74.8396078,
    "url": "https://www.google.com/maps/place/SHRI+MARIKAMBA+TEMPLE+SIRSI/@14.612293,74.8396078,17z/data=!3m1!4b1!4m6!3m5!1s0x3bbea9301bb6e5ad:0x57734f23c6ec9ca6!8m2!3d14.612293!4d74.8396078!16s%2Fm%2F0wr47np?entry=ttu&g_ep=EgoyMDI1MDgwMy4wIKXMDSoASAFQAw%3D%3D"
  },
  {
    "name": "Lord Mahileswarar Temple",
    "lat": 11.4664991,
    "lng": 77.5644096,
    "url": "https://www.google.com/maps/place/Mahileeswarar+Temple/@11.4664991,77.5644096,17z/data=!3m1!4b1!4m6!3m5!1s0x3ba94075cf84268f:0x6c49b977737e220c!8m2!3d11.4664991!4d77.5644096!16s%2Fg%2F1tqcjncc?entry=ttu&g_ep=EgoyMDI1MDgwMy4wIKXMDSoASAFQAw%3D%3D"
  },
  {
    "name": "Sri varadarajula Swami Vari Temple",
    "lat": 14.1740822,
    "lng": 79.3256165,
    "url": "https://www.google.com/maps/place/Sri+varadarajula+Swami+Vari+Temple/@14.1740822,79.3256165,17z/data=!3m1!4b1!4m6!3m5!1s0x3bb32de1a4fd7489:0x51ea1e9241688a47!8m2!3d14.1740822!4d79.3256165!16s%2Fg%2F11fgkndsl9?entry=ttu&g_ep=EgoyMDI1MDgwMy4wIKXMDSoASAFQAw%3D%3D"
  },
  {
    "name": "Gaura Devi Temple",
    "lat": 30.2202701,
    "lng": 78.860287,
    "url": "https://www.google.com/maps/place/Gaura+Devi+Temple/@30.2202701,78.860287,17z/data=!3m1!4b1!4m6!3m5!1s0x3909bbbc6cc5b799:0xb23101e8c88b8e48!8m2!3d30.2202701!4d78.860287!16s%2Fg%2F11qqp6hs02?entry=ttu&g_ep=EgoyMDI1MDgwMy4wIKXMDSoASAFQAw%3D%3D"
  },
  {
    "name": "Old historical nonaveshvara temple \u0caa\u0cc1\u0cb0\u0cbe\u0ca4\u0ca8 \u0c95\u0cbe\u0cb2\u0ca6 \u0ca8\u0cca\u0ca3\u0cb5\u0cc7\u0cb6\u0ccd\u0cb5\u0cb0 \u0ca6\u0cc7\u0cb5\u0cbe\u0cb2\u0caf",
    "lat": 13.5308374,
    "lng": 76.6209704,
    "url": "https://www.google.com/maps/place/Old+historical+nonaveshvara+temple+%E0%B2%AA%E0%B3%81%E0%B2%B0%E0%B2%BE%E0%B2%A4%E0%B2%A8+%E0%B2%95%E0%B2%BE%E0%B2%B2%E0%B2%A6+%E0%B2%A8%E0%B3%8A%E0%B2%A3%E0%B2%B5%E0%B3%87%E0%B2%B6%E0%B3%8D%E0%B2%B5%E0%B2%B0+%E0%B2%A6%E0%B3%87%E0%B2%B5%E0%B2%BE%E0%B2%B2%E0%B2%AF/@13.5308374,76.6209704,17z/data=!3m1!4b1!4m6!3m5!1s0x3bb00d46db074adb:0x2d6401c4a6f470e8!8m2!3d13.5308374!4d76.6209704!16s%2Fg%2F11sy3cfkg3?entry=ttu&g_ep=EgoyMDI1MDgwMy4wIKXMDSoASAFQAw%3D%3D"
  },
  {
    "name": "Shiv Mandir",
    "lat": 25.4637784,
    "lng": 81.8533083,
    "url": "https://www.google.com/maps/place/Shiv+Mandir/@25.4637784,81.8533083,17z/data=!3m1!4b1!4m6!3m5!1s0x399aca97054ea06d:0x92f5acd2bf0d6831!8m2!3d25.4637784!4d81.8533083!16s%2Fg%2F11bymyss6t?entry=ttu&g_ep=EgoyMDI1MDgwMy4wIKXMDSoASAFQAw%3D%3D"
  },
  {
    "name": "PRACHEEN SHIV MANDIR",
    "lat": 27.7812902,
    "lng": 80.920242,
    "url": "https://www.google.com/maps/place/PRACHEEN+SHIV+MANDIR/@27.7812902,80.920242,17z/data=!3m1!4b1!4m6!3m5!1s0x3998d1f2c73d5ff5:0xd7b633d98fded2fa!8m2!3d27.7812902!4d80.920242!16s%2Fg%2F11rqyvhxm0?entry=ttu&g_ep=EgoyMDI1MDgwNC4wIKXMDSoASAFQAw%3D%3D"
  },
  {
    "name": "Shri Trikuta Devalaya | Shri Bhavani Shankar and Shri Narayana Deva Trust \nDevalaya",
    "lat": 15.3382794,
    "lng": 75.1294439,
    "url": "https://www.google.com/maps/place/Shri+Trikuta+Devalaya+%7C+Shri+Bhavani+Shankar+and+Shri+Narayana+Deva+Trust+Devalaya/@15.3382794,75.1294439,17z/data=!3m1!4b1!4m6!3m5!1s0x3bb8d712e1750b47:0x55e3e58f8ab61f47!8m2!3d15.3382794!4d75.1294439!16s%2Fg%2F11gd4hs56d?entry=ttu&g_ep=EgoyMDI1MDgwMy4wIKXMDSoASAFQAw%3D%3D"
  },
  {
    "name": "Hasulahi Rameshwar Mandir",
    "lat": 25.8901129,
    "lng": 84.6520542,
    "url": "https://www.google.com/maps/place/Hasulahi+Rameshwar+Mandir/@25.8901129,84.6520542,17z/data=!3m1!4b1!4m6!3m5!1s0x3992bfef748848eb:0x5d21c4ab69ba5bce!8m2!3d25.8901129!4d84.6520542!16s%2Fg%2F11fksrrnyb?entry=ttu&g_ep=EgoyMDI1MDgwNC4wIKXMDSoASAFQAw%3D%3D"
  },
  {
    "name": "Ganesh Ji Mandir \u0917\u0923\u0947\u0936 \u091c\u0940 \u092e\u0902\u0926\u093f\u0930",
    "lat": 27.4174318,
    "lng": 76.1719594,
    "url": "https://www.google.com/maps/place/Ganesh+Ji+Mandir/@27.4174318,76.1719594,17z/data=!3m1!4b1!4m6!3m5!1s0x396d720757138d8d:0x15224a8b22bd80b5!8m2!3d27.4174318!4d76.1719594!16s%2Fg%2F11c2p7h6_6?entry=ttu&g_ep=EgoyMDI1MDgwMy4wIKXMDSoASAFQAw%3D%3D"
  },
  {
    "name": "Prachin Shivshankar Mandir",
    "lat": 25.3749809,
    "lng": 82.3431486,
    "url": "https://www.google.com/maps/place/Shiv+Shankar+Temple/@25.3749809,82.3431486,17z/data=!3m1!4b1!4m6!3m5!1s0x398ffc7dd77e6b7f:0x6dbac371314f192b!8m2!3d25.3749809!4d82.3431486!16s%2Fg%2F11dylt4_5p?entry=ttu&g_ep=EgoyMDI1MDgwMy4wIKXMDSoASAFQAw%3D%3D"
  },
  {
    "name": "Rameshwar Temple",
    "lat": 20.2733368,
    "lng": 75.7632225,
    "url": "https://www.google.com/maps/place/Rameshwar+Temple/@20.2733368,75.7632225,17z/data=!3m1!4b1!4m6!3m5!1s0x3bda330bc57d843b:0x13d2cc932b098fe0!8m2!3d20.2733368!4d75.7632225!16s%2Fg%2F11hdqnsk2k?entry=ttu&g_ep=EgoyMDI1MDgwMy4wIKXMDSoASAFQAw%3D%3D"
  },
  {
    "name": "Shri Benki Lakshmi Ranganathaswami Temple",
    "lat": 13.3380125,
    "lng": 76.0112071,
    "url": "https://www.google.com/maps/place/Shri+Benki+Lakshmi+Ranganathaswami+Temple/@13.3380125,76.0112071,17z/data=!3m1!4b1!4m6!3m5!1s0x3bbac61e13469dbd:0xd5d8056474322ab0!8m2!3d13.3380125!4d76.0112071!16s%2Fg%2F1hc28c8gb?entry=ttu&g_ep=EgoyMDI1MDgwMy4wIKXMDSoASAFQAw%3D%3D"
  },
  {
    "name": "Shiv Kuti Temple",
    "lat": 25.4997839,
    "lng": 81.8753391,
    "url": "https://www.google.com/maps/place/Shiv+Kuti+Temple/@25.4997839,81.8753391,17z/data=!3m1!4b1!4m6!3m5!1s0x399ab58fba6cf203:0x9af8251476848abe!8m2!3d25.4997839!4d81.8753391!16s%2Fg%2F11c59xc21_?entry=ttu&g_ep=EgoyMDI1MDgwMy4wIKXMDSoASAFQAw%3D%3D"
  },
  {
    "name": "Prachin shiv mandir",
    "lat": 25.2334023,
    "lng": 82.4566877,
    "url": "https://www.google.com/maps/place/Prachin+shiv+mandir/@25.2334023,82.4566877,17z/data=!3m1!4b1!4m6!3m5!1s0x398fef8933449b63:0xcb022a1515ecafa5!8m2!3d25.2334023!4d82.4566877!16s%2Fg%2F11qq2pvwx6?entry=ttu&g_ep=EgoyMDI1MDgwMy4wIKXMDSoASAFQAw%3D%3D"
  },
  {
    "name": "Sri Chokkanathar Swamy Temple",
    "lat": 11.6160032,
    "lng": 77.7413538,
    "url": "https://www.google.com/maps/place/Sri+Chokkanathar+Swamy+Temple(Eeaswaran+kovil)/@11.6160032,77.7413538,17z/data=!3m1!4b1!4m6!3m5!1s0x3ba94552419f6a15:0xede783478b43ca5a!8m2!3d11.6160032!4d77.7413538!16s%2Fg%2F1hf6k4p5z?entry=ttu&g_ep=EgoyMDI1MDgwMy4wIKXMDSoASAFQAw%3D%3D"
  },
  {
    "name": "Sidhi Vinayak Temple Sinor",
    "lat": 44.2423649,
    "lng": -119.8093025,
    "url": "https://www.google.com/maps/place//@44.2423649,-119.8093025,3z/data=!3m1!4b1?entry=ttu&g_ep=EgoyMDI1MDgwMy4wIKXMDSoASAFQAw%3D%3D"
  },
  {
    "name": "Pracheen shiv mandir pohappur",
    "lat": 27.1019181,
    "lng": 79.4082016,
    "url": "https://www.google.com/maps/place/Shiv+mandir/@27.1019181,79.4082016,17z/data=!3m1!4b1!4m6!3m5!1s0x399e1f315173b7c7:0x5dafa81461b8ce61!8m2!3d27.1019181!4d79.4082016!16s%2Fg%2F11sd64cz1g?entry=ttu&g_ep=EgoyMDI1MDgwMy4wIKXMDSoASAFQAw%3D%3D"
  },
  {
    "name": "Triyuginarayan Temple",
    "lat": 30.6414034,
    "lng": 78.9769454,
    "url": "https://www.google.com/maps/place/Triyuginarayan+Temple/@30.6414034,78.9769454,17z/data=!3m1!4b1!4m6!3m5!1s0x390847a500000001:0xc2ca18c7d6d6d5bf!8m2!3d30.6414034!4d78.9769454!16zL20vMGJyZnRf?entry=ttu&g_ep=EgoyMDI1MDgwMy4wIKXMDSoASAFQAw%3D%3D"
  },
  {
    "name": "Sri Ardhanarishwara Temple",
    "lat": 13.3734055,
    "lng": 76.0564171,
    "url": "https://www.google.com/maps/place/Sri+Ardhanarishwara+Temple/@13.3734055,76.0564171,17z/data=!3m1!4b1!4m6!3m5!1s0x3bbac7a4a9aa84c3:0xc70a61614e18d2f2!8m2!3d13.3734055!4d76.0564171!16s%2Fg%2F11fx7vznx7?entry=ttu&g_ep=EgoyMDI1MDgwMy4wIKXMDSoASAFQAw%3D%3D"
  },
  {
    "name": "Prasanna Someshwara Temple",
    "lat": 13.1593675,
    "lng": 78.3853567,
    "url": "https://www.google.com/maps/place/%E0%B2%AA%E0%B3%81%E0%B2%B0%E0%B2%BE%E0%B2%A3+%E0%B2%AA%E0%B3%8D%E0%B2%B0%E0%B2%B8%E0%B2%BF%E0%B2%A6%E0%B3%8D%E0%B2%A7+%E0%B2%B6%E0%B3%8D%E0%B2%B0%E0%B3%80+%E0%B2%B8%E0%B3%8B%E0%B2%AE%E0%B3%87%E0%B2%B6%E0%B3%8D%E0%B2%B5%E0%B2%B0+%E0%B2%A6%E0%B3%87%E0%B2%B5%E0%B2%BE%E0%B2%B2%E0%B2%AF/@13.1593675,78.3853567,17z/data=!3m1!4b1!4m6!3m5!1s0x3bad8e9edbfc1f6d:0xe687e5b3c88ed710!8m2!3d13.1593675!4d78.3853567!16s%2Fg%2F1hm4mf4z_?entry=ttu&g_ep=EgoyMDI1MDgwNC4wIKXMDSoASAFQAw%3D%3D"
  },
  {
    "name": "Sri Thanthondri Amman Temple",
    "lat": 11.4591887,
    "lng": 77.5870475,
    "url": "https://www.google.com/maps/place/Sri+Thanthondri+Amman+Temple/@11.4591887,77.5870475,17z/data=!3m1!4b1!4m6!3m5!1s0x3ba941a196d2e75b:0x22665c6dc2787c38!8m2!3d11.4591887!4d77.5870475!16s%2Fg%2F11g1lv73dx?entry=ttu&g_ep=EgoyMDI1MDgwMy4wIKXMDSoASAFQAw%3D%3D"
  },
  {
    "name": "\u0936\u094d\u0930\u0940 \u092d\u0930\u0924 \u092e\u0902\u0926\u093f\u0930 \u0926\u093f\u0917\u0902\u092c\u0930 \u0905\u0916\u093e\u0921\u093c\u093e \u091a\u093f\u0924\u094d\u0930\u0915\u0942\u091f",
    "lat": 25.1774846,
    "lng": 80.8701863,
    "url": "https://www.google.com/maps/place/%E0%A4%B6%E0%A5%8D%E0%A4%B0%E0%A5%80+%E0%A4%AD%E0%A4%B0%E0%A4%A4+%E0%A4%AE%E0%A4%82%E0%A4%A6%E0%A4%BF%E0%A4%B0+%E0%A4%A6%E0%A4%BF%E0%A4%97%E0%A4%82%E0%A4%AC%E0%A4%B0+%E0%A4%85%E0%A4%96%E0%A4%BE%E0%A4%A1%E0%A4%BC%E0%A4%BE+%E0%A4%9A%E0%A4%BF%E0%A4%A4%E0%A5%8D%E0%A4%B0%E0%A4%95%E0%A5%82%E0%A4%9F/@25.1774846,80.8701863,17z/data=!3m1!4b1!4m6!3m5!1s0x3984a77dcd9c14f1:0x5a2a3739b2f9bc12!8m2!3d25.1774846!4d80.8701863!16s%2Fg%2F11gkvnhpwh?entry=ttu&g_ep=EgoyMDI1MDgwMy4wIKXMDSoASAFQAw%3D%3D"
  },
  {
    "name": "Vyas bet",
    "lat": 21.9244399,
    "lng": 73.4324032,
    "url": "https://www.google.com/maps/place/Vyas+bet/@21.9244399,73.4324032,17z/data=!3m1!4b1!4m6!3m5!1s0x395fe2cb1baa3bdb:0xdc76b4ab225dd39d!8m2!3d21.9244399!4d73.4324032!16s%2Fg%2F11c2mwh496?entry=ttu&g_ep=EgoyMDI1MDgwMy4wIKXMDSoASAFQAw%3D%3D"
  },
  {
    "name": "Shri Neelamega Perumal Raghunath ji Temple (Divya Desam)",
    "lat": 30.146157,
    "lng": 78.5986844,
    "url": "https://www.google.com/maps/place/Shri+Neelamega+Perumal+Raghunath+ji+Temple+(Divya+Desam)/@30.146157,78.5986844,17z/data=!3m1!4b1!4m6!3m5!1s0x39090912eac5c475:0x355901859143d746!8m2!3d30.146157!4d78.5986844!16s%2Fg%2F1hc8m4vck?entry=ttu&g_ep=EgoyMDI1MDgwMy4wIKXMDSoASAFQAw%3D%3D"
  },
  {
    "name": "QWJC+G39",
    "lat": 43.7812875,
    "lng": -120.0797656,
    "url": "https://www.google.com/maps/place/84MXQWJC%2BG3/@43.7812875,-120.0797656,17z/data=!3m1!4b1!4m4!3m3!8m2!3d43.7812875!4d-120.0797656?entry=ttu&g_ep=EgoyMDI1MDgwMy4wIKXMDSoASAFQAw%3D%3D"
  },
  {
    "name": "Kundaleshwar Mahadev",
    "lat": 30.2221436,
    "lng": 78.9020203,
    "url": "https://www.google.com/maps/place/Kundaleshwar+Mahadev+Temple/@30.2221436,78.9020203,17z/data=!3m1!4b1!4m6!3m5!1s0x3909bb55ff45eb17:0x427b3a6335bf67ec!8m2!3d30.2221436!4d78.9020203!16s%2Fg%2F11f77yt1hq?entry=ttu&g_ep=EgoyMDI1MDgwMy4wIKXMDSoASAFQAw%3D%3D"
  },
  {
    "name": "Shiva Temple KASHINTALA",
    "lat": 15.1522596,
    "lng": 78.5066194,
    "url": "https://www.google.com/maps/place/Shiva+Temple+KASHINTALA/@15.1522596,78.5066194,17z/data=!3m1!4b1!4m6!3m5!1s0x3bb45d3fe4fae123:0xf7bba0e19cb13ab5!8m2!3d15.1522596!4d78.5066194!16s%2Fg%2F11c4wx6fnx?entry=ttu&g_ep=EgoyMDI1MDgwMy4wIKXMDSoASAFQAw%3D%3D"
  },
  {
    "name": "Mangala Devi Kannagi Temple,Kerala",
    "lat": 9.5979679,
    "lng": 77.222011,
    "url": "https://www.google.com/maps/place/Sree+Mangala+Devi+Kannaki+Temple,+kerala/@9.5979679,77.222011,17z/data=!3m1!4b1!4m6!3m5!1s0x3b06ff15c933a817:0x5fa4aa28ad8315a5!8m2!3d9.5979679!4d77.222011!16s%2Fm%2F051xpq6?entry=ttu&g_ep=EgoyMDI1MDgwMy4wIKXMDSoASAFQAw%3D%3D"
  },
  {
    "name": "Hanuman Phatak",
    "lat": 44.2423649,
    "lng": -119.8093025,
    "url": "https://www.google.com/maps/place//@44.2423649,-119.8093025,3z/data=!3m1!4b1?entry=ttu&g_ep=EgoyMDI1MDgwNC4wIKXMDSoASAFQAw%3D%3D"
  },
  {
    "name": "Rudranath Temple, Rudraprayag",
    "lat": 30.28804,
    "lng": 78.979472,
    "url": "https://www.google.com/maps/place/Rudranath+Temple,+Rudraprayag+%E0%A4%B0%E0%A5%81%E0%A4%A6%E0%A5%8D%E0%A4%B0%E0%A4%A8%E0%A4%BE%E0%A4%A5+%E0%A4%AE%E0%A4%82%E0%A4%A6%E0%A4%BF%E0%A4%B0,+%E0%A4%B0%E0%A5%81%E0%A4%A6%E0%A5%8D%E0%A4%B0%E0%A4%AA%E0%A5%8D%E0%A4%B0%E0%A4%AF%E0%A4%BE%E0%A4%97/@30.28804,78.979472,17z/data=!3m1!4b1!4m6!3m5!1s0x3909b7a9f402fdc7:0x256f318a2dee851a!8m2!3d30.28804!4d78.979472!16s%2Fg%2F11h12t39r3?entry=ttu&g_ep=EgoyMDI1MDgwMy4wIKXMDSoASAFQAw%3D%3D"
  },
  {
    "name": "Shiva nandi",
    "lat": 15.5281901,
    "lng": 78.5841131,
    "url": "https://www.google.com/maps/place/Ancient+Chalukya+Shri+Shivanandi+Temple/@15.5281901,78.5841131,17z/data=!3m1!4b1!4m6!3m5!1s0x3bb5ab75cd60bad3:0xbf064d4911db190d!8m2!3d15.5281901!4d78.5841131!16s%2Fg%2F11b8t6x_t0?entry=ttu&g_ep=EgoyMDI1MDgwMy4wIKXMDSoASAFQAw%3D%3D"
  },
  {
    "name": "Pracheen Shiv Mandir",
    "lat": 26.72562,
    "lng": 80.8716337,
    "url": "https://www.google.com/maps/place/Pracheen+Shiv+Mandir(%E0%A4%AC%E0%A4%A1%E0%A4%BC%E0%A4%BE+%E0%A4%AE%E0%A4%82%E0%A4%A6%E0%A4%BF%E0%A4%B0)/@26.72562,80.8716337,17z/data=!3m1!4b1!4m6!3m5!1s0x399bf953c7157f91:0x4280c5d7987f3429!8m2!3d26.72562!4d80.8716337!16s%2Fg%2F11jk2d9zbz?entry=ttu&g_ep=EgoyMDI1MDgwMy4wIKXMDSoASAFQAw%3D%3D"
  },
  {
    "name": "Shri Sita Devi Devasthana (Avani)",
    "lat": 13.1089727,
    "lng": 78.3218215,
    "url": "https://www.google.com/maps/place/Sita+Devi+mandira+Avani+Betta/@13.1089727,78.3218215,17z/data=!3m1!4b1!4m6!3m5!1s0x3bad8d71baaaaaab:0xf5c988d0d41c8c11!8m2!3d13.1089727!4d78.3218215!16s%2Fg%2F11f0wmcf7w?entry=ttu&g_ep=EgoyMDI1MDgwMy4wIKXMDSoASAFQAw%3D%3D"
  },
  {
    "name": "Ancient Hoysala Shri Chandramouleshwara Temple",
    "lat": 13.2465148,
    "lng": 76.2251377,
    "url": "https://www.google.com/maps/place/Ancient+Hoysala+Shri+Chandramouleshwara+Temple/@13.2465148,76.2251377,17z/data=!3m1!4b1!4m6!3m5!1s0x3bbab232a95192f7:0x52dd035886a4267a!8m2!3d13.2465148!4d76.2251377!16s%2Fg%2F11fzf74yb7?entry=ttu&g_ep=EgoyMDI1MDgwMy4wIKXMDSoASAFQAw%3D%3D"
  },
  {
    "name": "Prachin Shiv Mandir",
    "lat": 19.1353647,
    "lng": 81.7428424,
    "url": "https://www.google.com/maps/place/Prachin+Shiv+Mandir/@19.1353647,81.7428424,17z/data=!3m1!4b1!4m6!3m5!1s0x3a303bae4d96437b:0xa3359a85768509a3!8m2!3d19.1353647!4d81.7428424!16s%2Fg%2F11c1ly3ntw?entry=ttu&g_ep=EgoyMDI1MDgwMy4wIKXMDSoASAFQAw%3D%3D"
  },
  {
    "name": "Adi Badri",
    "lat": 30.4577407,
    "lng": 77.3412047,
    "url": "https://www.google.com/maps/place/Aadi+Badri/@30.4577407,77.3412047,17z/data=!3m1!4b1!4m6!3m5!1s0x390f057d09a78e71:0x6b8b12154f21e7ed!8m2!3d30.4577407!4d77.3412047!16s%2Fg%2F11bwdtb_j4?entry=ttu&g_ep=EgoyMDI1MDgwMy4wIKXMDSoASAFQAw%3D%3D"
  },
  {
    "name": "Kondeshwar Temple, Govindpur",
    "lat": 20.8526579,
    "lng": 77.7864764,
    "url": "https://www.google.com/maps/place/Kondeshwar+Temple,+Govindpur/@20.8526579,77.7864764,17z/data=!3m1!4b1!4m6!3m5!1s0x3bd6a579727bf54b:0x447a404e6a878308!8m2!3d20.8526579!4d77.7864764!16s%2Fg%2F11cfbj0x6?entry=ttu&g_ep=EgoyMDI1MDgwMy4wIKXMDSoASAFQAw%3D%3D"
  },
  {
    "name": "Chenna Kesava Temple",
    "lat": 14.6792614,
    "lng": 78.6752794,
    "url": "https://www.google.com/maps/place/Chenna+Kesava+Temple/@14.6792614,78.6752794,17z/data=!3m1!4b1!4m6!3m5!1s0x3bb37fd76c62ec3b:0x9cf3c8f34338d386!8m2!3d14.6792614!4d78.6752794!16s%2Fg%2F11rn_z1rct?entry=ttu&g_ep=EgoyMDI1MDgwMy4wIKXMDSoASAFQAw%3D%3D"
  },
  {
    "name": "Shree lal nath Ji Ki Bageechi",
    "lat": 27.7867533,
    "lng": 75.2009706,
    "url": "https://www.google.com/maps/place/Shree+Lal+Nath+Ji+Ki+Bageechi/@27.7867533,75.2009706,17z/data=!3m1!4b1!4m6!3m5!1s0x396cb232aa75a6b3:0x3b51bc145f4fa25a!8m2!3d27.7867533!4d75.2009706!16s%2Fg%2F11fylwk0s9?entry=ttu&g_ep=EgoyMDI1MDgwMy4wIKXMDSoASAFQAw%3D%3D"
  },
  {
    "name": "Lord Shiva Temple - Mugaleshwara & Kamakshamba Devi",
    "lat": 13.2827616,
    "lng": 78.5645899,
    "url": "https://www.google.com/maps/place/Sri+Mogilishwara+%26+Kamakshamba+Devi+Temple/@13.2827616,78.5645899,17z/data=!3m1!4b1!4m6!3m5!1s0x3bad87553dd92c77:0xbc50108f1dcf26d4!8m2!3d13.2827616!4d78.5645899!16s%2Fg%2F11b5pj6pw8?entry=ttu&g_ep=EgoyMDI1MDgwMy4wIKXMDSoASAFQAw%3D%3D"
  },
  {
    "name": "Sri Palingeeshwarar Temple",
    "lat": 11.633798,
    "lng": 77.640867,
    "url": "https://www.google.com/maps/place/Sri+Palingeeshwarar+Temple/@11.633798,77.640867,17z/data=!3m1!4b1!4m6!3m5!1s0x3ba948ba957ceb87:0x3e31f96f78252778!8m2!3d11.633798!4d77.640867!16s%2Fg%2F11fz9zyyl9?entry=ttu&g_ep=EgoyMDI1MDgwMy4wIKXMDSoASAFQAw%3D%3D"
  },
  {
    "name": "Banshivat Temple (Maharaas Sthali), Vrindavan",
    "lat": 27.5858927,
    "lng": 77.7034523,
    "url": "https://www.google.com/maps/place/Banshivat+Temple+(Maharaas+Sthali),+Vrindavan/@27.5858927,77.7034523,17z/data=!3m1!4b1!4m6!3m5!1s0x39736fca75bf8ab3:0xe3127d3ed5fa1548!8m2!3d27.5858927!4d77.7034523!16s%2Fg%2F1xfsm499?entry=ttu&g_ep=EgoyMDI1MDgwMy4wIKXMDSoASAFQAw%3D%3D"
  },
  {
    "name": "Sri Shakuna Ranganaatha Temple",
    "lat": 13.4336325,
    "lng": 75.9231893,
    "url": "https://www.google.com/maps/place/Sri+Shakuna+Ranganatha+Swamy+Temple/@13.4336325,75.9231893,17z/data=!3m1!4b1!4m6!3m5!1s0x3bbac36802ecbe9b:0x6ddc6e8acc71cbeb!8m2!3d13.4336325!4d75.9231893!16s%2Fg%2F1ttdlfhg?entry=ttu&g_ep=EgoyMDI1MDgwMy4wIKXMDSoASAFQAw%3D%3D"
  },
  {
    "name": "Dewalgarh Mandir Rajrajeshwari",
    "lat": 30.218956,
    "lng": 78.8601141,
    "url": "https://www.google.com/maps/place/Dewalgarh+Mandir+Rajrajeshwari+Mata/@30.218956,78.8601141,17z/data=!3m1!4b1!4m6!3m5!1s0x3909babd8e22600d:0xb7f51832b5efe0fd!8m2!3d30.218956!4d78.8601141!16s%2Fg%2F11f_w2zvbd?entry=ttu&g_ep=EgoyMDI1MDgwMy4wIKXMDSoASAFQAw%3D%3D"
  },
  {
    "name": "Sri Ramalingswara and Bheemalingeswara Temple",
    "lat": 44.2423649,
    "lng": -119.8093025,
    "url": "https://www.google.com/maps/place//@44.2423649,-119.8093025,3z/data=!3m1!4b1?entry=ttu&g_ep=EgoyMDI1MDgwNC4wIKXMDSoASAFQAw%3D%3D"
  },
  {
    "name": "Ancient Shri Trilingeshwara Temple",
    "lat": 15.640968,
    "lng": 75.9512275,
    "url": "https://www.google.com/maps/place/Ancient+Shri+Trilingeshwara+Temple/@15.640968,75.9512275,17z/data=!3m1!4b1!4m6!3m5!1s0x3bb843a61a8746eb:0xe0e18cf799e131ac!8m2!3d15.640968!4d75.9512275!16s%2Fg%2F12hnctdl2?entry=ttu&g_ep=EgoyMDI1MDgwMy4wIKXMDSoASAFQAw%3D%3D"
  },
  {
    "name": "Janamae Jaya eeshwarar ancient siva temple",
    "lat": 13.0840948,
    "lng": 79.8272154,
    "url": "https://www.google.com/maps/place/Janamae+Jaya+eeshwarar+ancient+siva+temple/@13.0840948,79.8272154,17z/data=!3m1!4b1!4m6!3m5!1s0x3a52976874a27195:0xb83a278cc0da966f!8m2!3d13.0840948!4d79.8272154!16s%2Fg%2F11h065q5ws?entry=ttu&g_ep=EgoyMDI1MDgwMy4wIKXMDSoASAFQAw%3D%3D"
  },
  {
    "name": "Arthuna Group Of Temples",
    "lat": 23.4916637,
    "lng": 74.1027232,
    "url": "https://www.google.com/maps/place/Arthuna+Group+Of+Temples/@23.4916637,74.1027232,17z/data=!3m1!4b1!4m6!3m5!1s0x39672f426f7b8e49:0xaf97d51da91d42bb!8m2!3d23.4916637!4d74.1027232!16s%2Fg%2F1hjgl9_fr?entry=ttu&g_ep=EgoyMDI1MDgwMy4wIKXMDSoASAFQAw%3D%3D"
  },
  {
    "name": "Sree Chandramouliswara Swamy Temple",
    "lat": 17.3049642,
    "lng": 78.5934874,
    "url": "https://www.google.com/maps/place/Sree+Chandramouliswara+Swamy+Temple/@17.3049642,78.5934874,17z/data=!3m1!4b1!4m6!3m5!1s0x3bcba1a343f48369:0xc259960b33649cbe!8m2!3d17.3049642!4d78.5934874!16s%2Fg%2F11d_71vr0v?entry=ttu&g_ep=EgoyMDI1MDgwMy4wIKXMDSoASAFQAw%3D%3D"
  },
  {
    "name": "Pracheen Mahakali Devi Mandir",
    "lat": 26.1006901,
    "lng": 74.32312,
    "url": "https://www.google.com/maps/place/Pracheen+Mahakali+Devi+Mandir/@26.1006901,74.32312,17z/data=!3m1!4b1!4m6!3m5!1s0x396971d497ee5207:0xbd75149d3f2c779e!8m2!3d26.1006901!4d74.32312!16s%2Fg%2F11fhr1mrmn?entry=ttu&g_ep=EgoyMDI1MDgwMy4wIKXMDSoASAFQAw%3D%3D"
  },
  {
    "name": "Parasurameswara Temple",
    "lat": 44.2423649,
    "lng": -119.8093025,
    "url": "https://www.google.com/maps/place//@44.2423649,-119.8093025,3z/data=!3m1!4b1?entry=ttu&g_ep=EgoyMDI1MDgwMy4wIKXMDSoASAFQAw%3D%3D"
  },
  {
    "name": "Lakshmi Narayana Perumal Temple",
    "lat": 11.5226875,
    "lng": 77.5814531,
    "url": "https://www.google.com/maps/place/Lakshmi+Narayana+Perumal+Temple/@11.5226875,77.5814531,17z/data=!3m1!4b1!4m6!3m5!1s0x3ba940b68c12db1f:0xb768b685e3fea739!8m2!3d11.5226875!4d77.5814531!16s%2Fg%2F11r8gn503?entry=ttu&g_ep=EgoyMDI1MDgwMy4wIKXMDSoASAFQAw%3D%3D"
  },
  {
    "name": "Sarv Tirth Jatayu Mandir, Taked",
    "lat": 19.7003375,
    "lng": 73.7763594,
    "url": "https://www.google.com/maps/place/Sarvatirth+Jatayu+Mandir+(Taked)/@19.7003375,73.7763594,17z/data=!3m1!4b1!4m6!3m5!1s0x3bdd9915ee3843bd:0xa8c8bd73a800a66e!8m2!3d19.7003375!4d73.7763594!16s%2Fg%2F11b6cqm6m6?entry=ttu&g_ep=EgoyMDI1MDgwNC4wIKXMDSoASAFQAw%3D%3D"
  },
  {
    "name": "RAMNATH MANDIR",
    "lat": 24.3494254,
    "lng": 73.6955065,
    "url": "https://www.google.com/maps/place/RAMNATH+MANDIR/@24.3494254,73.6955065,17z/data=!3m1!4b1!4m6!3m5!1s0x396793e85988613f:0xc3f49baa915ac61d!8m2!3d24.3494254!4d73.6955065!16s%2Fg%2F11r_wjq8_k?entry=ttu&g_ep=EgoyMDI1MDgwMy4wIKXMDSoASAFQAw%3D%3D"
  },
  {
    "name": "Shri Ramalingeshwara Swami Temple",
    "lat": 13.106508,
    "lng": 78.3267142,
    "url": "https://www.google.com/maps/place/Shri+Ramalingeshwara+Swami+Temple/@13.106508,78.3267142,17z/data=!3m1!4b1!4m6!3m5!1s0x3bad8d6e2dc08559:0x385cabb4b582127f!8m2!3d13.106508!4d78.3267142!16s%2Fm%2F0zrncls?entry=ttu&g_ep=EgoyMDI1MDgwMy4wIKXMDSoASAFQAw%3D%3D"
  },
  {
    "name": "Nageshwar Mandir",
    "lat": 23.0309089,
    "lng": 75.2157426,
    "url": "https://www.google.com/maps/place/Nageshwar+Mandir/@23.0309089,75.2157426,17z/data=!3m1!4b1!4m6!3m5!1s0x3963c24487088a87:0x87565e6edb015ba2!8m2!3d23.0309089!4d75.2157426!16s%2Fg%2F1hm4kr44k?entry=ttu&g_ep=EgoyMDI1MDgwMy4wIKXMDSoASAFQAw%3D%3D"
  },
  {
    "name": "Lord Siva temple (Sivalayam)",
    "lat": 14.7786865,
    "lng": 78.4787239,
    "url": "https://www.google.com/maps/place/Lord+Siva+temple+(Sivalayam)/@14.7786865,78.4787239,17z/data=!3m1!4b1!4m6!3m5!1s0x3bb47903d7f8066f:0x85b716f54b8f60c!8m2!3d14.7786865!4d78.4787239!16s%2Fg%2F11fk54kxx7?entry=ttu&g_ep=EgoyMDI1MDgwMy4wIKXMDSoASAFQAw%3D%3D"
  },
  {
    "name": "Sri Ram Temple, Ghodabandh",
    "lat": 20.1619189,
    "lng": 83.4155524,
    "url": "https://www.google.com/maps/place/Sri+Ram+Temple,+Ghodabandh/@20.1619189,83.4155524,17z/data=!3m1!4b1!4m6!3m5!1s0x3a24887dc31e9957:0x60e8d699c67ae5d7!8m2!3d20.1619189!4d83.4155524!16s%2Fg%2F11hbgrrz_x?entry=ttu&g_ep=EgoyMDI1MDgwMy4wIKXMDSoASAFQAw%3D%3D"
  },
  {
    "name": "Old vishnalayam",
    "lat": 15.1686907,
    "lng": 79.713826,
    "url": "https://www.google.com/maps/place/Old+vishnalayam/@15.1686907,79.713826,17z/data=!3m1!4b1!4m6!3m5!1s0x3a4b4075ba4e2401:0xe71fdf8707d073cb!8m2!3d15.1686907!4d79.713826!16s%2Fg%2F11c5b0sgfr?entry=ttu&g_ep=EgoyMDI1MDgwMy4wIKXMDSoASAFQAw%3D%3D"
  },
  {
    "name": "\u0935\u093f\u0936\u094d\u0935\u0947\u0936\u094d\u0935\u0930 \u0927\u093e\u092e",
    "lat": 26.0397875,
    "lng": 80.576991,
    "url": "https://www.google.com/maps/place/%E0%A4%B5%E0%A4%BF%E0%A4%B6%E0%A5%8D%E0%A4%B5%E0%A5%87%E0%A4%B6%E0%A5%8D%E0%A4%B5%E0%A4%B0+%E0%A4%A7%E0%A4%BE%E0%A4%AE/@26.0397875,80.576991,17z/data=!3m1!4b1!4m6!3m5!1s0x399c893d53a05695:0x9d88ed1a3378e702!8m2!3d26.0397875!4d80.576991!16s%2Fg%2F11gfbqcp92?entry=ttu&g_ep=EgoyMDI1MDgwMy4wIKXMDSoASAFQAw%3D%3D"
  },
  {
    "name": "Prachin Maa Dudhakhedi Mataji Mandir",
    "lat": 23.7940653,
    "lng": 75.8098691,
    "url": "https://www.google.com/maps/place/Prachin+Maa+Dudhakhedi+Mataji+Mandir/@23.7940653,75.8098691,17z/data=!3m1!4b1!4m6!3m5!1s0x39648d86515d1e89:0x5a76b3736499e1a9!8m2!3d23.7940653!4d75.8098691!16s%2Fg%2F11fkqd1rp8?entry=ttu&g_ep=EgoyMDI1MDgwMy4wIKXMDSoASAFQAw%3D%3D"
  },
  {
    "name": "Prachin Shiv Mandir",
    "lat": 25.9142343,
    "lng": 83.4077739,
    "url": "https://www.google.com/maps/place/Prachin+Shiv+Mandir/@25.9142343,83.4077739,17z/data=!3m1!4b1!4m6!3m5!1s0x399193e173f80ec1:0x7ae68c4f4a20ae9a!8m2!3d25.9142343!4d83.4077739!16s%2Fg%2F11ff0v5xrv?entry=ttu&g_ep=EgoyMDI1MDgwNC4wIKXMDSoASAFQAw%3D%3D"
  },
  {
    "name": "Narsimha Tirth",
    "lat": 19.6307067,
    "lng": 76.5361899,
    "url": "https://www.google.com/maps/place/Ancient+Chalukya+Shri+Narasimha+Tirth/@19.6307067,76.5361899,17z/data=!3m1!4b1!4m6!3m5!1s0x3bd079e2b94d144f:0x15e8c9c92b6c1253!8m2!3d19.6307067!4d76.5361899!16s%2Fg%2F1v1vbngk?entry=ttu&g_ep=EgoyMDI1MDgwMy4wIKXMDSoASAFQAw%3D%3D"
  },
  {
    "name": "Nageshwar Temple",
    "lat": 18.07237,
    "lng": 73.7906219,
    "url": "https://www.google.com/maps/place/Nageshwar+Temple/@18.07237,73.7906219,17z/data=!3m1!4b1!4m6!3m5!1s0x3bc261adcc7f7ad7:0xc1079f70ab388c9d!8m2!3d18.07237!4d73.7906219!16s%2Fg%2F1hc0srvjr?entry=ttu&g_ep=EgoyMDI1MDgwMy4wIKXMDSoASAFQAw%3D%3D"
  },
  {
    "name": "Archaeological site 1",
    "lat": 26.139823,
    "lng": 90.68155,
    "url": "https://www.google.com/maps/place/Archaeological+site+1/@26.139823,90.68155,17z/data=!3m1!4b1!4m6!3m5!1s0x3759b17c3717b7f9:0x7f17f4803e44c363!8m2!3d26.139823!4d90.68155!16s%2Fg%2F11qgl5cfrf?entry=ttu&g_ep=EgoyMDI1MDgwMy4wIKXMDSoASAFQAw%3D%3D"
  },
  {
    "name": "Khakinath Maharaj Temple, Ajanti",
    "lat": 20.5096347,
    "lng": 77.8202562,
    "url": "https://www.google.com/maps/place/Khakinath+Maharaj+Temple,+Ajanti/@20.5096347,77.8202562,17z/data=!3m1!4b1!4m6!3m5!1s0x3bd150db79ea5f8b:0x580fa177434d4b76!8m2!3d20.5096347!4d77.8202562!16s%2Fg%2F11bw46vzck?entry=ttu&g_ep=EgoyMDI1MDgwMy4wIKXMDSoASAFQAw%3D%3D"
  },
  {
    "name": "Shree Shool Tankeshwar Mahadev Temple",
    "lat": 25.3065711,
    "lng": 83.0102645,
    "url": "https://www.google.com/maps/place/Shree+Shool+Tankeshwar+Mahadev+Temple/@25.3065711,83.0102645,17z/data=!3m1!4b1!4m6!3m5!1s0x398e31e1e8652d83:0xd19bec6e40d135a3!8m2!3d25.3065711!4d83.0102645!16s%2Fg%2F11b6rxpwmc?entry=ttu&g_ep=EgoyMDI1MDgwNC4wIKXMDSoASAFQAw%3D%3D"
  },
  {
    "name": "Ranganatha Swami Temple",
    "lat": 17.8155751,
    "lng": 78.075064,
    "url": "https://www.google.com/maps/place/Ranganatha+Swami+Temple/@17.8155751,78.075064,17z/data=!3m1!4b1!4m6!3m5!1s0x3bcc05af99ef7ed3:0x954baa9d48567751!8m2!3d17.8155751!4d78.075064!16s%2Fg%2F11dyzg32tw?entry=ttu&g_ep=EgoyMDI1MDgwMy4wIKXMDSoASAFQAw%3D%3D"
  },
  {
    "name": "Shri Jirawala Parshwanath Temple",
    "lat": 25.7368331,
    "lng": 73.3417731,
    "url": "https://www.google.com/maps/place/Shri+Jirawala+Parshwanath+Temple/@25.7368331,73.3417731,17z/data=!3m1!4b1!4m6!3m5!1s0x394273dc7093f781:0xe50c092e70012d49!8m2!3d25.7368331!4d73.3417731!16s%2Fg%2F11h9xvzjpv?entry=ttu&g_ep=EgoyMDI1MDgwMy4wIKXMDSoASAFQAw%3D%3D"
  },
  {
    "name": "Bondrai Temple",
    "lat": 18.7842959,
    "lng": 73.2202528,
    "url": "https://www.google.com/maps/place/Bondrai+Temple/@18.7842959,73.2202528,17z/data=!3m1!4b1!4m6!3m5!1s0x3be809d02d942abb:0x11dbe06dafd03d5b!8m2!3d18.7842959!4d73.2202528!16s%2Fg%2F11c31xhf6k?entry=ttu&g_ep=EgoyMDI1MDgwMy4wIKXMDSoASAFQAw%3D%3D"
  },
  {
    "name": "Lord Shiva Temple",
    "lat": 44.2423649,
    "lng": -119.8093025,
    "url": "https://www.google.com/maps/place//@44.2423649,-119.8093025,3z/data=!3m1!4b1?entry=ttu&g_ep=EgoyMDI1MDgwMy4wIKXMDSoASAFQAw%3D%3D"
  },
  {
    "name": "Shri SIddheshwar Maharaj Temple, Kolhapur.",
    "lat": 16.7041823,
    "lng": 74.2155356,
    "url": "https://www.google.com/maps/place/Shri+SIddheshwar+Maharaj+Temple,+Kolhapur./@16.7041823,74.2155356,17z/data=!3m1!4b1!4m6!3m5!1s0x3bc1ab5d8a1ab237:0x242f880fddd2a003!8m2!3d16.7041823!4d74.2155356!16s%2Fg%2F11ptln95w5?entry=ttu&g_ep=EgoyMDI1MDgwMy4wIKXMDSoASAFQAw%3D%3D"
  },
  {
    "name": "Prachin Shree Satyanarayan Mandir (\u092a\u094d\u0930\u093e\u091a\u0940\u0928 \u0936\u094d\u0930\u0940 \u0938\u0924\u094d\u092f\u0928\u093e\u0930\u093e\u092f\u0923 \u092e\u0902\u0926\u093f\u0930)",
    "lat": 23.189452,
    "lng": 75.768784,
    "url": "https://www.google.com/maps/place/Prachin+Shree+Satyanarayan+Mandir+(%E0%A4%AA%E0%A5%8D%E0%A4%B0%E0%A4%BE%E0%A4%9A%E0%A5%80%E0%A4%A8+%E0%A4%B6%E0%A5%8D%E0%A4%B0%E0%A5%80+%E0%A4%B8%E0%A4%A4%E0%A5%8D%E0%A4%AF%E0%A4%A8%E0%A4%BE%E0%A4%B0%E0%A4%BE%E0%A4%AF%E0%A4%A3+%E0%A4%AE%E0%A4%82%E0%A4%A6%E0%A4%BF%E0%A4%B0)/@23.189452,75.768784,17z/data=!3m1!4b1!4m6!3m5!1s0x396374311ca67337:0xe5f94d7fd7ee87a0!8m2!3d23.189452!4d75.768784!16s%2Fg%2F12nvb2y5d?entry=ttu&g_ep=EgoyMDI1MDgwMy4wIKXMDSoASAFQAw%3D%3D"
  },
  {
    "name": "Mahaganapati Temple",
    "lat": 17.9525851,
    "lng": 73.8861204,
    "url": "https://www.google.com/maps/place/Maha+Ganapati+Temple/@17.9525851,73.8861204,17z/data=!3m1!4b1!4m6!3m5!1s0x3bc25d20e07ee50b:0x48282850814168e2!8m2!3d17.9525851!4d73.8861204!16s%2Fg%2F1hm34l45q?entry=ttu&g_ep=EgoyMDI1MDgwMy4wIKXMDSoASAFQAw%3D%3D"
  },
  {
    "name": "Shri Wakeshwar Mandir",
    "lat": 17.9311752,
    "lng": 73.9067309,
    "url": "https://www.google.com/maps/place/Shri+Wakeshwar+Mandir/@17.9311752,73.9067309,17z/data=!3m1!4b1!4m6!3m5!1s0x3bc243340b20e29d:0xc2a24281a487dfd5!8m2!3d17.9311752!4d73.9067309!16s%2Fg%2F11cnb6bgtk?entry=ttu&g_ep=EgoyMDI1MDgwMy4wIKXMDSoASAFQAw%3D%3D"
  },
  {
    "name": "Prachin Shiv Mandir",
    "lat": 24.2411779,
    "lng": 80.8576678,
    "url": "https://www.google.com/maps/place/Prachin+Shiv+Mandir/@24.2411779,80.8576678,17z/data=!3m1!4b1!4m6!3m5!1s0x39840b2d78906e33:0x76d6c24af4c96f4d!8m2!3d24.2411779!4d80.8576678!16s%2Fg%2F11fk3jzmzw?entry=ttu&g_ep=EgoyMDI1MDgwMy4wIKXMDSoASAFQAw%3D%3D"
  },
  {
    "name": "Kedareshwar temple",
    "lat": 18.0821252,
    "lng": 73.9386263,
    "url": "https://www.google.com/maps/place/Kedareshwar+temple/@18.0821252,73.9386263,17z/data=!3m1!4b1!4m6!3m5!1s0x3bc259a1c11f41fd:0x7865ff6e9351c4d9!8m2!3d18.0821252!4d73.9386263!16s%2Fg%2F11h04lbtz8?entry=ttu&g_ep=EgoyMDI1MDgwNC4wIKXMDSoASAFQAw%3D%3D"
  },
  {
    "name": "Varadsut Datta Mandir",
    "lat": 19.3795803,
    "lng": 75.6377897,
    "url": "https://www.google.com/maps/place/Varadsut+Datta+Mandir/@19.3795803,75.6377897,17z/data=!3m1!4b1!4m6!3m5!1s0x3bdb1f726ff998b3:0xb9877088f988166!8m2!3d19.3795803!4d75.6377897!16s%2Fg%2F11gxmtp55q?entry=ttu&g_ep=EgoyMDI1MDgwMy4wIKXMDSoASAFQAw%3D%3D"
  },
  {
    "name": "Jain Mandir Tiwari",
    "lat": 26.5492454,
    "lng": 72.8864544,
    "url": "https://www.google.com/maps/place/Jain+Mandir+Tiwari/@26.5492454,72.8864544,17z/data=!3m1!4b1!4m6!3m5!1s0x3941a31b4b1b97af:0xee40d620a68aa3e8!8m2!3d26.5492454!4d72.8864544!16s%2Fg%2F11rg9kxnmc?entry=ttu&g_ep=EgoyMDI1MDgwMy4wIKXMDSoASAFQAw%3D%3D"
  },
  {
    "name": "Harihareshwar Mandir",
    "lat": 17.9523819,
    "lng": 73.8881743,
    "url": "https://www.google.com/maps/place/Shree+Harihareshwar+Mahadev+Mandir/@17.9523819,73.8881743,17z/data=!3m1!4b1!4m6!3m5!1s0x3bc25d20a4f09037:0xba07a06593f16dff!8m2!3d17.9523819!4d73.8881743!16s%2Fg%2F1td6dy25?entry=ttu&g_ep=EgoyMDI1MDgwMy4wIKXMDSoASAFQAw%3D%3D"
  },
  {
    "name": "Shitala Mata Mandir",
    "lat": 25.306348,
    "lng": 83.0100036,
    "url": "https://www.google.com/maps/place/Siddhapith+Shri+Badi+Shitala+Mata+Mandir/@25.306348,83.0100036,17z/data=!3m1!4b1!4m6!3m5!1s0x398e31e1ed4e0cd7:0xb1f1d0e24cc7c7ef!8m2!3d25.306348!4d83.0100036!16s%2Fg%2F11c1lhskqn?entry=ttu&g_ep=EgoyMDI1MDgwMy4wIKXMDSoASAFQAw%3D%3D"
  },
  {
    "name": "Shree Jaleshwar Mahadev Mandir, Paldi, Patan",
    "lat": 23.887514,
    "lng": 72.1566666,
    "url": "https://www.google.com/maps/place/Shree+Jaleshwar+Mahadev+Mandir,+Paldi,+Patan/@23.887514,72.1566666,17z/data=!3m1!4b1!4m6!3m5!1s0x395c886263d414eb:0xaee98e171bf9bf51!8m2!3d23.887514!4d72.1566666!16s%2Fg%2F11d_tgw775?entry=ttu&g_ep=EgoyMDI1MDgwMy4wIKXMDSoASAFQAw%3D%3D"
  },
  {
    "name": "Gulsunde Shiva Temple",
    "lat": 18.8757331,
    "lng": 73.1566873,
    "url": "https://www.google.com/maps/place/Shiva+Temple,+Gulsunde/@18.8757331,73.1566873,17z/data=!3m1!4b1!4m6!3m5!1s0x3be7e135d9340595:0x83e8f58c678302a2!8m2!3d18.8757331!4d73.1566873!16s%2Fg%2F1hd_gp2zl?entry=ttu&g_ep=EgoyMDI1MDgwMy4wIKXMDSoASAFQAw%3D%3D"
  },
  {
    "name": "Dharmpuri Ghat, Wai",
    "lat": 17.9521072,
    "lng": 73.8882118,
    "url": "https://www.google.com/maps/place/Shri+Krishnabai+Sansthan+Ghat+Dharmpuri+Wai/@17.9521072,73.8882118,17z/data=!3m1!4b1!4m6!3m5!1s0x3bc25d20b06bfc77:0x7def9879322170e8!8m2!3d17.9521072!4d73.8882118!16s%2Fg%2F11hbpwvpvm?entry=ttu&g_ep=EgoyMDI1MDgwMy4wIKXMDSoASAFQAw%3D%3D"
  },
  {
    "name": "shree Vashupujya swami mandir tinwari",
    "lat": 26.5498458,
    "lng": 72.8852229,
    "url": "https://www.google.com/maps/place/shree+Vashupujya+swami+mandir+tinwari/@26.5498458,72.8852229,17z/data=!3m1!4b1!4m6!3m5!1s0x3941a35ce4bc41d5:0x48d4a775ef4a32ac!8m2!3d26.5498458!4d72.8852229!16s%2Fg%2F11ptyh_2lr?entry=ttu&g_ep=EgoyMDI1MDgwMy4wIKXMDSoASAFQAw%3D%3D"
  },
  {
    "name": "Baaneshwar Mandir",
    "lat": 17.9520513,
    "lng": 73.8916767,
    "url": "https://www.google.com/maps/place/Baaneshwar+Mandir/@17.9520513,73.8916767,17z/data=!3m1!4b1!4m6!3m5!1s0x3bc25d068c66c431:0x705f011b9d9892ca!8m2!3d17.9520513!4d73.8916767!16s%2Fg%2F11pdwbgfqk?entry=ttu&g_ep=EgoyMDI1MDgwMy4wIKXMDSoASAFQAw%3D%3D"
  },
  {
    "name": "Ganesh temple Rohtash garh Fort",
    "lat": 24.6193804,
    "lng": 83.915731,
    "url": "https://www.google.com/maps/place/Ganesh+temple+Rohtash+garh+Fort/@24.6193804,83.915731,17z/data=!3m1!4b1!4m6!3m5!1s0x398c37c1668e4f91:0xa4d9a0602d2011ec!8m2!3d24.6193804!4d83.915731!16s%2Fg%2F11gf60yk1w?entry=ttu&g_ep=EgoyMDI1MDgwMy4wIKXMDSoASAFQAw%3D%3D"
  },
  {
    "name": "shree jagdish bhagvan mandir jagdish",
    "lat": 25.4606574,
    "lng": 74.0574733,
    "url": "https://www.google.com/maps/place/shree+jagdish+bhagvan+mandir+jagdish/@25.4606574,74.0574733,17z/data=!3m1!4b1!4m6!3m5!1s0x3968523e91248307:0xfbf34f75839dd7f!8m2!3d25.4606574!4d74.0574733!16s%2Fg%2F11bwp5xb7m?entry=ttu&g_ep=EgoyMDI1MDgwMy4wIKXMDSoASAFQAw%3D%3D"
  },
  {
    "name": "Siva Temple",
    "lat": 17.1684106,
    "lng": 78.4629611,
    "url": "https://www.google.com/maps/place/Siva+Temple/@17.1684106,78.4629611,17z/data=!3m1!4b1!4m6!3m5!1s0x3bcbbbae7e18cb5f:0x87b8d676f90e7a08!8m2!3d17.1684106!4d78.4629611!16s%2Fg%2F11fsmy00nn?entry=ttu&g_ep=EgoyMDI1MDgwMy4wIKXMDSoASAFQAw%3D%3D"
  },
  {
    "name": "Laxmi Mandir",
    "lat": 17.9536271,
    "lng": 73.8891989,
    "url": "https://www.google.com/maps/place/Laxmi+Mandir/@17.9536271,73.8891989,17z/data=!3m1!4b1!4m6!3m5!1s0x3bc25d20812533f5:0x65d5d854f08dacb9!8m2!3d17.9536271!4d73.8891989!16s%2Fg%2F1td9z3qw?entry=ttu&g_ep=EgoyMDI1MDgwMy4wIKXMDSoASAFQAw%3D%3D"
  },
  {
    "name": "Mahadev Ji Temple",
    "lat": 25.6798322,
    "lng": 72.590099,
    "url": "https://www.google.com/maps/place/Mahadev+Ji+Temple/@25.6798322,72.590099,17z/data=!3m1!4b1!4m6!3m5!1s0x3943b6f4a2ea8a61:0x11936d7f32dae882!8m2!3d25.6798322!4d72.590099!16s%2Fg%2F11c5470kxr?entry=ttu&g_ep=EgoyMDI1MDgwMy4wIKXMDSoASAFQAw%3D%3D"
  },
  {
    "name": "Prachin Shiv Mandir Shiv Veer Singh Rajawat",
    "lat": 26.4413369,
    "lng": 80.0440475,
    "url": "https://www.google.com/maps/place/Prachin+Shiv+Mandir+Shiv+Veer+Singh+Rajawat/@26.4413369,80.0440475,17z/data=!3m1!4b1!4m6!3m5!1s0x399db53c094b8d4f:0x3c149d81a57a0bc7!8m2!3d26.4413369!4d80.0440475!16s%2Fg%2F11rvbpxfd5?entry=ttu&g_ep=EgoyMDI1MDgwMy4wIKXMDSoASAFQAw%3D%3D"
  },
  {
    "name": "Lord Shiva Temple , Ranjangaondevi ( Dattu Najan)",
    "lat": 19.4408419,
    "lng": 74.9855535,
    "url": "https://www.google.com/maps/place/Lord+Shiva+Temple+,+Ranjangaondevi+(+Dattu+Najan)/@19.4408419,74.9855535,17z/data=!3m1!4b1!4m6!3m5!1s0x3bdb63edcd886547:0xc4be76ac4d5a5a61!8m2!3d19.4408419!4d74.9855535!16s%2Fg%2F11f659r2ln?entry=ttu&g_ep=EgoyMDI1MDgwMy4wIKXMDSoASAFQAw%3D%3D"
  },
  {
    "name": "Prachin Shiv Temple Bhatib (JAGESHWAR MAHADEV)",
    "lat": 24.6062856,
    "lng": 72.0561605,
    "url": "https://www.google.com/maps/place/Prachin+Shiv+Temple+Bhatib+(JAGESHWAR+MAHADEV)/@24.6062856,72.0561605,17z/data=!3m1!4b1!4m6!3m5!1s0x394353799bd54743:0x3d3ecd98b311418!8m2!3d24.6062856!4d72.0561605!16s%2Fg%2F11f_b_1bfx?entry=ttu&g_ep=EgoyMDI1MDgwMy4wIKXMDSoASAFQAw%3D%3D"
  },
  {
    "name": "SHIV TEMPLE",
    "lat": 25.8452188,
    "lng": 83.3048469,
    "url": "https://www.google.com/maps/place/SHIV+TEMPLE/@25.8452188,83.3048469,17z/data=!3m1!4b1!4m6!3m5!1s0x3991eb08b040936f:0x798a6ea7e0600b2e!8m2!3d25.8452188!4d83.3048469!16s%2Fg%2F11cn677y5r?entry=ttu&g_ep=EgoyMDI1MDgwMy4wIKXMDSoASAFQAw%3D%3D"
  },
  {
    "name": "Shri Naag Vasuki Mandir",
    "lat": 25.4570944,
    "lng": 81.8843481,
    "url": "https://www.google.com/maps/place/Shri+Nagvasuki+Mandir/@25.4570944,81.8843481,17z/data=!3m1!4b1!4m6!3m5!1s0x399ab5413b990cf9:0x784b8544788a324c!8m2!3d25.4570944!4d81.8843481!16s%2Fg%2F11c3k9xf7h?entry=ttu&g_ep=EgoyMDI1MDgwMy4wIKXMDSoASAFQAw%3D%3D"
  },
  {
    "name": "\u09b8\u09cb\u09a8\u09be\u09b0\u0982 \u099c\u09cb\u09dc\u09be \u09ae\u09a0",
    "lat": 23.5224375,
    "lng": 90.4591875,
    "url": "https://www.google.com/maps/place/Sonarong+Jora+Moth/@23.5224375,90.4591875,17z/data=!3m1!4b1!4m6!3m5!1s0x3755af778881c36d:0xf14b69ef06918cd1!8m2!3d23.5224375!4d90.4591875!16s%2Fg%2F11clt0x946?entry=ttu&g_ep=EgoyMDI1MDgwMy4wIKXMDSoASAFQAw%3D%3D"
  },
  {
    "name": "Kamaleshwar Temple",
    "lat": 26.487053,
    "lng": 80.3437765,
    "url": "https://www.google.com/maps/place/Kamaleshwar+Temple/@26.487053,80.3437765,17z/data=!3m1!4b1!4m6!3m5!1s0x399c3989528548fd:0x1afa7ec17e28181b!8m2!3d26.487053!4d80.3437765!16s%2Fg%2F11g0tpr74w?entry=ttu&g_ep=EgoyMDI1MDgwMy4wIKXMDSoASAFQAw%3D%3D"
  },
  {
    "name": "Kukarra Math shiv temple \u0915\u0941\u0915\u0930\u094d\u0930\u093e\u092e\u0920 \u0936\u093f\u0935 \u092e\u0902\u0926\u093f\u0930",
    "lat": 22.8649592,
    "lng": 81.166234,
    "url": "https://www.google.com/maps/place/Kukarra+Math+shiv+temple+%E0%A4%95%E0%A5%81%E0%A4%95%E0%A4%B0%E0%A5%8D%E0%A4%B0%E0%A4%BE%E0%A4%AE%E0%A4%A0+%E0%A4%B6%E0%A4%BF%E0%A4%B5+%E0%A4%AE%E0%A4%82%E0%A4%A6%E0%A4%BF%E0%A4%B0/@22.8649592,81.166234,17z/data=!3m1!4b1!4m6!3m5!1s0x398717cb0dacb935:0x9fa5f4b33649f57e!8m2!3d22.8649592!4d81.166234!16s%2Fg%2F11l29wl456?entry=ttu&g_ep=EgoyMDI1MDgwMy4wIKXMDSoASAFQAw%3D%3D"
  },
  {
    "name": "Prachin Shiv Mandir Bhaithana",
    "lat": 26.3229548,
    "lng": 80.1011257,
    "url": "https://www.google.com/maps/place/Prachin+Shiv+Mandir+Bhaithana/@26.3229548,80.1011257,17z/data=!3m1!4b1!4m6!3m5!1s0x399c4d6623361125:0x707d639f212a184f!8m2!3d26.3229548!4d80.1011257!16s%2Fg%2F11qjk24jrm?entry=ttu&g_ep=EgoyMDI1MDgwMy4wIKXMDSoASAFQAw%3D%3D"
  },
  {
    "name": "shri mahadev temple",
    "lat": 17.9516439,
    "lng": 73.8895627,
    "url": "https://www.google.com/maps/place/shri+mahadev+temple/@17.9516439,73.8895627,17z/data=!3m1!4b1!4m6!3m5!1s0x3bc25d045c46c8bf:0x40e6c4732ced2018!8m2!3d17.9516439!4d73.8895627!16s%2Fg%2F11s5dv36m4?entry=ttu&g_ep=EgoyMDI1MDgwMy4wIKXMDSoASAFQAw%3D%3D"
  },
  {
    "name": "Shyamsiddhir Moth",
    "lat": 23.5396458,
    "lng": 90.2741835,
    "url": "https://www.google.com/maps/place/Shyamsiddhir+Moth/@23.5396458,90.2741835,17z/data=!3m1!4b1!4m6!3m5!1s0x37559844f99ff5fb:0x785f23ff864fca89!8m2!3d23.5396458!4d90.2741835!16s%2Fg%2F11clsy2mj1?entry=ttu&g_ep=EgoyMDI1MDgwMy4wIKXMDSoASAFQAw%3D%3D"
  },
  {
    "name": "Prachin Shiv Mandir",
    "lat": 26.5081305,
    "lng": 80.2058424,
    "url": "https://www.google.com/maps/place/Prachin+Panchmukhi+Shiv+Mandir/@26.5081305,80.2058424,17z/data=!3m1!4b1!4m6!3m5!1s0x399c37533fdc74e3:0xd61c20bf14c8e76f!8m2!3d26.5081305!4d80.2058424!16s%2Fg%2F11lrkgkrrf?entry=ttu&g_ep=EgoyMDI1MDgwMy4wIKXMDSoASAFQAw%3D%3D"
  },
  {
    "name": "Mari Aai Mandir",
    "lat": 21.012503,
    "lng": 75.278636,
    "url": "https://www.google.com/maps/place/Mari+Aai+Mandir/@21.012503,75.278636,17z/data=!3m1!4b1!4m6!3m5!1s0x3bd93d98f93bb40b:0x2b50fbbdb0d80458!8m2!3d21.012503!4d75.278636!16s%2Fg%2F11gnsrx0c7?entry=ttu&g_ep=EgoyMDI1MDgwMy4wIKXMDSoASAFQAw%3D%3D"
  },
  {
    "name": "Shri Thakurji Prachin Mandir Vaniyap",
    "lat": 23.5575219,
    "lng": 74.0214057,
    "url": "https://www.google.com/maps/place/Shri+Thakurji+Prachin+Mandir+Vaniyap/@23.5575219,74.0214057,17z/data=!3m1!4b1!4m6!3m5!1s0x39673bbd255e0047:0x94488421499b5a95!8m2!3d23.5575219!4d74.0214057!16s%2Fg%2F11tmyfb9mn?entry=ttu&g_ep=EgoyMDI1MDgwNC4wIKXMDSoASAFQAw%3D%3D"
  },
  {
    "name": "Sarvapaapa Vinasheshwara Temple",
    "lat": 14.594501,
    "lng": 78.7605335,
    "url": "https://www.google.com/maps/place/Sarvapaapa+Vinasheshwara+Temple/@14.594501,78.7605335,17z/data=!3m1!4b1!4m6!3m5!1s0x3bb37a17c078741b:0xc5bc97e477857fc9!8m2!3d14.594501!4d78.7605335!16s%2Fg%2F11gfhcvgb3?entry=ttu&g_ep=EgoyMDI1MDgwMy4wIKXMDSoASAFQAw%3D%3D"
  },
  {
    "name": "Sun Temple Soorgaon \u0938\u0942\u0930\u094d\u092f \u092e\u0902\u0926\u093f\u0930 \u0938\u0942\u0901\u0930\u0917\u093e\u0935",
    "lat": 21.8281473,
    "lng": 77.8911076,
    "url": "https://www.google.com/maps/place/Shiva+temple+soorgaon/@21.8281473,77.8911076,17z/data=!3m1!4b1!4m6!3m5!1s0x3bd60afa51979bab:0x7020e15837169d80!8m2!3d21.8281473!4d77.8911076!16s%2Fg%2F11fz8wylh3?entry=ttu&g_ep=EgoyMDI1MDgwMy4wIKXMDSoASAFQAw%3D%3D"
  },
  {
    "name": "Bhima Shankar Temple",
    "lat": 17.9864715,
    "lng": 73.8981464,
    "url": "https://www.google.com/maps/place/Bhima+Shankar+Temple/@17.9864715,73.8981464,17z/data=!3m1!4b1!4m6!3m5!1s0x3bc25c572c9db6cb:0x1085a79de8dff8a1!8m2!3d17.9864715!4d73.8981464!16s%2Fg%2F11c2npssfn?entry=ttu&g_ep=EgoyMDI1MDgwMy4wIKXMDSoASAFQAw%3D%3D"
  },
  {
    "name": "shiv Temple",
    "lat": 24.2848058,
    "lng": 72.1726685,
    "url": "https://www.google.com/maps/place/shiv+Temple/@24.2848058,72.1726685,17z/data=!3m1!4b1!4m6!3m5!1s0x395cbc93bd88556d:0xe8e7a49576628abb!8m2!3d24.2848058!4d72.1726685!16s%2Fg%2F11fz9hwdt8?entry=ttu&g_ep=EgoyMDI1MDgwMy4wIKXMDSoASAFQAw%3D%3D"
  },
  {
    "name": "Prachin Balaji Mandir digo",
    "lat": 26.5879149,
    "lng": 76.4009928,
    "url": "https://www.google.com/maps/place/Prachin+Balaji+Mandir+digo/@26.5879149,76.4009928,17z/data=!3m1!4b1!4m6!3m5!1s0x396dfedd74a8443f:0xf6e21da24b86032d!8m2!3d26.5879149!4d76.4009928!16s%2Fg%2F11gdt_qzmg?entry=ttu&g_ep=EgoyMDI1MDgwMy4wIKXMDSoASAFQAw%3D%3D"
  },
  {
    "name": "Prachin Shiv Mandir",
    "lat": 27.0781273,
    "lng": 80.2790043,
    "url": "https://www.google.com/maps/place/Prachin+Shiv+Mandir/@27.0781273,80.2790043,17z/data=!3m1!4b1!4m6!3m5!1s0x399e916244481f25:0x549dcd645eaacac7!8m2!3d27.0781273!4d80.2790043!16s%2Fg%2F11vhccsym3?entry=ttu&g_ep=EgoyMDI1MDgwMy4wIKXMDSoASAFQAw%3D%3D"
  },
  {
    "name": "Yellammadevi Mandir",
    "lat": 17.0364505,
    "lng": 75.2198079,
    "url": "https://www.google.com/maps/place/Yellammadevi+Mandir/@17.0364505,75.2198079,17z/data=!3m1!4b1!4m6!3m5!1s0x3bc6c69998c56025:0xb14127c778307102!8m2!3d17.0364505!4d75.2198079!16s%2Fg%2F113ft0vpk?entry=ttu&g_ep=EgoyMDI1MDgwMy4wIKXMDSoASAFQAw%3D%3D"
  },
  {
    "name": "Ancient Shri Puradeeshwara Temple",
    "lat": 15.4269772,
    "lng": 75.437615,
    "url": "https://www.google.com/maps/place/Ancient+Shri+Puradeeshwara+Temple/@15.4269772,75.437615,17z/data=!3m1!4b1!4m6!3m5!1s0x3bb8e428f9da8389:0x8a51a934f4294fc5!8m2!3d15.4269772!4d75.437615!16s%2Fg%2F11f2wppvlm?entry=ttu&g_ep=EgoyMDI1MDgwNC4wIKXMDSoASAFQAw%3D%3D"
  },
  {
    "name": "Shiv Mandir",
    "lat": 26.3889931,
    "lng": 80.5719418,
    "url": "https://www.google.com/maps/place/Shiv+Mandir/@26.3889931,80.5719418,17z/data=!3m1!4b1!4m6!3m5!1s0x399c6f70fdf95c23:0xcaacea8a64281440!8m2!3d26.3889931!4d80.5719418!16s%2Fg%2F11qpxlnj_l?entry=ttu&g_ep=EgoyMDI1MDgwMy4wIKXMDSoASAFQAw%3D%3D"
  },
  {
    "name": "Gararia Temple",
    "lat": 23.9121426,
    "lng": 90.4955264,
    "url": "https://www.google.com/maps/place/Gararia+Temple/@23.9121426,90.4955264,17z/data=!3m1!4b1!4m6!3m5!1s0x3755ce5a031fc0d5:0xd939b7d41a489193!8m2!3d23.9121426!4d90.4955264!16s%2Fg%2F11bymt11y3?entry=ttu&g_ep=EgoyMDI1MDgwMy4wIKXMDSoASAFQAw%3D%3D"
  },
  {
    "name": "Old Shiva Mandir",
    "lat": 26.46944,
    "lng": 80.3287717,
    "url": "https://www.google.com/maps/place/Old+Shiva+Mandir/@26.46944,80.3287717,17z/data=!3m1!4b1!4m6!3m5!1s0x399c39f169c840ef:0x57c698ae0db0813f!8m2!3d26.46944!4d80.3287717!16s%2Fg%2F11hf8ys9pr?entry=ttu&g_ep=EgoyMDI1MDgwMy4wIKXMDSoASAFQAw%3D%3D"
  },
  {
    "name": "Nagnath Mandir",
    "lat": 16.8231079,
    "lng": 74.3936037,
    "url": "https://www.google.com/maps/place/Nagnath+Mandir/@16.8231079,74.3936037,17z/data=!3m1!4b1!4m6!3m5!1s0x3bc104d9d6cfd6e9:0x5da87b951ac731fe!8m2!3d16.8231079!4d74.3936037!16s%2Fg%2F11f__1_nc4?entry=ttu&g_ep=EgoyMDI1MDgwMy4wIKXMDSoASAFQAw%3D%3D"
  },
  {
    "name": "Krishna Temple",
    "lat": 26.9474572,
    "lng": 72.2407223,
    "url": "https://www.google.com/maps/place/Krishna+Temple/@26.9474572,72.2407223,17z/data=!3m1!4b1!4m6!3m5!1s0x3940dca138c08d59:0x755bc75ea4ac077a!8m2!3d26.9474572!4d72.2407223!16s%2Fg%2F11dfv2jdm1?entry=ttu&g_ep=EgoyMDI1MDgwMy4wIKXMDSoASAFQAw%3D%3D"
  },
  {
    "name": "Prachin shiv mandir (Gangauli)",
    "lat": 26.2079328,
    "lng": 84.2742172,
    "url": "https://www.google.com/maps/place/Prachin+shiv+mandir+(Gangauli)/@26.2079328,84.2742172,17z/data=!3m1!4b1!4m6!3m5!1s0x3992f946353a9c0d:0xbd06a436d740adbc!8m2!3d26.2079328!4d84.2742172!16s%2Fg%2F11q1t211cm?entry=ttu&g_ep=EgoyMDI1MDgwMy4wIKXMDSoASAFQAw%3D%3D"
  },
  {
    "name": "Prachin shiv mandir",
    "lat": 26.0895783,
    "lng": 80.2600333,
    "url": "https://www.google.com/maps/place/Prachin+shiv+mandir/@26.0895783,80.2600333,17z/data=!3m1!4b1!4m6!3m5!1s0x399c57dd87212e27:0x507b077023160183!8m2!3d26.0895783!4d80.2600333!16s%2Fg%2F11tt6b0b7x?entry=ttu&g_ep=EgoyMDI1MDgwMy4wIKXMDSoASAFQAw%3D%3D"
  },
  {
    "name": "Shiv mandir pancharatnaa",
    "lat": 26.1967172,
    "lng": 90.5702821,
    "url": "https://www.google.com/maps/place/Shiv+mandir+pancharatnaa/@26.1967172,90.5702821,17z/data=!3m1!4b1!4m6!3m5!1s0x37584dea18af9c49:0x368b9b823b2984a7!8m2!3d26.1967172!4d90.5702821!16s%2Fg%2F11k05b87dt?entry=ttu&g_ep=EgoyMDI1MDgwMy4wIKXMDSoASAFQAw%3D%3D"
  },
  {
    "name": "\u092a\u094d\u0930\u093e\u091a\u0940\u0928 \u0936\u093f\u0935 \u092e\u0902\u0926\u093f\u0930",
    "lat": 22.1475369,
    "lng": 75.3398693,
    "url": "https://www.google.com/maps/place/%E0%A4%AA%E0%A5%8D%E0%A4%B0%E0%A4%BE%E0%A4%9A%E0%A5%80%E0%A4%A8+%E0%A4%B6%E0%A4%BF%E0%A4%B5+%E0%A4%AE%E0%A4%82%E0%A4%A6%E0%A4%BF%E0%A4%B0/@22.1475369,75.3398693,17z/data=!3m1!4b1!4m6!3m5!1s0x396213a9a62e62d9:0x7b5e0881a7b1e3d1!8m2!3d22.1475369!4d75.3398693!16s%2Fg%2F11khkjxs4j?entry=ttu&g_ep=EgoyMDI1MDgwMy4wIKXMDSoASAFQAw%3D%3D"
  },
  {
    "name": "Bamu Chak Temple",
    "lat": 32.4840361,
    "lng": 74.9147847,
    "url": "https://www.google.com/maps/place/Bamu+Chak+Temple/@32.4840361,74.9147847,17z/data=!3m1!4b1!4m6!3m5!1s0x391ea1ae9c6d3271:0x35b65ca6f5a18926!8m2!3d32.4840361!4d74.9147847!16s%2Fg%2F11cntjf9rv?entry=ttu&g_ep=EgoyMDI1MDgwMy4wIKXMDSoASAFQAw%3D%3D"
  },
  {
    "name": "Shree Panchmukha Mahadev Mandir",
    "lat": 25.9240622,
    "lng": 72.2545793,
    "url": "https://www.google.com/maps/place/Shree+Panchmukha+Mahadev+Mandir/@25.9240622,72.2545793,17z/data=!3m1!4b1!4m6!3m5!1s0x3943e68c045a427f:0x400aa0d41ef8f3f8!8m2!3d25.9240622!4d72.2545793!16s%2Fg%2F11f29xhn32?entry=ttu&g_ep=EgoyMDI1MDgwMy4wIKXMDSoASAFQAw%3D%3D"
  },
  {
    "name": "Dhruweshwar shiv mandir(56 chappan ganapati)",
    "lat": 25.311234,
    "lng": 83.0042139,
    "url": "https://www.google.com/maps/place/Dhruweshwar+shiv+mandir/@25.311234,83.0042139,17z/data=!3m1!4b1!4m6!3m5!1s0x398e2f1c28f9dc49:0x20a1d6d1da0443a2!8m2!3d25.311234!4d83.0042139!16s%2Fg%2F11h0t5rmrs?entry=ttu&g_ep=EgoyMDI1MDgwMy4wIKXMDSoASAFQAw%3D%3D"
  },
  {
    "name": "Shiv Ji Praacheen Temple",
    "lat": 26.0371412,
    "lng": 80.4387123,
    "url": "https://www.google.com/maps/place/Shiv+Ji+Praacheen+Temple/@26.0371412,80.4387123,17z/data=!3m1!4b1!4m6!3m5!1s0x399cf4c4025af91f:0x5e7d6d3c1743e27c!8m2!3d26.0371412!4d80.4387123!16s%2Fg%2F11fxcfhpx_?entry=ttu&g_ep=EgoyMDI1MDgwMy4wIKXMDSoASAFQAw%3D%3D"
  },
  {
    "name": "Mindaji Temple",
    "lat": 44.2423649,
    "lng": -119.8093025,
    "url": "https://www.google.com/maps/place//@44.2423649,-119.8093025,3z/data=!3m1!4b1?entry=ttu&g_ep=EgoyMDI1MDgwNC4wIKXMDSoASAFQAw%3D%3D"
  },
  {
    "name": "\u0924\u094d\u0930\u092f\u092e\u094d\u092c\u0915\u0947\u0936\u094d\u0935\u0930 \u0927\u093e\u092e",
    "lat": 26.3893279,
    "lng": 80.1948168,
    "url": "https://www.google.com/maps/place/%E0%A4%A4%E0%A5%8D%E0%A4%B0%E0%A4%AF%E0%A4%AE%E0%A5%8D%E0%A4%AC%E0%A4%95%E0%A5%87%E0%A4%B6%E0%A5%8D%E0%A4%B5%E0%A4%B0+%E0%A4%A7%E0%A4%BE%E0%A4%AE/@26.3893279,80.1948168,17z/data=!3m1!4b1!4m6!3m5!1s0x399c496766a12c8d:0x39a41426b479abc6!8m2!3d26.3893279!4d80.1948168!16s%2Fg%2F11c30qkhtq?entry=ttu&g_ep=EgoyMDI1MDgwMy4wIKXMDSoASAFQAw%3D%3D"
  },
  {
    "name": "Kaleswar Temple",
    "lat": 19.1199519,
    "lng": 77.2838657,
    "url": "https://www.google.com/maps/place/Kaleshwar+Mandir+Vishnupuri/@19.1199519,77.2838657,17z/data=!3m1!4b1!4m6!3m5!1s0x3bce2a01a3d8675d:0x5ec36295ff5ac693!8m2!3d19.1199519!4d77.2838657!16s%2Fg%2F11bxfw_bk6?entry=ttu&g_ep=EgoyMDI1MDgwMy4wIKXMDSoASAFQAw%3D%3D"
  },
  {
    "name": "Jagmohan Temple",
    "lat": 25.6881182,
    "lng": 73.5476491,
    "url": "https://www.google.com/maps/place/Jagmohan+Temple/@25.6881182,73.5476491,17z/data=!3m1!4b1!4m6!3m5!1s0x3969d98d8a79c693:0x45ea800d0d249521!8m2!3d25.6881182!4d73.5476491!16s%2Fg%2F1ptws00cd?entry=ttu&g_ep=EgoyMDI1MDgwMy4wIKXMDSoASAFQAw%3D%3D"
  },
  {
    "name": "Shri Kashi Vishweshwar Mandir",
    "lat": 17.9529391,
    "lng": 73.8861083,
    "url": "https://www.google.com/maps/place/Shri+Kashi+Vishweshwar+Mandir/@17.9529391,73.8861083,17z/data=!3m1!4b1!4m6!3m5!1s0x3bc25d050e0291d7:0xe1d3ec86956ef968!8m2!3d17.9529391!4d73.8861083!16s%2Fg%2F11rvb47500?entry=ttu&g_ep=EgoyMDI1MDgwNC4wIKXMDSoASAFQAw%3D%3D"
  },
  {
    "name": "Bhuteshwar Mahadev Temple",
    "lat": 26.7138775,
    "lng": 77.5478478,
    "url": "https://www.google.com/maps/place/Bhuteshwar+Mahadev+Temple/@26.7138775,77.5478478,17z/data=!3m1!4b1!4m6!3m5!1s0x3973de084d8bb91b:0xfa58cc00a9cd42aa!8m2!3d26.7138775!4d77.5478478!16s%2Fg%2F11d_7t9q57?entry=ttu&g_ep=EgoyMDI1MDgwMy4wIKXMDSoASAFQAw%3D%3D"
  },
  {
    "name": "Ancient Shiv Temple, Mahadwadi",
    "lat": 20.4117159,
    "lng": 79.4888192,
    "url": "https://www.google.com/maps/place/Ancient+Shiv+Temple,+Mahadwadi/@20.4117159,79.4888192,17z/data=!3m1!4b1!4m6!3m5!1s0x3a2cb7eca46c2fab:0x81ad4ee921848218!8m2!3d20.4117159!4d79.4888192!16s%2Fg%2F11kywh6bm_?entry=ttu&g_ep=EgoyMDI1MDgwMy4wIKXMDSoASAFQAw%3D%3D"
  },
  {
    "name": "Ancient Jain Temple Ruins",
    "lat": 19.9467015,
    "lng": 73.5897229,
    "url": "https://www.google.com/maps/place/Ancient+Jain+Temple+Ruins/@19.9467015,73.5897229,17z/data=!3m1!4b1!4m6!3m5!1s0x3bddf3bc978be61f:0xc301ebe86c8d5db9!8m2!3d19.9467015!4d73.5897229!16s%2Fg%2F11jz76bs4w?entry=ttu&g_ep=EgoyMDI1MDgwMy4wIKXMDSoASAFQAw%3D%3D"
  },
  {
    "name": "Khalia Raja Ram Temple",
    "lat": 23.2236538,
    "lng": 90.0052612,
    "url": "https://www.google.com/maps/place/Khalia+Raja+Ram+Temple/@23.2236538,90.0052612,17z/data=!3m1!4b1!4m6!3m5!1s0x37557de494252d85:0xbc1f4eba6b7836a8!8m2!3d23.2236538!4d90.0052612!16s%2Fg%2F11c2y89szq?entry=ttu&g_ep=EgoyMDI1MDgwNC4wIKXMDSoASAFQAw%3D%3D"
  },
  {
    "name": "Someshwar Temple",
    "lat": 17.6883523,
    "lng": 74.0482271,
    "url": "https://www.google.com/maps/place/Someshwar+Temple/@17.6883523,74.0482271,17z/data=!3m1!4b1!4m6!3m5!1s0x3bc23746ac2b5517:0x31f0036822efbdf5!8m2!3d17.6883523!4d74.0482271!16s%2Fg%2F11dxj0ljtf?entry=ttu&g_ep=EgoyMDI1MDgwMy4wIKXMDSoASAFQAw%3D%3D"
  },
  {
    "name": "Shri puratathvik prachin shiv mandir",
    "lat": 22.3194545,
    "lng": 75.0971529,
    "url": "https://www.google.com/maps/place/Shri+puratathvik+prachin+shiv+mandir/@22.3194545,75.0971529,17z/data=!3m1!4b1!4m6!3m5!1s0x396223a9f60f4ab3:0x8da4a65279c89a7b!8m2!3d22.3194545!4d75.0971529!16s%2Fg%2F11tpb9ld0c?entry=ttu&g_ep=EgoyMDI1MDgwMy4wIKXMDSoASAFQAw%3D%3D"
  },
  {
    "name": "450 \u0935\u0930\u094d\u0937 \u092a\u094d\u0930\u093e\u091a\u0940\u0928 \u0936\u093f\u0935 \u092e\u0902\u0926\u093f\u0930",
    "lat": 26.3805995,
    "lng": 79.9500477,
    "url": "https://www.google.com/maps/place/450+%E0%A4%B5%E0%A4%B0%E0%A5%8D%E0%A4%B7+%E0%A4%AA%E0%A5%8D%E0%A4%B0%E0%A4%BE%E0%A4%9A%E0%A5%80%E0%A4%A8+%E0%A4%B6%E0%A4%BF%E0%A4%B5+%E0%A4%AE%E0%A4%82%E0%A4%A6%E0%A4%BF%E0%A4%B0/@26.3805995,79.9500477,17z/data=!3m1!4b1!4m6!3m5!1s0x399db71055555555:0x75f77e277e09909b!8m2!3d26.3805995!4d79.9500477!16s%2Fg%2F11f0_gktqy?entry=ttu&g_ep=EgoyMDI1MDgwMy4wIKXMDSoASAFQAw%3D%3D"
  },
  {
    "name": "Sangmeshwar mahadev",
    "lat": 23.425604,
    "lng": 74.005787,
    "url": "https://www.google.com/maps/place/Sangmeshwar+mahadev+mandir/@23.425604,74.005787,17z/data=!3m1!4b1!4m6!3m5!1s0x3967310bbdcb6263:0x3e785a494485c18d!8m2!3d23.425604!4d74.005787!16s%2Fg%2F11t5jb7ly1?entry=ttu&g_ep=EgoyMDI1MDgwMy4wIKXMDSoASAFQAw%3D%3D"
  },
  {
    "name": "Gopinath Temple",
    "lat": 24.2757533,
    "lng": 90.7897335,
    "url": "https://www.google.com/maps/place/Gopinath+Temple/@24.2757533,90.7897335,17z/data=!3m1!4b1!4m6!3m5!1s0x37569b0709b9a0c1:0xa7d240276486fc20!8m2!3d24.2757533!4d90.7897335!16s%2Fg%2F1tnpjcby?entry=ttu&g_ep=EgoyMDI1MDgwMy4wIKXMDSoASAFQAw%3D%3D"
  },
  {
    "name": "Kuber Mandir",
    "lat": 24.0422729,
    "lng": 75.0743695,
    "url": "https://www.google.com/maps/place/Kuber+mandir/@24.0422729,75.0743695,17z/data=!3m1!4b1!4m6!3m5!1s0x39642ec64babb2e5:0xd84cc0260014862d!8m2!3d24.0422729!4d75.0743695!16s%2Fg%2F11gbzck4t6?entry=ttu&g_ep=EgoyMDI1MDgwNC4wIKXMDSoASAFQAw%3D%3D"
  },
  {
    "name": "Chintaman Ganesh Mandir",
    "lat": 22.684145,
    "lng": 75.8354773,
    "url": "https://www.google.com/maps/place/Chintaman+Ganesh+Mandir/@22.684145,75.8354773,17z/data=!3m1!4b1!4m6!3m5!1s0x3962fc467a710669:0x5adbf8703127e481!8m2!3d22.684145!4d75.8354773!16s%2Fg%2F1q65cxjvz?entry=ttu&g_ep=EgoyMDI1MDgwMy4wIKXMDSoASAFQAw%3D%3D"
  },
  {
    "name": "Hareshwar Mandir",
    "lat": 16.6350463,
    "lng": 74.1316848,
    "url": "https://www.google.com/maps/place/Hareshwar+Mandir/@16.6350463,74.1316848,17z/data=!3m1!4b1!4m6!3m5!1s0x3bc0549b3a16d009:0x599068f9ce203217!8m2!3d16.6350463!4d74.1316848!16s%2Fg%2F11c574s2sj?entry=ttu&g_ep=EgoyMDI1MDgwMy4wIKXMDSoASAFQAw%3D%3D"
  },
  {
    "name": "Kubja Sangam Shiva Mandir",
    "lat": 22.1463498,
    "lng": 75.3402455,
    "url": "https://www.google.com/maps/place/Kubja+Sangam+Shiva+Mandir/@22.1463498,75.3402455,17z/data=!3m1!4b1!4m6!3m5!1s0x396213b4a6904fe9:0xccb0d601e4176ce5!8m2!3d22.1463498!4d75.3402455!16s%2Fg%2F11rq3_5wng?entry=ttu&g_ep=EgoyMDI1MDgwMy4wIKXMDSoASAFQAw%3D%3D"
  },
  {
    "name": "Shri Vishnu Mandir Wai",
    "lat": 17.9539582,
    "lng": 73.8886299,
    "url": "https://www.google.com/maps/place/Shri+Vishnu+Mandir+Wai/@17.9539582,73.8886299,17z/data=!3m1!4b1!4m6!3m5!1s0x3bc25d20812533f5:0x7dc404b55f848d01!8m2!3d17.9539582!4d73.8886299!16s%2Fg%2F1tct750z?entry=ttu&g_ep=EgoyMDI1MDgwMy4wIKXMDSoASAFQAw%3D%3D"
  },
  {
    "name": "Pracheen Shiv Mandir",
    "lat": 29.332404,
    "lng": 77.6140318,
    "url": "https://www.google.com/maps/place/Pracheen+Shiv+Mandir/@29.332404,77.6140318,17z/data=!3m1!4b1!4m6!3m5!1s0x390c1721021ec239:0x9c5ad1113009246d!8m2!3d29.332404!4d77.6140318!16s%2Fg%2F11frl3p_hx?entry=ttu&g_ep=EgoyMDI1MDgwMy4wIKXMDSoASAFQAw%3D%3D"
  },
  {
    "name": "Prachin Shiv Mandir",
    "lat": 25.9155277,
    "lng": 84.0790102,
    "url": "https://www.google.com/maps/place/Prachin+Shiv+Mandir/@25.9155277,84.0790102,17z/data=!3m1!4b1!4m6!3m5!1s0x39926932ff4d5879:0x106d0cc351917047!8m2!3d25.9155277!4d84.0790102!16s%2Fg%2F11f66chnq7?entry=ttu&g_ep=EgoyMDI1MDgwMy4wIKXMDSoASAFQAw%3D%3D"
  },
  {
    "name": "Raj Shoshanshwari- Shiv Mondir",
    "lat": 24.0069419,
    "lng": 90.4306562,
    "url": "https://www.google.com/maps/place/Raj+Shoshanshwari-+Shiv+Mondir/@24.0069419,90.4306562,17z/data=!3m1!4b1!4m6!3m5!1s0x3755da5de4feaaf7:0x5feda8a708cbafa1!8m2!3d24.0069419!4d90.4306562!16s%2Fg%2F11c1r3bn57?entry=ttu&g_ep=EgoyMDI1MDgwMy4wIKXMDSoASAFQAw%3D%3D"
  },
  {
    "name": "Pancha lingeswara temple, nice place located at sedam",
    "lat": 17.1771245,
    "lng": 77.2923478,
    "url": "https://www.google.com/maps/place/Ancient+Sedam+Shri+Panchalingeshwara+Temple/@17.1771245,77.2923478,17z/data=!3m1!4b1!4m6!3m5!1s0x3bc919517e6c2d6f:0xa9ed2ff66135ac0c!8m2!3d17.1771245!4d77.2923478!16s%2Fg%2F1hjh3lh70?entry=ttu&g_ep=EgoyMDI1MDgwMy4wIKXMDSoASAFQAw%3D%3D"
  },
  {
    "name": "Shailani Gadi Old Shiv Mandir",
    "lat": 22.2438726,
    "lng": 76.193717,
    "url": "https://www.google.com/maps/place/Shailani+Gadi+Old+Shiv+Mandir/@22.2438726,76.193717,17z/data=!3m1!4b1!4m6!3m5!1s0x3962bb691717bb43:0xc01fa1a087a480ba!8m2!3d22.2438726!4d76.193717!16s%2Fg%2F11hb6pwt5g?entry=ttu&g_ep=EgoyMDI1MDgwMy4wIKXMDSoASAFQAw%3D%3D"
  },
  {
    "name": "Shri Kanchidevara Betta",
    "lat": 13.7505339,
    "lng": 76.5190026,
    "url": "https://www.google.com/maps/place/Shri+Kanchidevara+Betta+%E0%B2%B6%E0%B3%8D%E0%B2%B0%E0%B3%80+%E0%B2%95%E0%B2%82%E0%B2%9A%E0%B2%BF%E0%B2%A6%E0%B3%87%E0%B2%B5%E0%B2%B0+%E0%B2%AC%E0%B3%86%E0%B2%9F%E0%B3%8D%E0%B2%9F/@13.7505339,76.5190026,17z/data=!3m1!4b1!4m6!3m5!1s0x3bb079b8b88ba8f9:0xece1ebd914a90481!8m2!3d13.7505339!4d76.5190026!16s%2Fg%2F11fzssscrs?entry=ttu&g_ep=EgoyMDI1MDgwMy4wIKXMDSoASAFQAw%3D%3D"
  },
  {
    "name": "Kashi Vishweshwar Temple",
    "lat": 17.1839126,
    "lng": 73.5571092,
    "url": "https://www.google.com/maps/place/Chalukya+style+Shri+Kashi+Vishweshwar+Temple/@17.1839126,73.5571092,17z/data=!3m1!4b1!4m6!3m5!1s0x3bc1fd18ff82518f:0xb1f06a6d4067b286!8m2!3d17.1839126!4d73.5571092!16s%2Fg%2F11rqwd7stf?entry=ttu&g_ep=EgoyMDI1MDgwMy4wIKXMDSoASAFQAw%3D%3D"
  },
  {
    "name": "Prachin Shankar Mandir Ruvavi",
    "lat": 23.7693071,
    "lng": 72.3006234,
    "url": "https://www.google.com/maps/place/Prachin+Shankar+Mandir+Ruvavi/@23.7693071,72.3006234,17z/data=!3m1!4b1!4m6!3m5!1s0x395c60cca27fcee7:0xee503b021e74d978!8m2!3d23.7693071!4d72.3006234!16s%2Fg%2F11fxccvgvg?entry=ttu&g_ep=EgoyMDI1MDgwMy4wIKXMDSoASAFQAw%3D%3D"
  },
  {
    "name": "KHANDESHWARI MATA TEMPLE, BHAWALE CAVES",
    "lat": 19.3137422,
    "lng": 73.1364756,
    "url": "https://www.google.com/maps/place/Lonad+caves/@19.3137422,73.1364756,17z/data=!3m1!4b1!4m6!3m5!1s0x3be797aa014bc3b5:0x69eeacf79b829304!8m2!3d19.3137422!4d73.1364756!16s%2Fg%2F11h1m50jxv?entry=ttu&g_ep=EgoyMDI1MDgwMy4wIKXMDSoASAFQAw%3D%3D"
  },
  {
    "name": "Perur Patteeshwarar Temple",
    "lat": 10.9758551,
    "lng": 76.9147848,
    "url": "https://www.google.com/maps/place/Perur+Patteeswarar+Temple/@10.9758551,76.9147848,17z/data=!3m1!4b1!4m6!3m5!1s0x3ba85f74f59085f5:0xa7a1b1cae67c8813!8m2!3d10.9758551!4d76.9147848!16s%2Fm%2F0g9yl27?entry=ttu&g_ep=EgoyMDI1MDgwMy4wIKXMDSoASAFQAw%3D%3D"
  },
  {
    "name": "Bhagwant shankar parvati math",
    "lat": 27.2676633,
    "lng": 83.7105605,
    "url": "https://www.google.com/maps/place/Bhagwant+shankar+parvati+math/@27.2676633,83.7105605,17z/data=!3m1!4b1!4m6!3m5!1s0x39941b27815af311:0x5a7e8c923a5353b2!8m2!3d27.2676633!4d83.7105605!16s%2Fg%2F11qpx89npl?entry=ttu&g_ep=EgoyMDI1MDgwMy4wIKXMDSoASAFQAw%3D%3D"
  },
  {
    "name": "\u0936\u093f\u0935 \u092e\u0902\u0926\u093f\u0930 , \u092a\u0940\u092a\u0932 \u091a\u094c\u0930\u093e\u0939\u093e",
    "lat": 24.3763375,
    "lng": 81.2944494,
    "url": "https://www.google.com/maps/place/%E0%A4%B6%E0%A4%BF%E0%A4%B5+%E0%A4%AE%E0%A4%82%E0%A4%A6%E0%A4%BF%E0%A4%B0+,+%E0%A4%AA%E0%A5%80%E0%A4%AA%E0%A4%B2+%E0%A4%9A%E0%A5%8C%E0%A4%B0%E0%A4%BE%E0%A4%B9%E0%A4%BE/@24.3763375,81.2944494,17z/data=!3m1!4b1!4m6!3m5!1s0x39844560dc966d59:0x961129a59ad7299e!8m2!3d24.3763375!4d81.2944494!16s%2Fg%2F11fhzthsq4?entry=ttu&g_ep=EgoyMDI1MDgwMy4wIKXMDSoASAFQAw%3D%3D"
  },
  {
    "name": "Gayasheela Math",
    "lat": 22.254991,
    "lng": 76.1598543,
    "url": "https://www.google.com/maps/place/Gayasheela+Math/@22.254991,76.1598543,17z/data=!3m1!4b1!4m6!3m5!1s0x3962bddab3f6ff7f:0x1e46f07b143311f3!8m2!3d22.254991!4d76.1598543!16s%2Fg%2F11t13_l7wz?entry=ttu&g_ep=EgoyMDI1MDgwMy4wIKXMDSoASAFQAw%3D%3D"
  },
  {
    "name": "Thenparagkundram Rock Cut Cave Temple",
    "lat": 9.8739875,
    "lng": 78.0707969,
    "url": "https://www.google.com/maps/place/Tiruparankundram+Rock+Cut+Cave+Temple/@9.8739875,78.0707969,17z/data=!3m1!4b1!4m6!3m5!1s0x3b00cfd40af65d13:0x231539fa6b1243e1!8m2!3d9.8739875!4d78.0707969!16s%2Fg%2F1th7wsl_?entry=ttu&g_ep=EgoyMDI1MDgwMy4wIKXMDSoASAFQAw%3D%3D"
  },
  {
    "name": "Shree Siddeshwar Devastana, Ankali",
    "lat": 16.5460947,
    "lng": 74.6747393,
    "url": "https://www.google.com/maps/place/Shree+avaduthsidd+Devastana,+Ankali/@16.5460947,74.6747393,17z/data=!3m1!4b1!4m6!3m5!1s0x3bc0dcbcce0a15b5:0x33b7ecccc93edaec!8m2!3d16.5460947!4d74.6747393!16s%2Fg%2F11b7fr7z95?entry=ttu&g_ep=EgoyMDI1MDgwMy4wIKXMDSoASAFQAw%3D%3D"
  },
  {
    "name": "Murali Manohar Mandir \u091c\u092f \u0930\u093e\u092e \u0926\u093e\u0938 \u092c\u093e\u092c\u093e",
    "lat": 26.3893435,
    "lng": 78.206615,
    "url": "https://www.google.com/maps/place/Murli+Manohar+(Jay+Ramdas+Baba)+Mandir+Parvat+Wale,+Shanichara/@26.3893435,78.206615,17z/data=!3m1!4b1!4m6!3m5!1s0x3976beb20a103bdf:0x3deb056acde95e03!8m2!3d26.3893435!4d78.206615!16s%2Fg%2F11gzr8b1l?entry=ttu&g_ep=EgoyMDI1MDgwMy4wIKXMDSoASAFQAw%3D%3D"
  },
  {
    "name": "Sidhh Prachin Mandir - Santoshi Mata",
    "lat": 27.5854556,
    "lng": 77.6967974,
    "url": "https://www.google.com/maps/place/Sidhh+Prachin+Mandir+-+Santoshi+Mata/@27.5854556,77.6967974,17z/data=!3m1!4b1!4m6!3m5!1s0x39736e357e88448d:0x67f67b85bd6a3f25!8m2!3d27.5854556!4d77.6967974!16s%2Fg%2F11gf8gd8nl?entry=ttu&g_ep=EgoyMDI1MDgwMy4wIKXMDSoASAFQAw%3D%3D"
  },
  {
    "name": "Shree Banknath Atal Darbaar Mandir",
    "lat": 22.2332907,
    "lng": 75.084959,
    "url": "https://www.google.com/maps/place/Shree+Banknath+Atal+Darbaar+Mandir/@22.2332907,75.084959,17z/data=!3m1!4b1!4m6!3m5!1s0x396219951a5912d9:0xcc1ad3d549aa8424!8m2!3d22.2332907!4d75.084959!16s%2Fg%2F11rxwwx7t2?entry=ttu&g_ep=EgoyMDI1MDgwMy4wIKXMDSoASAFQAw%3D%3D"
  },
  {
    "name": "Arulmigu Subramaniya Swami Temple,",
    "lat": 9.8801912,
    "lng": 78.0713851,
    "url": "https://www.google.com/maps/place/Arulmigu+Subramaniya+Swami+Temple,+Tirupparankundram/@9.8801912,78.0713851,17z/data=!3m1!4b1!4m6!3m5!1s0x3b00cfce0abf5a1f:0x68aff2db4d1e7c1a!8m2!3d9.8801912!4d78.0713851!16s%2Fm%2F026g0v2?entry=ttu&g_ep=EgoyMDI1MDgwMy4wIKXMDSoASAFQAw%3D%3D"
  },
  {
    "name": "Hanuman Temple",
    "lat": 16.9491597,
    "lng": 76.6222528,
    "url": "https://www.google.com/maps/place/Hanuman+Temple/@16.9491597,76.6222528,17z/data=!3m1!4b1!4m6!3m5!1s0x3bc885e6f392d2ff:0xfb369cc0db938aae!8m2!3d16.9491597!4d76.6222528!16s%2Fg%2F11hd4qnsln?entry=ttu&g_ep=EgoyMDI1MDgwNC4wIKXMDSoASAFQAw%3D%3D"
  },
  {
    "name": "Haldeshwar Mahadev Temple",
    "lat": 25.5585544,
    "lng": 72.3479406,
    "url": "https://www.google.com/maps/place/Haldeshwar+Mahadev+Temple/@25.5585544,72.3479406,17z/data=!3m1!4b1!4m6!3m5!1s0x3943bd76baf89f7b:0xcf6f1b1ed2e30cf8!8m2!3d25.5585544!4d72.3479406!16s%2Fg%2F1hdzndwfm?entry=ttu&g_ep=EgoyMDI1MDgwMy4wIKXMDSoASAFQAw%3D%3D"
  },
  {
    "name": "Shree Navgrah Mandir",
    "lat": 21.830695,
    "lng": 75.604582,
    "url": "https://www.google.com/maps/place/Shree+Navgrah+Mandir/@21.830695,75.604582,17z/data=!3m1!4b1!4m6!3m5!1s0x3bd885db3c3f0637:0x44a4841cbd2b0037!8m2!3d21.830695!4d75.604582!16s%2Fg%2F1th7lb_x?entry=ttu&g_ep=EgoyMDI1MDgwMy4wIKXMDSoASAFQAw%3D%3D"
  },
  {
    "name": "Prachin Shiv Mandir",
    "lat": 22.0426866,
    "lng": 78.8879419,
    "url": "https://www.google.com/maps/place/Prachin+Shiv+Mandir/@22.0426866,78.8879419,17z/data=!3m1!4b1!4m6!3m5!1s0x3bd56f8d408125c1:0x99fd7656218952d8!8m2!3d22.0426866!4d78.8879419!16s%2Fg%2F11h35pq4bm?entry=ttu&g_ep=EgoyMDI1MDgwMy4wIKXMDSoASAFQAw%3D%3D"
  },
  {
    "name": "Pracheen Shiv Mandir",
    "lat": 25.8790182,
    "lng": 81.9472367,
    "url": "https://www.google.com/maps/place/Pracheen+Shiv+Mandir/@25.8790182,81.9472367,17z/data=!3m1!4b1!4m6!3m5!1s0x399a95cbe9847fe5:0xbc45b0d442aa7631!8m2!3d25.8790182!4d81.9472367!16s%2Fg%2F11gsz60dfv?entry=ttu&g_ep=EgoyMDI1MDgwMy4wIKXMDSoASAFQAw%3D%3D"
  },
  {
    "name": "Bada Mandir (lord kirshna temple) sehore",
    "lat": 23.1959392,
    "lng": 77.0834634,
    "url": "https://www.google.com/maps/place/Bada+Mandir+(lord+krishna+temple)+sehore/@23.1959392,77.0834634,16z/data=!3m1!4b1!4m6!3m5!1s0x397cf3a5954701d9:0x1ef0b60a9b30accb!8m2!3d23.1959392!4d77.0834634!16s%2Fg%2F11h1m5943n?entry=ttu&g_ep=EgoyMDI1MDgwMy4wIKXMDSoASAFQAw%3D%3D"
  },
  {
    "name": "Mahalaxmi Temple",
    "lat": 44.2423649,
    "lng": -119.8093025,
    "url": "https://www.google.com/maps/place//@44.2423649,-119.8093025,3z/data=!3m1!4b1?entry=ttu&g_ep=EgoyMDI1MDgwMy4wIKXMDSoASAFQAw%3D%3D"
  },
  {
    "name": "Arulmigu Kuduminathar temple and Jain beds",
    "lat": 10.416383,
    "lng": 78.6588999,
    "url": "https://www.google.com/maps/place/Arulmigu+Kuduminathar+Temple/@10.416383,78.6588999,17z/data=!3m1!4b1!4m6!3m5!1s0x3b007fff8c2783d5:0xc88b4292381c49e3!8m2!3d10.416383!4d78.6588999!16s%2Fg%2F11dy_jx4gt?entry=ttu&g_ep=EgoyMDI1MDgwMy4wIKXMDSoASAFQAw%3D%3D"
  },
  {
    "name": "Ancient Shri Rameshwara Temple",
    "lat": 16.6521962,
    "lng": 75.8135563,
    "url": "https://www.google.com/maps/place/Ancient+Shri+Rameshwara+Temple/@16.6521962,75.8135563,17z/data=!3m1!4b1!4m6!3m5!1s0x3bc7af299c941229:0xb3aab5803e49d4ec!8m2!3d16.6521962!4d75.8135563!16s%2Fg%2F11cncn098v?entry=ttu&g_ep=EgoyMDI1MDgwMy4wIKXMDSoASAFQAw%3D%3D"
  },
  {
    "name": "Shiva Temple (Heritage), Sander",
    "lat": 23.7679061,
    "lng": 72.2593325,
    "url": "https://www.google.com/maps/place/Shiva+Temple+(Heritage),+Sander/@23.7679061,72.2593325,17z/data=!3m1!4b1!4m6!3m5!1s0x395c61ef8145cc8b:0x62813a1bb82e9760!8m2!3d23.7679061!4d72.2593325!16s%2Fg%2F11jg39yh84?entry=ttu&g_ep=EgoyMDI1MDgwMy4wIKXMDSoASAFQAw%3D%3D"
  },
  {
    "name": "Prachin Shivala Shri Shivaji Virajman Mandir",
    "lat": 25.434213,
    "lng": 81.846042,
    "url": "https://www.google.com/maps/place/Prachin+Shivala+Shri+Shivaji+Virajman+Mandir/@25.434213,81.846042,17z/data=!3m1!4b1!4m6!3m5!1s0x3985354aee71dbe7:0x89f778114d70c8fc!8m2!3d25.434213!4d81.846042!16s%2Fg%2F11bycjjlyk?entry=ttu&g_ep=EgoyMDI1MDgwMy4wIKXMDSoASAFQAw%3D%3D"
  },
  {
    "name": "Agatheeswarar Temple, Tambaram Corporation",
    "lat": 12.9157395,
    "lng": 80.0851328,
    "url": "https://www.google.com/maps/place/Sri+Akilandaeswari+sametha+Agatheeswarar+temple/@12.9157395,80.0851328,17z/data=!3m1!4b1!4m6!3m5!1s0x3a52f592cd2a8289:0x7218bb92cfc5499d!8m2!3d12.9157395!4d80.0851328!16s%2Fg%2F11bw3_p7fz?entry=ttu&g_ep=EgoyMDI1MDgwMy4wIKXMDSoASAFQAw%3D%3D"
  },
  {
    "name": "Ancient Jain Temple Idols - Chettipatti",
    "lat": 10.6627958,
    "lng": 78.8162935,
    "url": "https://www.google.com/maps/place/Ancient+Jain+Temple+Idols+-+Chettipatti/@10.6627958,78.8162935,17z/data=!3m1!4b1!4m6!3m5!1s0x3baa8e3f7a84b3d9:0x644fb8a7078c0d3b!8m2!3d10.6627958!4d78.8162935!16s%2Fg%2F11bw4sz1tj?entry=ttu&g_ep=EgoyMDI1MDgwMy4wIKXMDSoASAFQAw%3D%3D"
  },
  {
    "name": "Ramling Temple , Gursale",
    "lat": 17.5203004,
    "lng": 74.4398306,
    "url": "https://www.google.com/maps/place/Chalukya+era+Shri+Ramling+Temple,+Gursale/@17.5203004,74.4398306,17z/data=!3m1!4b1!4m6!3m5!1s0x3bc3da27eec3200f:0x7f2ac5f7e152cb7d!8m2!3d17.5203004!4d74.4398306!16s%2Fg%2F11bydmblrp?entry=ttu&g_ep=EgoyMDI1MDgwMy4wIKXMDSoASAFQAw%3D%3D"
  },
  {
    "name": "Shipra Maa Mandir",
    "lat": 22.9008647,
    "lng": 75.9840011,
    "url": "https://www.google.com/maps/place/Shipra+Maa+Mandir/@22.9008647,75.9840011,17z/data=!3m1!4b1!4m6!3m5!1s0x39631a2d0011d3a3:0xd7348f040b288e42!8m2!3d22.9008647!4d75.9840011!16s%2Fg%2F11f106qr3k?entry=ttu&g_ep=EgoyMDI1MDgwMy4wIKXMDSoASAFQAw%3D%3D"
  },
  {
    "name": "Prachin Mandir",
    "lat": 21.1329026,
    "lng": 81.541696,
    "url": "https://www.google.com/maps/place/Prachin+Mandir/@21.1329026,81.541696,17z/data=!3m1!4b1!4m6!3m5!1s0x3a28d8ed8b5db81b:0xedd45265c23af8f2!8m2!3d21.1329026!4d81.541696!16s%2Fg%2F11c6lwd4sd?entry=ttu&g_ep=EgoyMDI1MDgwMy4wIKXMDSoASAFQAw%3D%3D"
  },
  {
    "name": "108 Shri Swayambhu Parshvanath Jain Tirth, Kaparda",
    "lat": 26.2710115,
    "lng": 73.4790382,
    "url": "https://www.google.com/maps/place/108+Shri+Swayambhu+Parshwanath+Shwetambar+Jain+Derasar+Tirth,+Kaparda/@26.2710115,73.4790382,17z/data=!3m1!4b1!4m6!3m5!1s0x396a0097badfcb11:0x8c7b139de38fe146!8m2!3d26.2710115!4d73.4790382!16s%2Fg%2F11c5fyjy6q?entry=ttu&g_ep=EgoyMDI1MDgwMy4wIKXMDSoASAFQAw%3D%3D"
  },
  {
    "name": "Maylapatti Ancient Jain hill temple",
    "lat": 10.3846065,
    "lng": 78.7518775,
    "url": "https://www.google.com/maps/place/Maylapatti+MALAYA+KARUPAR+temple/@10.3846065,78.7518775,17z/data=!3m1!4b1!4m6!3m5!1s0x3b0078d23601bf0d:0xd16b515be50958f9!8m2!3d10.3846065!4d78.7518775!16s%2Fg%2F11bw7d1x22?entry=ttu&g_ep=EgoyMDI1MDgwMy4wIKXMDSoASAFQAw%3D%3D"
  },
  {
    "name": "Tilkeshwar Mahadev Mandir",
    "lat": 23.199243,
    "lng": 75.7693999,
    "url": "https://www.google.com/maps/place/Tilkeshwar+Mahadev+Mandir/@23.199243,75.7693999,17z/data=!3m1!4b1!4m6!3m5!1s0x39637428d467861b:0x2b2e0244c3811c5d!8m2!3d23.199243!4d75.7693999!16s%2Fg%2F11cm15lyk3?entry=ttu&g_ep=EgoyMDI1MDgwMy4wIKXMDSoASAFQAw%3D%3D"
  },
  {
    "name": "Panchganga Ghat",
    "lat": 16.7045837,
    "lng": 74.2160331,
    "url": "https://www.google.com/maps/place/Panchganga+Ghat/@16.7045837,74.2160331,17z/data=!3m1!4b1!4m6!3m5!1s0x3bc1aa9de9220123:0x9ec025b576783184!8m2!3d16.7045837!4d74.2160331!16s%2Fg%2F11g697lw2_?entry=ttu&g_ep=EgoyMDI1MDgwMy4wIKXMDSoASAFQAw%3D%3D"
  },
  {
    "name": "Laksha Vinayak Temple",
    "lat": 20.0217997,
    "lng": 75.1670713,
    "url": "https://www.google.com/maps/place/Shree+Laksha+Vinayak+Ganapati+Temple,+Shree+Kshetra+Verul/@20.0217997,75.1670713,17z/data=!3m1!4b1!4m6!3m5!1s0x3bdb92653a37ac53:0x5cc2fe664f1f0fe!8m2!3d20.0217997!4d75.1670713!16s%2Fg%2F1262gyq3f?entry=ttu&g_ep=EgoyMDI1MDgwMy4wIKXMDSoASAFQAw%3D%3D"
  },
  {
    "name": "Ancient Shiva temple",
    "lat": 44.2423649,
    "lng": -119.8093025,
    "url": "https://www.google.com/maps/place//@44.2423649,-119.8093025,3z/data=!3m1!4b1?entry=ttu&g_ep=EgoyMDI1MDgwMy4wIKXMDSoASAFQAw%3D%3D"
  },
  {
    "name": "Mallikarjuna Temple Umarani",
    "lat": 16.9005644,
    "lng": 75.2460513,
    "url": "https://www.google.com/maps/place/Mallikarjuna+Temple+Umarani/@16.9005644,75.2460513,17z/data=!3m1!4b1!4m6!3m5!1s0x3bc6db7d16997059:0xf37b055ef07c0d97!8m2!3d16.9005644!4d75.2460513!16s%2Fg%2F11f1x84xg3?entry=ttu&g_ep=EgoyMDI1MDgwMy4wIKXMDSoASAFQAw%3D%3D"
  },
  {
    "name": "Shri Valamadisvara Temple",
    "lat": 10.6210693,
    "lng": 78.7109323,
    "url": "https://www.google.com/maps/place/Shri+Valarmadhiswarar+Temple/@10.6210693,78.7109323,17z/data=!3m1!4b1!4m6!3m5!1s0x3baa88f2536fe6b3:0x455ca769897b3685!8m2!3d10.6210693!4d78.7109323!16s%2Fg%2F11f57j0dnh?entry=ttu&g_ep=EgoyMDI1MDgwMy4wIKXMDSoASAFQAw%3D%3D"
  },
  {
    "name": "Chausat mata mandir Tihar",
    "lat": 25.6093672,
    "lng": 81.0400258,
    "url": "https://www.google.com/maps/place/Chausat+mata+mandir+Tihar/@25.6093672,81.0400258,17z/data=!3m1!4b1!4m6!3m5!1s0x399b458d28987ddb:0x5a82d3a99acca25!8m2!3d25.6093672!4d81.0400258!16s%2Fg%2F11nnrwrff0?entry=ttu&g_ep=EgoyMDI1MDgwMy4wIKXMDSoASAFQAw%3D%3D"
  },