[
  {
    "name": "Aoutshahi Moth",
    "lat": 23.5207186,
    "lng": 90.4358533,
    "url": "https://www.google.com/maps/place/Aoutshahi+Moth/@23.5207186,90.4358533,17z/data=!3m1!4b1!4m6!3m5!1s0x3755a59e9c6b3533:0x93ef03bd69e96f07!8m2!3d23.5207186!4d90.4358533!16s%2Fg%2F11bc7rln90?entry=ttu&g_ep=EgoyMDI1MDgwMy4wIKXMDSoASAFQAw%3D%3D"
  },
  {
    "name": "\u0926\u0947\u0935\u0932 \u0936\u093f\u0935 (\u092a\u094d\u0930\u093e\u091a\u0940\u0928) \u092e\u0902\u0926\u093f\u0930 \u091c\u0941\u0928\u093e\u0917\u093e\u0935 \u0930\u093e\u0928\u093e\u092a\u0941\u0930 \u091d\u093e\u092c\u0941\u0906 \u092e. \u092a\u094d\u0930",
    "lat": 22.6036726,
    "lng": 74.4507931,
    "url": "https://www.google.com/maps/place/%E0%A4%A6%E0%A5%87%E0%A4%B5%E0%A4%B2+%E0%A4%B6%E0%A4%BF%E0%A4%B5+(%E0%A4%AA%E0%A5%8D%E0%A4%B0%E0%A4%BE%E0%A4%9A%E0%A5%80%E0%A4%A8)+%E0%A4%AE%E0%A4%82%E0%A4%A6%E0%A4%BF%E0%A4%B0+%E0%A4%9C%E0%A5%81%E0%A4%A8%E0%A4%BE%E0%A4%97%E0%A4%BE%E0%A4%B5+%E0%A4%B0%E0%A4%BE%E0%A4%A8%E0%A4%BE%E0%A4%AA%E0%A5%81%E0%A4%B0+%E0%A4%9D%E0%A4%BE%E0%A4%AC%E0%A5%81%E0%A4%86+%E0%A4%AE.+%E0%A4%AA%E0%A5%8D%E0%A4%B0/@22.6036726,74.4507931,17z/data=!3m1!4b1!4m6!3m5!1s0x3961a782eacb34c5:0x27d6e863b4a30b87!8m2!3d22.6036726!4d74.4507931!16s%2Fg%2F11g6z569jl?entry=ttu&g_ep=EgoyMDI1MDgwMy4wIKXMDSoASAFQAw%3D%3D"
  },
  {
    "name": "Lakshminarasimha Swamy Temple",
    "lat": 14.8941953,
    "lng": 79.2693475,
    "url": "https://www.google.com/maps/place/Lakshminarasimha+Swamy+Temple/@14.8941953,79.2693475,17z/data=!3m1!4b1!4m6!3m5!1s0x3bb4aebfbc983499:0xb61e6d6c8a2d14b9!8m2!3d14.8941953!4d79.2693475!16s%2Fg%2F11g8bd7g4s?entry=ttu&g_ep=EgoyMDI1MDgwMy4wIKXMDSoASAFQAw%3D%3D"
  },
  {
    "name": "Ranganayakula Temple",
    "lat": 14.8786913,
    "lng": 79.2971454,
    "url": "https://www.google.com/maps/place/Vijayanagara+style+Shri+Ranganayakula+Swamy+Temple/@14.8786913,79.2971454,17z/data=!3m1!4b1!4m6!3m5!1s0x3bb4ac06c0f94479:0x46c7db349820f78d!8m2!3d14.8786913!4d79.2971454!16s%2Fg%2F11bw473nj9?entry=ttu&g_ep=EgoyMDI1MDgwMy4wIKXMDSoASAFQAw%3D%3D"
  },
  {
    "name": "Jain Dadabari Shrimalon Ka Mohalla",
    "lat": 28.1315186,
    "lng": 75.3967107,
    "url": "https://www.google.com/maps/place/Jain+Dadabari+Shrimalon+Ka+Mohalla/@28.1315186,75.3967107,17z/data=!3m1!4b1!4m6!3m5!1s0x3913391b026c74a9:0xc37e34abe79e32ba!8m2!3d28.1315186!4d75.3967107!16s%2Fg%2F12hk4g4v6?entry=ttu&g_ep=EgoyMDI1MDgwMy4wIKXMDSoASAFQAw%3D%3D"
  },
  {
    "name": "Ancient Shri Amruteshwara Temple",
    "lat": 12.5943089,
    "lng": 77.1820029,
    "url": "https://www.google.com/maps/place/Ancient+Shri+Amruteshwara+Temple/@12.5943089,77.1820029,17z/data=!3m1!4b1!4m6!3m5!1s0x3bafadc863e4d7e3:0x8b953df0caaab985!8m2!3d12.5943089!4d77.1820029!16s%2Fg%2F11lghnz80n?entry=ttu&g_ep=EgoyMDI1MDgwMy4wIKXMDSoASAFQAw%3D%3D"
  },
  {
    "name": "Garhi Padhavali",
    "lat": 26.4311679,
    "lng": 78.201693,
    "url": "https://www.google.com/maps/place/Garhi+Padavali+Morena/@26.4311679,78.201693,17z/data=!3m1!4b1!4m6!3m5!1s0x3976bb89e09d3a37:0xff93ca91b717b91!8m2!3d26.4311679!4d78.201693!16s%2Fg%2F11bc8c4yfm?entry=ttu&g_ep=EgoyMDI1MDgwMy4wIKXMDSoASAFQAw%3D%3D"
  },
  {
    "name": "Akamala Shree DharmasasthaTemple",
    "lat": 10.6841457,
    "lng": 76.2679856,
    "url": "https://www.google.com/maps/place/Akamala+Shree+DharmasasthaTemple/@10.6841457,76.2679856,17z/data=!3m1!4b1!4m6!3m5!1s0x3ba7c2ad9bea4e89:0xbf968580f915c4b6!8m2!3d10.6841457!4d76.2679856!16s%2Fg%2F1tdc86wv?entry=ttu&g_ep=EgoyMDI1MDgwMy4wIKXMDSoASAFQAw%3D%3D"
  },
  {
    "name": "Mahadji Shinde Chhatri",
    "lat": 18.4916375,
    "lng": 73.8972969,
    "url": "https://www.google.com/maps/place/Mahadji+Shinde+Chhatri/@18.4916375,73.8972969,17z/data=!3m1!4b1!4m6!3m5!1s0x3bc2c1d6e76f6591:0x428a3ab2d8e0aa1d!8m2!3d18.4916375!4d73.8972969!16s%2Fm%2F0h1dm2b?entry=ttu&g_ep=EgoyMDI1MDgwMy4wIKXMDSoASAFQAw%3D%3D"
  },
  {
    "name": "Sri Veeranimangalam Narasimha Murthy Temple",
    "lat": 10.655202,
    "lng": 76.2574039,
    "url": "https://www.google.com/maps/place/Sri+Veeranimangalam+Narasimha+Murthy+Temple/@10.655202,76.2574039,17z/data=!3m1!4b1!4m6!3m5!1s0x3ba7e8124541c9d7:0x59b05cf4c46d96fc!8m2!3d10.655202!4d76.2574039!16s%2Fg%2F11gdr18k3b?entry=ttu&g_ep=EgoyMDI1MDgwMy4wIKXMDSoASAFQAw%3D%3D"
  },
  {
    "name": "Ancient Shri Someshwara Swamy Temple",
    "lat": 13.7249722,
    "lng": 75.6766666,
    "url": "https://www.google.com/maps/place/Ancient+Shri+Someshwara+Swamy+Temple/@13.7249722,75.6766666,17z/data=!3m1!4b1!4m6!3m5!1s0x3bbb0257c84519a9:0xe626b47ee7de54ad!8m2!3d13.7249722!4d75.6766666!16s%2Fg%2F11g_r6c5j?entry=ttu&g_ep=EgoyMDI1MDgwMy4wIKXMDSoASAFQAw%3D%3D"
  },
  {
    "name": "Sonaimuri Kali Mandir",
    "lat": 23.0378069,
    "lng": 91.0967714,
    "url": "https://www.google.com/maps/place/Sonaimuri+Kali+Mandir/@23.0378069,91.0967714,17z/data=!3m1!4b1!4m6!3m5!1s0x375498561f022087:0xe82049992578af1f!8m2!3d23.0378069!4d91.0967714!16s%2Fg%2F11b8tcx5mv?entry=ttu&g_ep=EgoyMDI1MDgwMy4wIKXMDSoASAFQAw%3D%3D"
  },
  {
    "name": "Panchkoni ShivLing, Mansar",
    "lat": 21.3945477,
    "lng": 79.2763057,
    "url": "https://www.google.com/maps/place/Pravareshvara+Shiva+Temple,+Mansar/@21.3945477,79.2763057,17z/data=!3m1!4b1!4m6!3m5!1s0x3bd4d142f6f8448b:0xd9189f1f8a1c6cd2!8m2!3d21.3945477!4d79.2763057!16s%2Fg%2F11b809zlrh?entry=ttu&g_ep=EgoyMDI1MDgwMy4wIKXMDSoASAFQAw%3D%3D"
  },
  {
    "name": "Hanuman Temple Panch Khobla",
    "lat": 22.3530001,
    "lng": 73.5600511,
    "url": "https://www.google.com/maps/place/Hanuman+Mandir+Panch+Khobla/@22.3530001,73.5600511,17z/data=!3m1!4b1!4m6!3m5!1s0x39607a1d829b440d:0xe4832548fb54c000!8m2!3d22.3530001!4d73.5600511!16s%2Fg%2F11ggw0ygwk?entry=ttu&g_ep=EgoyMDI1MDgwMy4wIKXMDSoASAFQAw%3D%3D"
  },
  {
    "name": "Ancient Shri Gangadhareshwara Temple",
    "lat": 12.387777,
    "lng": 77.0556155,
    "url": "https://www.google.com/maps/place/Ancient+Shri+Gangadhareshwara+Temple/@12.387777,77.0556155,17z/data=!3m1!4b1!4m6!3m5!1s0x3baf05cd39c9c67d:0x36ba60ab5aff2c6f!8m2!3d12.387777!4d77.0556155!16s%2Fg%2F11b7xk05mf?entry=ttu&g_ep=EgoyMDI1MDgwMy4wIKXMDSoASAFQAw%3D%3D"
  },
  {
    "name": "Mandir",
    "lat": 23.269295,
    "lng": 88.2540975,
    "url": "https://www.google.com/maps/place/Mandir/@23.269295,88.2540975,17z/data=!3m1!4b1!4m6!3m5!1s0x39f8fbfa45696247:0x435de9efba2df7b8!8m2!3d23.269295!4d88.2540975!16s%2Fg%2F11f0l33nhw?entry=ttu&g_ep=EgoyMDI1MDgwMy4wIKXMDSoASAFQAw%3D%3D"
  },
  {
    "name": "Narmada Devi Temple",
    "lat": 21.6819277,
    "lng": 72.8448703,
    "url": "https://www.google.com/maps/place/Narmada+Devi+Temple/@21.6819277,72.8448703,17z/data=!3m1!4b1!4m6!3m5!1s0x3be029b699e39b1b:0x91bcfd038c1e7e77!8m2!3d21.6819277!4d72.8448703!16s%2Fg%2F11h0s9tgf?entry=ttu&g_ep=EgoyMDI1MDgwMy4wIKXMDSoASAFQAw%3D%3D"
  },
  {
    "name": "Kattilmadam Jain Temple",
    "lat": 10.7709237,
    "lng": 76.1539285,
    "url": "https://www.google.com/maps/place/Kattilmadam+Jain+Temple/@10.7709237,76.1539285,17z/data=!3m1!4b1!4m6!3m5!1s0x3ba7c6c775531d01:0x620afa6d9308d1c3!8m2!3d10.7709237!4d76.1539285!16s%2Fm%2F011v6srg?entry=ttu&g_ep=EgoyMDI1MDgwMy4wIKXMDSoASAFQAw%3D%3D"
  },
  {
    "name": "Janjire Mandvi Killa, Mandvi fort",
    "lat": 19.4785408,
    "lng": 72.9010111,
    "url": "https://www.google.com/maps/place/Janjire+Mandvi+Killa,+Mandvi+fort/@19.4785408,72.9010111,17z/data=!3m1!4b1!4m6!3m5!1s0x3be7a7a8a5bd9ed7:0xaecdc808fd4e6c6c!8m2!3d19.4785408!4d72.9010111!16s%2Fg%2F11hzd08m59?entry=ttu&g_ep=EgoyMDI1MDgwMy4wIKXMDSoASAFQAw%3D%3D"
  },
  {
    "name": "Kodanda Ramalayam",
    "lat": 14.8718861,
    "lng": 79.3057326,
    "url": "https://www.google.com/maps/place/Kodanda+Ramalayam/@14.8718861,79.3057326,17z/data=!3m1!4b1!4m6!3m5!1s0x3bb4abf68ad3fde7:0x2a63dbb7344dc207!8m2!3d14.8718861!4d79.3057326!16s%2Fg%2F11g8d92ptk?entry=ttu&g_ep=EgoyMDI1MDgwMy4wIKXMDSoASAFQAw%3D%3D"
  },
  {
    "name": "Dev Somnath - Mahadev Temple",
    "lat": 23.940666,
    "lng": 73.8615273,
    "url": "https://www.google.com/maps/place/DevSomnath+-+Mahadev+Temple/@23.940666,73.8615273,17z/data=!3m1!4b1!4m6!3m5!1s0x39670ca0e3ac852b:0xf0cdee46b34b8484!8m2!3d23.940666!4d73.8615273!16s%2Fg%2F1tctq1tw?entry=ttu&g_ep=EgoyMDI1MDgwMy4wIKXMDSoASAFQAw%3D%3D"
  },
  {
    "name": "Tobarvara Vachharadada Temple",
    "lat": 22.2878053,
    "lng": 69.0107743,
    "url": "https://www.google.com/maps/place/Tobarvara+Vachharadada+Temple/@22.2878053,69.0107743,17z/data=!3m1!4b1!4m6!3m5!1s0x395699304b6c8647:0x5400356644bc5663!8m2!3d22.2878053!4d69.0107743!16s%2Fg%2F11f343br6h?entry=ttu&g_ep=EgoyMDI1MDgwMy4wIKXMDSoASAFQAw%3D%3D"
  },
  {
    "name": "Shree Rani Sati Dadi Mandir, Jhunjhunu",
    "lat": 28.1353799,
    "lng": 75.4037186,
    "url": "https://www.google.com/maps/place/Shree+Rani+Satiji+Mandir,+Jhunjhunu/@28.1353799,75.4037186,17z/data=!3m1!4b1!4m6!3m5!1s0x39133916d1f61cd3:0x6f54ea375159921d!8m2!3d28.1353799!4d75.4037186!16s%2Fg%2F11bx5649gp?entry=ttu&g_ep=EgoyMDI1MDgwMy4wIKXMDSoASAFQAw%3D%3D"
  },
  {
    "name": "Shri Nakoda Parshwanath Temple, Nakoda",
    "lat": 25.7881581,
    "lng": 72.1517034,
    "url": "https://www.google.com/maps/place/Nakoda+Parshvanath+Jain+Mandir/@25.7881581,72.1517034,17z/data=!3m1!4b1!4m6!3m5!1s0x3943ee187162ea7b:0x8707f483299df22!8m2!3d25.7881581!4d72.1517034!16s%2Fg%2F11c7t2jmv7?entry=ttu&g_ep=EgoyMDI1MDgwMy4wIKXMDSoASAFQAw%3D%3D"
  },
  {
    "name": "Budhata Twelve Shib And Kali Temple",
    "lat": 22.613245,
    "lng": 89.151714,
    "url": "https://www.google.com/maps/place/Budhata+Twelve+Shib+And+Kali+Temple/@22.613245,89.151714,17z/data=!3m1!4b1!4m6!3m5!1s0x3a01df5e21cbd74d:0x6e6eebe8ddb69dd!8m2!3d22.613245!4d89.151714!16s%2Fg%2F11csqc30r8?entry=ttu&g_ep=EgoyMDI1MDgwMy4wIKXMDSoASAFQAw%3D%3D"
  },
  {
    "name": "Shree Kanive Anjaneya Swamy Temple",
    "lat": 14.2008816,
    "lng": 76.4310994,
    "url": "https://www.google.com/maps/place/Shree+Kanive+Anjaneya+Swamy+Temple/@14.2008816,76.4310994,17z/data=!3m1!4b1!4m6!3m5!1s0x3bba75bef62653a3:0xa6ff02dd9ebbec01!8m2!3d14.2008816!4d76.4310994!16s%2Fg%2F11b6plyhz8?entry=ttu&g_ep=EgoyMDI1MDgwNC4wIKXMDSoASAFQAw%3D%3D"
  },
  {
    "name": "Nut Temple",
    "lat": 24.0010435,
    "lng": 90.4254825,
    "url": "https://www.google.com/maps/place/Nut+Temple/@24.0010435,90.4254825,17z/data=!3m1!4b1!4m6!3m5!1s0x3755da589f89e3f3:0xefad07a4daab3f87!8m2!3d24.0010435!4d90.4254825!16s%2Fg%2F1jgm0x9wh?entry=ttu&g_ep=EgoyMDI1MDgwMy4wIKXMDSoASAFQAw%3D%3D"
  },
  {
    "name": "Surajkund Ancient Reservoir",
    "lat": 28.4841136,
    "lng": 77.2838829,
    "url": "https://www.google.com/maps/place/Surajkund+Ancient+Reservoir/@28.4841136,77.2838829,17z/data=!3m1!4b1!4m6!3m5!1s0x390ce1e6c26fbef1:0xe101ee54855a8319!8m2!3d28.4841136!4d77.2838829!16s%2Fg%2F11jndg4s9m?entry=ttu&g_ep=EgoyMDI1MDgwMy4wIKXMDSoASAFQAw%3D%3D"
  },
  {
    "name": "Sivalayam",
    "lat": 15.2113894,
    "lng": 79.9058226,
    "url": "https://www.google.com/maps/place/Sivalayam+temple/@15.2113894,79.9058226,17z/data=!3m1!4b1!4m6!3m5!1s0x3a4b138eb9112af1:0xcb9a3479c274c92b!8m2!3d15.2113894!4d79.9058226!16s%2Fg%2F11j79klqnc?entry=ttu&g_ep=EgoyMDI1MDgwMy4wIKXMDSoASAFQAw%3D%3D"
  },
  {
    "name": "Cenotaph of Maharaja Anup Singh",
    "lat": 28.0175385,
    "lng": 73.3899375,
    "url": "https://www.google.com/maps/place/Cenotaph+of+Maharaja+Anup+Singh/@28.0175385,73.3899375,17z/data=!3m1!4b1!4m6!3m5!1s0x393fe18ba749eadb:0x6bbaacc62d079030!8m2!3d28.0175385!4d73.3899375!16s%2Fg%2F11fpscm0xl?entry=ttu&g_ep=EgoyMDI1MDgwMy4wIKXMDSoASAFQAw%3D%3D"
  },
  {
    "name": "Karuvanna Vishnu Siva Temple",
    "lat": 10.6690984,
    "lng": 76.2434594,
    "url": "https://www.google.com/maps/place/Karuvanna+Vishnu+Siva+Temple/@10.6690984,76.2434594,17z/data=!3m1!4b1!4m6!3m5!1s0x3ba7e8213e4b37f7:0xc3c41da5681cdf74!8m2!3d10.6690984!4d76.2434594!16s%2Fg%2F1hm3thd60?entry=ttu&g_ep=EgoyMDI1MDgwMy4wIKXMDSoASAFQAw%3D%3D"
  },
  {
    "name": "Naulakha Temple",
    "lat": 24.477271,
    "lng": 86.7079828,
    "url": "https://www.google.com/maps/place/Naulakha+Temple+-+Deoghar/@24.477271,86.7079828,17z/data=!3m1!4b1!4m6!3m5!1s0x39f13d7a7118d76f:0x8ca1266ef26b3531!8m2!3d24.477271!4d86.7079828!16s%2Fg%2F1tk61jd0?entry=ttu&g_ep=EgoyMDI1MDgwMy4wIKXMDSoASAFQAw%3D%3D"
  },
  {
    "name": "Lord Sri Venkateshwara Swami Temple",
    "lat": 17.0786155,
    "lng": 79.2877276,
    "url": "https://www.google.com/maps/place/Lord+Sri+Venkateshwara+Swami+Temple/@17.0786155,79.2877276,17z/data=!3m1!4b1!4m6!3m5!1s0x3bcb295fb21b3c05:0x9763b312b938bd44!8m2!3d17.0786155!4d79.2877276!16s%2Fg%2F1xtf008s?entry=ttu&g_ep=EgoyMDI1MDgwMy4wIKXMDSoASAFQAw%3D%3D"
  },
  {
    "name": "Neelakanteswara Temple",
    "lat": 12.6587934,
    "lng": 77.2087494,
    "url": "https://www.google.com/maps/place/Neelakanteswara+Temple/@12.6587934,77.2087494,17z/data=!3m1!4b1!4m6!3m5!1s0x3bae52b9a86db01b:0xf766474bf0acb80!8m2!3d12.6587934!4d77.2087494!16s%2Fg%2F11bwp64568?entry=ttu&g_ep=EgoyMDI1MDgwMy4wIKXMDSoASAFQAw%3D%3D"
  },
  {
    "name": "8 Pillared Cenotaph",
    "lat": 44.2423649,
    "lng": -119.8093025,
    "url": "https://www.google.com/maps/place//@44.2423649,-119.8093025,3z/data=!3m1!4b1?entry=ttu&g_ep=EgoyMDI1MDgwMy4wIKXMDSoASAFQAw%3D%3D"
  },
  {
    "name": "\u09ad\u09ac\u09be\u09a8\u09c0\u09aa\u09c1\u09b0 \u09b6\u09bf\u09ac\u09ae\u09a8\u09cd\u09a6\u09bf\u09b0/ Bhavanipur Shiv Mandir",
    "lat": 24.5580368,
    "lng": 89.4361228,
    "url": "https://www.google.com/maps/place/%E0%A6%AD%E0%A6%AC%E0%A6%BE%E0%A6%A8%E0%A7%80%E0%A6%AA%E0%A7%81%E0%A6%B0+%E0%A6%B6%E0%A6%BF%E0%A6%AC%E0%A6%AE%E0%A6%A8%E0%A7%8D%E0%A6%A6%E0%A6%BF%E0%A6%B0%2F+Bhavanipur+Shiv+Mandir/@24.5580368,89.4361228,17z/data=!3m1!4b1!4m6!3m5!1s0x39fdb5857ca9379f:0x7534166c49b2db79!8m2!3d24.5580368!4d89.4361228!16s%2Fg%2F11pth622s7?entry=ttu&g_ep=EgoyMDI1MDgwMy4wIKXMDSoASAFQAw%3D%3D"
  },
  {
    "name": "Shri Laxmi Narayan Shiv Mandir, Nagrota, Darang Mandi",
    "lat": 31.810868,
    "lng": 76.9515524,
    "url": "https://www.google.com/maps/place/Shri+Laxmi+Narayan+Shiv+Mandir,+Nagrota,+Darang+Mandi/@31.810868,76.9515524,17z/data=!3m1!4b1!4m6!3m5!1s0x3904e530688f186d:0x1ebc073231e5298c!8m2!3d31.810868!4d76.9515524!16s%2Fg%2F11l2wnh11b?entry=ttu&g_ep=EgoyMDI1MDgwMy4wIKXMDSoASAFQAw%3D%3D"
  },
  {
    "name": "Shri Kali Devi Temple, Patiala",
    "lat": 30.3361947,
    "lng": 76.3941944,
    "url": "https://www.google.com/maps/place/Shri+Kali+Devi+Temple,+Patiala/@30.3361947,76.3941944,17z/data=!3m1!4b1!4m6!3m5!1s0x39102603cf6d15cb:0x74b130173a3a5aab!8m2!3d30.3361947!4d76.3941944!16s%2Fg%2F11byyl5m98?entry=ttu&g_ep=EgoyMDI1MDgwMy4wIKXMDSoASAFQAw%3D%3D"
  },
  {
    "name": "Mangalam Ayyappankavu",
    "lat": 10.6477636,
    "lng": 76.2476983,
    "url": "https://www.google.com/maps/place/Ayyappan+Kavu+Mangalam/@10.6477636,76.2476983,17z/data=!3m1!4b1!4m6!3m5!1s0x3ba7e9004f386123:0x25640b67f39aaf03!8m2!3d10.6477636!4d76.2476983!16s%2Fg%2F11wbk79ch3?entry=ttu&g_ep=EgoyMDI1MDgwMy4wIKXMDSoASAFQAw%3D%3D"
  },
  {
    "name": "Kanneswar Mahadev Mandir",
    "lat": 27.7245147,
    "lng": 77.5087487,
    "url": "https://www.google.com/maps/place/Kanneswar+Mahadev+Mandir/@27.7245147,77.5087487,17z/data=!3m1!4b1!4m6!3m5!1s0x39731584207c4b2f:0x37fcabb88af9cb3d!8m2!3d27.7245147!4d77.5087487!16s%2Fg%2F11f1vm88tn?entry=ttu&g_ep=EgoyMDI1MDgwMy4wIKXMDSoASAFQAw%3D%3D"
  },
  {
    "name": "Charbhuja Nath Temple Dowani",
    "lat": 24.948316,
    "lng": 74.3077336,
    "url": "https://www.google.com/maps/place/Charbhuja+Nath+Temple+Dowani/@24.948316,74.3077336,17z/data=!3m1!4b1!4m6!3m5!1s0x3968869cf2708549:0x69cb51fe15c1d35a!8m2!3d24.948316!4d74.3077336!16s%2Fg%2F11gdqtmkwn?entry=ttu&g_ep=EgoyMDI1MDgwMy4wIKXMDSoASAFQAw%3D%3D"
  },
  {
    "name": "Sri Pattabhi Rama Temple \u0cb6\u0ccd\u0cb0\u0cc0 \u0caa\u0c9f\u0ccd\u0c9f\u0cbe\u0cad\u0cbf \u0cb0\u0cbe\u0cae \u0ca6\u0cc7\u0cb5\u0cb8\u0ccd\u0ca5\u0cbe\u0ca8",
    "lat": 12.7524377,
    "lng": 77.3012327,
    "url": "https://www.google.com/maps/place/Sri+Pattabhi+Rama+Temple+%E0%B2%B6%E0%B3%8D%E0%B2%B0%E0%B3%80+%E0%B2%AA%E0%B2%9F%E0%B3%8D%E0%B2%9F%E0%B2%BE%E0%B2%AD%E0%B2%BF+%E0%B2%B0%E0%B2%BE%E0%B2%AE+%E0%B2%A6%E0%B3%87%E0%B2%B5%E0%B2%B8%E0%B3%8D%E0%B2%A5%E0%B2%BE%E0%B2%A8/@12.7524377,77.3012327,17z/data=!3m1!4b1!4m6!3m5!1s0x3bae4ebdabf3e235:0xf5c3f989bd1d728e!8m2!3d12.7524377!4d77.3012327!16s%2Fg%2F1hhx0hpdw?entry=ttu&g_ep=EgoyMDI1MDgwMy4wIKXMDSoASAFQAw%3D%3D"
  },
  {
    "name": "Kol Kandoli Temple",
    "lat": 32.796496,
    "lng": 74.9152874,
    "url": "https://www.google.com/maps/place/Kol+Kandoli+Temple/@32.796496,74.9152874,17z/data=!3m1!4b1!4m6!3m5!1s0x391e8179ff2181db:0xe1b164be74ac8fee!8m2!3d32.796496!4d74.9152874!16s%2Fg%2F1hc1n714_?entry=ttu&g_ep=EgoyMDI1MDgwMy4wIKXMDSoASAFQAw%3D%3D"
  },
  {
    "name": "Shri Krishna Temple, Bhalyani",
    "lat": 31.9455564,
    "lng": 77.0477116,
    "url": "https://www.google.com/maps/place/Shri+Krishna+Temple,+Bhalyani/@31.9455564,77.0477116,17z/data=!3m1!4b1!4m6!3m5!1s0x3904f19a36a1e063:0x6c4ac6e9a89c20a5!8m2!3d31.9455564!4d77.0477116!16s%2Fg%2F11ddwrtmsp?entry=ttu&g_ep=EgoyMDI1MDgwNC4wIKXMDSoASAFQAw%3D%3D"
  },
  {
    "name": "Pallimanna Siva Temple",
    "lat": 10.6729122,
    "lng": 76.2274897,
    "url": "https://www.google.com/maps/place/Pallimanna+Siva+Temple/@10.6729122,76.2274897,17z/data=!3m1!4b1!4m6!3m5!1s0x3ba7c2802d0fb011:0x19bb837909a0beb4!8m2!3d10.6729122!4d76.2274897!16s%2Fg%2F11c1tz94kk?entry=ttu&g_ep=EgoyMDI1MDgwMy4wIKXMDSoASAFQAw%3D%3D"
  },
  {
    "name": "Sidh Ki Bagiya Temple",
    "lat": 25.4577,
    "lng": 78.5896,
    "url": "https://www.google.com/maps/place/Sidh+Ki+Bagiya+Temple/@25.4577,78.5896,17z/data=!3m1!4b1!4m6!3m5!1s0x397776e0bb1515f3:0xb940fdee63018418!8m2!3d25.4577!4d78.5896!16s%2Fg%2F1pyqg6v0z?entry=ttu&g_ep=EgoyMDI1MDgwMy4wIKXMDSoASAFQAw%3D%3D"
  },
  {
    "name": "Pandav Leni Caves",
    "lat": 19.9412114,
    "lng": 73.748555,
    "url": "https://www.google.com/maps/place/Pandav+Leni+Caves/@19.9412114,73.748555,17z/data=!3m1!4b1!4m6!3m5!1s0x3bdd94a7de75e413:0xeb2ea9ed807519b!8m2!3d19.9412114!4d73.748555!16s%2Fg%2F1tdckf6j?entry=ttu&g_ep=EgoyMDI1MDgwMy4wIKXMDSoASAFQAw%3D%3D"
  },
  {
    "name": "Pachala Someshwara Temple",
    "lat": 17.0797125,
    "lng": 79.2881719,
    "url": "https://www.google.com/maps/place/Ancient+Chalukya+Shri+Pachchala+Someshwara+Swamy+Temple/@17.0797125,79.2881719,17z/data=!3m1!4b1!4m6!3m5!1s0x3bcb295f08a899a9:0x6f20a5a3a0782df4!8m2!3d17.0797125!4d79.2881719!16s%2Fm%2F0py1g30?entry=ttu&g_ep=EgoyMDI1MDgwMy4wIKXMDSoASAFQAw%3D%3D"
  },
  {
    "name": "Chandraboti Temple",
    "lat": 24.4956227,
    "lng": 90.8009291,
    "url": "https://www.google.com/maps/place/Chandraboti+Temple/@24.4956227,90.8009291,17z/data=!3m1!4b1!4m6!3m5!1s0x37569318b9922fa3:0x8fccb08fb010661!8m2!3d24.4956227!4d90.8009291!16s%2Fg%2F11g65h38zl?entry=ttu&g_ep=EgoyMDI1MDgwMy4wIKXMDSoASAFQAw%3D%3D"
  },
  {
    "name": "Sri Sanjeevaraya Swamy Temple",
    "lat": 12.6845256,
    "lng": 77.2073797,
    "url": "https://www.google.com/maps/place/Sri+Sanjeevaraya+Swamy+Temple/@12.6845256,77.2073797,17z/data=!3m1!4b1!4m6!3m5!1s0x3bae4d5a1599411b:0x6fd7be4728f908e2!8m2!3d12.6845256!4d77.2073797!16s%2Fg%2F11b6_s8zf8?entry=ttu&g_ep=EgoyMDI1MDgwMy4wIKXMDSoASAFQAw%3D%3D"
  },
  {
    "name": "Temple of Mata Durga Dhedni",
    "lat": 33.0952313,
    "lng": 75.5092371,
    "url": "https://www.google.com/maps/place/Temple+of+Mata+Durga+Dhedni/@33.0952313,75.5092371,17z/data=!3m1!4b1!4m6!3m5!1s0x391db03eba4d3dcf:0xf177b9e7567d2b4!8m2!3d33.0952313!4d75.5092371!16s%2Fg%2F1262828f1?entry=ttu&g_ep=EgoyMDI1MDgwMy4wIKXMDSoASAFQAw%3D%3D"
  },
  {
    "name": "Karavathur Sree Ramaswamy Temple",
    "lat": 10.6286629,
    "lng": 76.1518742,
    "url": "https://www.google.com/maps/place/Karuvathoor+Sreerama+Swami+Temple/@10.6286629,76.1518742,17z/data=!3m1!4b1!4m6!3m5!1s0x3ba7ea4bb1136385:0x943a38d1f3b592ac!8m2!3d10.6286629!4d76.1518742!16s%2Fg%2F11sy8l4p6j?entry=ttu&g_ep=EgoyMDI1MDgwMy4wIKXMDSoASAFQAw%3D%3D"
  },
  {
    "name": "Rudreshwar caves (temple)",
    "lat": 20.5578248,
    "lng": 75.644879,
    "url": "https://www.google.com/maps/place/Rudreshwar+Ganpati+Caves/@20.5578248,75.644879,17z/data=!3m1!4b1!4m6!3m5!1s0x3bd97eead9c5d435:0x93b8301a9d513749!8m2!3d20.5578248!4d75.644879!16s%2Fg%2F11g8cjg_4b?entry=ttu&g_ep=EgoyMDI1MDgwMy4wIKXMDSoASAFQAw%3D%3D"
  },
  {
    "name": "Laxmi Temple",
    "lat": 25.4575513,
    "lng": 78.5907052,
    "url": "https://www.google.com/maps/place/Shri+Laxmi+Temple/@25.4575513,78.5907052,17z/data=!3m1!4b1!4m6!3m5!1s0x397776e0c397faff:0xb17284d4d91991e9!8m2!3d25.4575513!4d78.5907052!16s%2Fg%2F1pyqw04q3?entry=ttu&g_ep=EgoyMDI1MDgwMy4wIKXMDSoASAFQAw%3D%3D"
  },
  {
    "name": "Chehni Kothi",
    "lat": 31.6276273,
    "lng": 77.3580148,
    "url": "https://www.google.com/maps/place/Chehni+Kothi/@31.6276273,77.3580148,17z/data=!3m1!4b1!4m6!3m5!1s0x3905ae0c884e3c05:0xdd6d2796807a109b!8m2!3d31.6276273!4d77.3580148!16s%2Fg%2F1hc1x1ln6?entry=ttu&g_ep=EgoyMDI1MDgwMy4wIKXMDSoASAFQAw%3D%3D"
  },
  {
    "name": "Cithulia Universal Temple",
    "lat": 24.1724328,
    "lng": 89.4091201,
    "url": "https://www.google.com/maps/place/Cithulia+Universal+Temple/@24.1724328,89.4091201,17z/data=!3m1!4b1!4m6!3m5!1s0x39fdd539f5409777:0xd36406a0b4863259!8m2!3d24.1724328!4d89.4091201!16s%2Fg%2F11cksn2lpp?entry=ttu&g_ep=EgoyMDI1MDgwMy4wIKXMDSoASAFQAw%3D%3D"
  },
  {
    "name": "Ancient adinarayana temple",
    "lat": 12.5224557,
    "lng": 77.4287519,
    "url": "https://www.google.com/maps/place/Ancient+adinarayana+temple/@12.5224557,77.4287519,17z/data=!3m1!4b1!4m6!3m5!1s0x3bae59b44117ca91:0x717d052a7801f3c2!8m2!3d12.5224557!4d77.4287519!16s%2Fg%2F11nnwcflsl?entry=ttu&g_ep=EgoyMDI1MDgwMy4wIKXMDSoASAFQAw%3D%3D"
  },
  {
    "name": "THIRUMALANATHA SWAMY TEMPLE, PEDDA DAGADA",
    "lat": 16.0498343,
    "lng": 78.157153,
    "url": "https://www.google.com/maps/place/%E0%B0%A4%E0%B0%BF%E0%B0%B0%E0%B1%81%E0%B0%AE%E0%B0%B2%E0%B0%A8%E0%B0%BE%E0%B0%A5%E0%B0%B8%E0%B1%8D%E0%B0%B5%E0%B0%BE%E0%B0%AE%E0%B0%BF+%E0%B0%A6%E0%B1%87%E0%B0%B5%E0%B0%BE%E0%B0%B2%E0%B0%AF%E0%B0%82,+%E0%B0%AA%E0%B1%86%E0%B0%A6%E0%B1%8D%E0%B0%A6+%E0%B0%A6%E0%B0%97%E0%B0%A1+%E0%B0%97%E0%B1%8D%E0%B0%B0%E0%B0%BE%E0%B0%AE%E0%B0%82,+%E0%B0%B5%E0%B0%A8%E0%B0%AA%E0%B0%B0%E0%B1%8D%E0%B0%A4%E0%B0%BF+%E0%B0%9C%E0%B0%BF%E0%B0%B2%E0%B1%8D%E0%B0%B2%E0%B0%BE/@16.0498343,78.157153,17z/data=!3m1!4b1!4m6!3m5!1s0x3bb5f1b2b827ffe5:0xfdf095c3d3072afe!8m2!3d16.0498343!4d78.157153!16s%2Fg%2F11c2lblq9_?entry=ttu&g_ep=EgoyMDI1MDgwMy4wIKXMDSoASAFQAw%3D%3D"
  },
  {
    "name": "Ambika Devi Temple",
    "lat": 30.4024685,
    "lng": 78.0954266,
    "url": "https://www.google.com/maps/place/Ambika+Devi+Temple/@30.4024685,78.0954266,17z/data=!3m1!4b1!4m6!3m5!1s0x3908d77115ceec19:0x91b04eccc854e624!8m2!3d30.4024685!4d78.0954266!16s%2Fg%2F11g6nhp_dj?entry=ttu&g_ep=EgoyMDI1MDgwMy4wIKXMDSoASAFQAw%3D%3D"
  },
  {
    "name": "Shri Anandi Swami Temple",
    "lat": 19.8403735,
    "lng": 75.8825495,
    "url": "https://www.google.com/maps/place/Shri+Anandi+Swamy+Temple/@19.8403735,75.8825495,17z/data=!3m1!4b1!4m6!3m5!1s0x3bda5743fe0ef629:0x8fda71cc42850351!8m2!3d19.8403735!4d75.8825495!16s%2Fg%2F11b6gh87pb?entry=ttu&g_ep=EgoyMDI1MDgwMy4wIKXMDSoASAFQAw%3D%3D"
  },
  {
    "name": "Velur Karthyayani Temple",
    "lat": 10.6428384,
    "lng": 76.1529796,
    "url": "https://www.google.com/maps/place/Velur+Karthyayani+Temple/@10.6428384,76.1529796,17z/data=!3m1!4b1!4m6!3m5!1s0x3ba7ea40dd4ee33f:0x650dac99db94561c!8m2!3d10.6428384!4d76.1529796!16s%2Fg%2F11bw21mhr9?entry=ttu&g_ep=EgoyMDI1MDgwMy4wIKXMDSoASAFQAw%3D%3D"
  },
  {
    "name": "Cenotaph of Raja Gangadhar Rao",
    "lat": 25.4584688,
    "lng": 78.5906657,
    "url": "https://www.google.com/maps/place/Cenotaph+of+Raja+Gangadhar+Rao/@25.4584688,78.5906657,17z/data=!3m1!4b1!4m6!3m5!1s0x397776e0cc6b8f6f:0x1deffdf9e18dbb7c!8m2!3d25.4584688!4d78.5906657!16s%2Fg%2F11ckqsxt84?entry=ttu&g_ep=EgoyMDI1MDgwMy4wIKXMDSoASAFQAw%3D%3D"
  },
  {
    "name": "Bagishayadi Temple",
    "lat": 31.8122518,
    "lng": 77.3951653,
    "url": "https://www.google.com/maps/place/Bagishayadi+Temple+(Jagthamba+Rishi)/@31.8122518,77.3951653,17z/data=!3m1!4b1!4m6!3m5!1s0x39044de3fb4b2d01:0x4b1e727953f89a7c!8m2!3d31.8122518!4d77.3951653!16s%2Fg%2F11b6gm9zbp?entry=ttu&g_ep=EgoyMDI1MDgwMy4wIKXMDSoASAFQAw%3D%3D"
  },
  {
    "name": "Madana Venugopala Swamy Temple",
    "lat": 16.0542939,
    "lng": 78.2101122,
    "url": "https://www.google.com/maps/place/Madana+Venugopala+Swamy+Temple/@16.0542939,78.2101122,17z/data=!3m1!4b1!4m6!3m5!1s0x3bb5f22f78e867f1:0x4083a40626c3e44f!8m2!3d16.0542939!4d78.2101122!16s%2Fg%2F1hhly5lfp?entry=ttu&g_ep=EgoyMDI1MDgwMy4wIKXMDSoASAFQAw%3D%3D"
  },
  {
    "name": "SriRama Temple(Sri BhooNeela Sametha Cheluva Champaka Varadaraja Swamy)",
    "lat": 12.8360236,
    "lng": 77.725481,
    "url": "https://www.google.com/maps/place/SriRama+Temple(Sri+BhooNeela+Sametha+Cheluva+Champaka+Varadaraja+Swamy)/@12.8360236,77.725481,17z/data=!3m1!4b1!4m6!3m5!1s0x3bae6d9e4c4d88b7:0x860e465aa0add723!8m2!3d12.8360236!4d77.725481!16s%2Fg%2F11c508x14z?entry=ttu&g_ep=EgoyMDI1MDgwMy4wIKXMDSoASAFQAw%3D%3D"
  },
  {
    "name": "Mahadev Temple Devapur",
    "lat": 17.6064342,
    "lng": 74.8396933,
    "url": "https://www.google.com/maps/place/Mahadev+Temple+Devapur/@17.6064342,74.8396933,17z/data=!3m1!4b1!4m6!3m5!1s0x3bc3fa4fdac5101f:0x62e344e59ef68810!8m2!3d17.6064342!4d74.8396933!16s%2Fg%2F11_q1j7ks?entry=ttu&g_ep=EgoyMDI1MDgwMy4wIKXMDSoASAFQAw%3D%3D"
  },
  {
    "name": "Lakhamandal , Jaunsar Bawar",
    "lat": 30.7323017,
    "lng": 78.070485,
    "url": "https://www.google.com/maps/place/Lakhamandal+,+Jaunsar+Bawar/@30.7323017,78.070485,17z/data=!3m1!4b1!4m6!3m5!1s0x3909290b2b4e1bf7:0xdb1bbbb6435c0e82!8m2!3d30.7323017!4d78.070485!16s%2Fg%2F11h49jfr18?entry=ttu&g_ep=EgoyMDI1MDgwMy4wIKXMDSoASAFQAw%3D%3D"
  },
  {
    "name": "Jatprole group of temples (20 Shivalayams)",
    "lat": 16.0563833,
    "lng": 78.209807,
    "url": "https://www.google.com/maps/place/Jatprole+Group+of+Temples+(20+Shivalayams)/@16.0563833,78.209807,17z/data=!3m1!4b1!4m6!3m5!1s0x3bb5f22f1ae48431:0xe15ca44bece6203d!8m2!3d16.0563833!4d78.209807!16s%2Fg%2F124ybtpjy?entry=ttu&g_ep=EgoyMDI1MDgwMy4wIKXMDSoASAFQAw%3D%3D"
  },
  {
    "name": "Nimbalkar Chhatri",
    "lat": 18.6408611,
    "lng": 75.4763512,
    "url": "https://www.google.com/maps/place/Nimbalkar+Chhatri/@18.6408611,75.4763512,17z/data=!3m1!4b1!4m6!3m5!1s0x3bc4c35c697bfd97:0xd5ac839a7cf6c607!8m2!3d18.6408611!4d75.4763512!16s%2Fg%2F11fl0y3ntp?entry=ttu&g_ep=EgoyMDI1MDgwMy4wIKXMDSoASAFQAw%3D%3D"
  },
  {
    "name": "Chanchra Shiva Temple",
    "lat": 23.1444495,
    "lng": 89.2041477,
    "url": "https://www.google.com/maps/place/Chanchra+Shiva+Temple/@23.1444495,89.2041477,17z/data=!3m1!4b1!4m6!3m5!1s0x39ff110ec781119d:0xecc4c01b2c42528e!8m2!3d23.1444495!4d89.2041477!16s%2Fg%2F11slv96s9_?entry=ttu&g_ep=EgoyMDI1MDgwMy4wIKXMDSoASAFQAw%3D%3D"
  },
  {
    "name": "Kurooramma Temple, Vengilassery",
    "lat": 10.6520622,
    "lng": 76.1551774,
    "url": "https://www.google.com/maps/place/Sree+Kurooramma+Temple,+Vengilassery/@10.6520622,76.1551774,17z/data=!3m1!4b1!4m6!3m5!1s0x3ba7ea6b52d2f2e1:0xed7eeaf4a6f8dc46!8m2!3d10.6520622!4d76.1551774!16s%2Fg%2F1hjh4267d?entry=ttu&g_ep=EgoyMDI1MDgwMy4wIKXMDSoASAFQAw%3D%3D"
  },
  {
    "name": "Shree Jagdish Swami Mandir",
    "lat": 24.7194941,
    "lng": 80.1883011,
    "url": "https://www.google.com/maps/place/Jaganath+swami+mandir+panna/@24.7194941,80.1883011,17z/data=!3m1!4b1!4m6!3m5!1s0x398305c12deb3689:0x984ea62bdfc49dce!8m2!3d24.7194941!4d80.1883011!16s%2Fg%2F11lh5qfbz8?entry=ttu&g_ep=EgoyMDI1MDgwMy4wIKXMDSoASAFQAw%3D%3D"
  },
  {
    "name": "Sura Devi Temple",
    "lat": 30.3867703,
    "lng": 78.0839331,
    "url": "https://www.google.com/maps/place/Sura+Devi+Temple/@30.3867703,78.0839331,17z/data=!3m1!4b1!4m6!3m5!1s0x3908d7996f573895:0x604f9e26942ab879!8m2!3d30.3867703!4d78.0839331!16s%2Fg%2F11f66c9bn8?entry=ttu&g_ep=EgoyMDI1MDgwMy4wIKXMDSoASAFQAw%3D%3D"
  },
  {
    "name": "Sri Venugopala Swamy Temple",
    "lat": 12.5863125,
    "lng": 77.6544375,
    "url": "https://www.google.com/maps/place/Sri+Venugopala+Swamy+Temple/@12.5863125,77.6544375,17z/data=!3m1!4b1!4m6!3m5!1s0x3bae63df8eef219b:0x1f4a2446f1498229!8m2!3d12.5863125!4d77.6544375!16s%2Fg%2F11ddx2hz9y?entry=ttu&g_ep=EgoyMDI1MDgwMy4wIKXMDSoASAFQAw%3D%3D"
  },
  {
    "name": "Shree Tirthankar Munisuvrat bhagwan Digambar jain mandir",
    "lat": 22.5969859,
    "lng": 76.9112363,
    "url": "https://www.google.com/maps/place/Shree+Tirthankar+Munisuvrat+bhagwan+Digambar+jain+mandir/@22.5969859,76.9112363,17z/data=!3m1!4b1!4m6!3m5!1s0x397d16d141059691:0xfff4c4436a1f76bc!8m2!3d22.5969859!4d76.9112363!16s%2Fg%2F11g9nptf59?entry=ttu&g_ep=EgoyMDI1MDgwMy4wIKXMDSoASAFQAw%3D%3D"
  },
  {
    "name": "Suryanarayana Temple",
    "lat": 16.0200366,
    "lng": 75.8815035,
    "url": "https://www.google.com/maps/place/Shree+Suryanarayana+Temple,Aihole/@16.0200366,75.8815035,17z/data=!3m1!4b1!4m6!3m5!1s0x3bb87834131068c5:0x637a71bed1ae46cd!8m2!3d16.0200366!4d75.8815035!16s%2Fg%2F1tdm25bk?entry=ttu&g_ep=EgoyMDI1MDgwMy4wIKXMDSoASAFQAw%3D%3D"
  },
  {
    "name": "Bawali Gupta Vrindavan Dham",
    "lat": 22.4212203,
    "lng": 88.1933046,
    "url": "https://www.google.com/maps/place/Bawali+Gupta+Vrindavan+Dham/@22.4212203,88.1933046,17z/data=!3m1!4b1!4m6!3m5!1s0x3a02630f1182d3e1:0x1d36fa2e43e91722!8m2!3d22.4212203!4d88.1933046!16s%2Fg%2F11pv2gnt5g?entry=ttu&g_ep=EgoyMDI1MDgwMy4wIKXMDSoASAFQAw%3D%3D"
  },
  {
    "name": "Therkkil Parappurath Siva Temple.",
    "lat": 10.6239769,
    "lng": 76.1873756,
    "url": "https://www.google.com/maps/place/Therkkil+Parappurath+Siva+Temple./@10.6239769,76.1873756,17z/data=!3m1!4b1!4m6!3m5!1s0x3ba7e9785487d545:0x9926326ea6db25c7!8m2!3d10.6239769!4d76.1873756!16s%2Fg%2F1hjhcgw2_?entry=ttu&g_ep=EgoyMDI1MDgwMy4wIKXMDSoASAFQAw%3D%3D"
  },
  {
    "name": "Hemad Panthi Mahadev Mandir",
    "lat": 20.8158441,
    "lng": 74.7445191,
    "url": "https://www.google.com/maps/place/Hemad+Panthi+Mahadev+Mandir/@20.8158441,74.7445191,17z/data=!3m1!4b1!4m6!3m5!1s0x3bdec7fac71c0efd:0xcd30bba4c27e3e4e!8m2!3d20.8158441!4d74.7445191!16s%2Fg%2F11ghnpws3h?entry=ttu&g_ep=EgoyMDI1MDgwNC4wIKXMDSoASAFQAw%3D%3D"
  },
  {
    "name": "Raja Jay Singh Ki Chhatri",
    "lat": 21.2627008,
    "lng": 76.2130279,
    "url": "https://www.google.com/maps/place/Raja+Jay+Singh+Ki+Chhatri/@21.2627008,76.2130279,17z/data=!3m1!4b1!4m6!3m5!1s0x3bd9ccc2cb583335:0x471b5ce254dae7ae!8m2!3d21.2627008!4d76.2130279!16s%2Fg%2F1tks4srq?entry=ttu&g_ep=EgoyMDI1MDgwMy4wIKXMDSoASAFQAw%3D%3D"
  },
  {
    "name": "Shri Jogulamba Temple",
    "lat": 15.8769909,
    "lng": 78.1346258,
    "url": "https://www.google.com/maps/place/Shri+Jogulamba+Ammavari+Temple+-+5th+Shakti+Peetham/@15.8769909,78.1346258,17z/data=!3m1!4b1!4m6!3m5!1s0x3bb5e8f55bb958d1:0x81281f8818d86e45!8m2!3d15.8769909!4d78.1346258!16s%2Fg%2F1td6l2w9?entry=ttu&g_ep=EgoyMDI1MDgwMy4wIKXMDSoASAFQAw%3D%3D"
  },
  {
    "name": "Twin Jain Temples Complex",
    "lat": 16.0187868,
    "lng": 75.8818831,
    "url": "https://www.google.com/maps/place/India,+Karnataka,+Aihole,+Lamp+2V9J%2BFQX/@16.0187868,75.8818831,17z/data=!3m1!4b1!4m6!3m5!1s0x3bb878347cf6adfd:0x7e90b5c05b5a062a!8m2!3d16.0187446!4d75.8819884!16s%2Fg%2F11b8tblrbw?entry=ttu&g_ep=EgoyMDI1MDgwNC4wIKXMDSoASAFQAw%3D%3D"
  },
  {
    "name": "Janki Nath Mandir",
    "lat": 31.8975711,
    "lng": 76.5925185,
    "url": "https://www.google.com/maps/place/Janki+Nath+Mandir/@31.8975711,76.5925185,17z/data=!3m1!4b1!4m6!3m5!1s0x3904ced89a29dfff:0x8f5db71038c3776b!8m2!3d31.8975711!4d76.5925185!16s%2Fg%2F1hm3dcg6x?entry=ttu&g_ep=EgoyMDI1MDgwMy4wIKXMDSoASAFQAw%3D%3D"
  },
  {
    "name": "Bahuchar Mata Temple Becharaji",
    "lat": 23.5001101,
    "lng": 72.0447983,
    "url": "https://www.google.com/maps/place/Shree+Bahuchar+Mataji+Temple+Becharaji/@23.5001101,72.0447983,17z/data=!3m1!4b1!4m6!3m5!1s0x395c7482f9aae8b9:0xec74f887b771dae6!8m2!3d23.5001101!4d72.0447983!16s%2Fg%2F11bcf3ps11?entry=ttu&g_ep=EgoyMDI1MDgwMy4wIKXMDSoASAFQAw%3D%3D"
  },
  {
    "name": "Royal Cenotaphs",
    "lat": 26.3525748,
    "lng": 73.0351675,
    "url": "https://www.google.com/maps/place/Royal+Cenotaphs/@26.3525748,73.0351675,17z/data=!3m1!4b1!4m6!3m5!1s0x394192614e4af993:0x3dfe35b92b8785fc!8m2!3d26.3525748!4d73.0351675!16s%2Fg%2F1232kcd_t?entry=ttu&g_ep=EgoyMDI1MDgwMy4wIKXMDSoASAFQAw%3D%3D"
  },
  {
    "name": "Shree Ashapura Mata Temple",
    "lat": 21.9693694,
    "lng": 70.1011351,
    "url": "https://www.google.com/maps/place/X492%2BPCP+Shree+Ashapura+Mata+Temple,+GJ+SH+229,+Dhrafa,+Gujarat+360520,+India/@21.9693694,70.1011351,17z/data=!3m1!4b1!4m6!3m5!1s0x395799b460fc63bd:0x9b54040702d57213!8m2!3d21.9693456!4d70.1011587!16s%2Fg%2F11c3p2dvjk?entry=ttu&g_ep=EgoyMDI1MDgwMy4wIKXMDSoASAFQAw%3D%3D"
  },
  {
    "name": "Sri Yoganarasimha Swamy Temple",
    "lat": 15.8750571,
    "lng": 78.1332891,
    "url": "https://www.google.com/maps/place/V4FM%2BX7X+Sri+Yoganarasimha+Swamy+Temple,+Alampur+(P),+Telangana+509152,+India/@15.8750571,78.1332891,17z/data=!3m1!4b1!4m6!3m5!1s0x3bb5e8600b5826ed:0xea877edce7dfa96e!8m2!3d15.8750581!4d78.1333262!16s%2Fg%2F11b8tg6p0_?entry=ttu&g_ep=EgoyMDI1MDgwMy4wIKXMDSoASAFQAw%3D%3D"
  },
  {
    "name": "koteshwar maharaj temple",
    "lat": 26.4885712,
    "lng": 74.556384,
    "url": "https://www.google.com/maps/place/koteshwar+maharaj+temple/@26.4885712,74.556384,17z/data=!3m1!4b1!4m6!3m5!1s0x396bddd2035d37e9:0xc51bb0ea222abda!8m2!3d26.4885712!4d74.556384!16s%2Fg%2F11fjv53wgz?entry=ttu&g_ep=EgoyMDI1MDgwMy4wIKXMDSoASAFQAw%3D%3D"
  },
  {
    "name": "Jora Shiv Temple",
    "lat": 22.4494578,
    "lng": 88.3670344,
    "url": "https://www.google.com/maps/place/Jora+Shiv+Temple/@22.4494578,88.3670344,17z/data=!3m1!4b1!4m6!3m5!1s0x3a0271b419de2c11:0x87f41f9d800c6a15!8m2!3d22.4494578!4d88.3670344!16s%2Fg%2F1w4f6j9r?entry=ttu&g_ep=EgoyMDI1MDgwMy4wIKXMDSoASAFQAw%3D%3D"
  },
  {
    "name": "Murli Manohar Temple",
    "lat": 31.8319063,
    "lng": 76.5056294,
    "url": "https://www.google.com/maps/place/Murli+Manohar+Temple/@31.8319063,76.5056294,17z/data=!3m1!4b1!4m6!3m5!1s0x3904cd9e628662cb:0x572b40d43e2804fd!8m2!3d31.8319063!4d76.5056294!16s%2Fg%2F1261hzh2f?entry=ttu&g_ep=EgoyMDI1MDgwMy4wIKXMDSoASAFQAw%3D%3D"
  },
  {
    "name": "Pruthvinath Mahadev Temple",
    "lat": 21.962274,
    "lng": 70.1009018,
    "url": "https://www.google.com/maps/place/Pruthvinath+Mahadev+Temple/@21.962274,70.1009018,17z/data=!3m1!4b1!4m6!3m5!1s0x395799caff0d2f2d:0xc0f8a6111e604384!8m2!3d21.962274!4d70.1009018!16s%2Fg%2F1s04wptsk?entry=ttu&g_ep=EgoyMDI1MDgwMy4wIKXMDSoASAFQAw%3D%3D"
  },
  {
    "name": "Trimbakeshwar temple complex",
    "lat": 16.0184457,
    "lng": 75.882504,
    "url": "https://www.google.com/maps/place/Trimbakeshwar+temple+complex/@16.0184457,75.882504,17z/data=!3m1!4b1!4m6!3m5!1s0x3bb879c77171aac5:0x3b53e01769d4b370!8m2!3d16.0184457!4d75.882504!16s%2Fg%2F11hf2c5zbh?entry=ttu&g_ep=EgoyMDI1MDgwNC4wIKXMDSoASAFQAw%3D%3D"
  },
  {
    "name": "Someswara Swamy Temple",
    "lat": 44.2423649,
    "lng": -119.8093025,
    "url": "https://www.google.com/maps/place//@44.2423649,-119.8093025,3z/data=!3m1!4b1?entry=ttu&g_ep=EgoyMDI1MDgwMy4wIKXMDSoASAFQAw%3D%3D"
  },
  {
    "name": "Sri Satya Narayana Swamy Devasthanam",
    "lat": 15.8141701,
    "lng": 78.0402069,
    "url": "https://www.google.com/maps/place/Sri+Satya+Narayana+Swamy+Devasthanam/@15.8141701,78.0402069,17z/data=!3m1!4b1!4m6!3m5!1s0x3bb5dd07db2c0875:0x698174ff6f1ec9d1!8m2!3d15.8141701!4d78.0402069!16s%2Fg%2F1tkjjm_6?entry=ttu&g_ep=EgoyMDI1MDgwMy4wIKXMDSoASAFQAw%3D%3D"
  },
  {
    "name": "Cenotaph of Maharaja Ajit Singh",
    "lat": 26.352573,
    "lng": 73.0351373,
    "url": "https://www.google.com/maps/place/Cenotaph+of+Maharaja+Jaswant+Singh/@26.352573,73.0351373,17z/data=!3m1!4b1!4m6!3m5!1s0x394193d438a246a3:0xc721dda0f9903e15!8m2!3d26.352573!4d73.0351373!16s%2Fg%2F11fps3fvqw?entry=ttu&g_ep=EgoyMDI1MDgwMy4wIKXMDSoASAFQAw%3D%3D"
  },
  {
    "name": "Jagannath Temple",
    "lat": 22.286296,
    "lng": 88.2368948,
    "url": "https://www.google.com/maps/place/Jagannath+Temple/@22.286296,88.2368948,17z/data=!3m1!4b1!4m6!3m5!1s0x3a02612f866161f7:0xd60d77d8754d3721!8m2!3d22.286296!4d88.2368948!16s%2Fg%2F11c6zyr568?entry=ttu&g_ep=EgoyMDI1MDgwNC4wIKXMDSoASAFQAw%3D%3D"
  },
  {
    "name": "Tripura Sundari Temple",
    "lat": 29.6003649,
    "lng": 79.6615472,
    "url": "https://www.google.com/maps/place/Tripura+Sundari+Temple/@29.6003649,79.6615472,17z/data=!3m1!4b1!4m6!3m5!1s0x39a0b73a76912a25:0x8af7dcd3b93643d7!8m2!3d29.6003649!4d79.6615472!16s%2Fg%2F1tfd0t7c?entry=ttu&g_ep=EgoyMDI1MDgwMy4wIKXMDSoASAFQAw%3D%3D"
  },
  {
    "name": "sri venkateshwara swamy temple",
    "lat": 16.0530884,
    "lng": 78.3211701,
    "url": "https://www.google.com/maps/place/sri+venkateshwara+swamy+temple/@16.0530884,78.3211701,17z/data=!3m1!4b1!4m6!3m5!1s0x3bb58d2853f2c173:0x9a5a55613b1ad6ff!8m2!3d16.0530884!4d78.3211701!16s%2Fg%2F11h1m4cj74?entry=ttu&g_ep=EgoyMDI1MDgwMy4wIKXMDSoASAFQAw%3D%3D"
  },
  {
    "name": "Sri Siddeshwara Swamy Temple",
    "lat": 14.144502,
    "lng": 75.8811468,
    "url": "https://www.google.com/maps/place/Sri+Siddeshwara+Swamy+Temple/@14.144502,75.8811468,17z/data=!3m1!4b1!4m6!3m5!1s0x3bba48b4b8d35daf:0xf6588169d14af7da!8m2!3d14.144502!4d75.8811468!16s%2Fg%2F11g8c7lfvl?entry=ttu&g_ep=EgoyMDI1MDgwMy4wIKXMDSoASAFQAw%3D%3D"
  },
  {
    "name": "Sita RaM Mandir Bijapur",
    "lat": 31.9047768,
    "lng": 76.6105501,
    "url": "https://www.google.com/maps/place/Sita+RaM+Mandir+Bijapur/@31.9047768,76.6105501,17z/data=!3m1!4b1!4m6!3m5!1s0x3904cf4f9c2313c7:0xb94cb48accb1c290!8m2!3d31.9047768!4d76.6105501!16s%2Fg%2F11gxxh86tb?entry=ttu&g_ep=EgoyMDI1MDgwMy4wIKXMDSoASAFQAw%3D%3D"
  },
  {
    "name": "Ancient Digambar Jain Temple",
    "lat": 16.0129334,
    "lng": 75.8880575,
    "url": "https://www.google.com/maps/place/2V7Q%2B566,+Aihole,+Karnataka+587124,+India/@16.0129334,75.8880575,17z/data=!3m1!4b1!4m6!3m5!1s0x3bb879cd816b75dd:0x2225ceeaf7b6ab78!8m2!3d16.0129135!4d75.8880239!16s%2Fg%2F11bvtgrs46?entry=ttu&g_ep=EgoyMDI1MDgwMy4wIKXMDSoASAFQAw%3D%3D"
  },
  {
    "name": "Laxmi Narayan Temple",
    "lat": 31.38246,
    "lng": 77.2015959,
    "url": "https://www.google.com/maps/place/Laxmi+Narsingh+Temple/@31.38246,77.2015959,17z/data=!3m1!4b1!4m6!3m5!1s0x3905a07a0a9c0e03:0x7a50e2db5b809bcd!8m2!3d31.38246!4d77.2015959!16s%2Fg%2F11b6dxc028?entry=ttu&g_ep=EgoyMDI1MDgwMy4wIKXMDSoASAFQAw%3D%3D"
  },
  {
    "name": "Kala Gora Bheru Ji Temple Mandore",
    "lat": 26.3524361,
    "lng": 73.0327406,
    "url": "https://www.google.com/maps/place/Mandor+Kala+Gora+Bheruji+Temple/@26.3524361,73.0327406,17z/data=!3m1!4b1!4m6!3m5!1s0x394192668fd88c4d:0x82b811acdc128cdf!8m2!3d26.3524361!4d73.0327406!16s%2Fg%2F11f40063mg?entry=ttu&g_ep=EgoyMDI1MDgwMy4wIKXMDSoASAFQAw%3D%3D"
  },
  {
    "name": "Kalkiji Mandir - Sovabazar",
    "lat": 22.597214,
    "lng": 88.365249,
    "url": "https://www.google.com/maps/place/Kalkiji+Mandir+-+Sovabazar/@22.597214,88.365249,17z/data=!3m1!4b1!4m6!3m5!1s0x3a027632515275c1:0x8ed026091519ffd5!8m2!3d22.597214!4d88.365249!16s%2Fg%2F11bwfkkxcv?entry=ttu&g_ep=EgoyMDI1MDgwNC4wIKXMDSoASAFQAw%3D%3D"
  },
  {
    "name": "Shri Beeralingeshwara Temple",
    "lat": 14.3997117,
    "lng": 75.8075168,
    "url": "https://www.google.com/maps/place/Shri+Beeralingeshwara+Temple/@14.3997117,75.8075168,17z/data=!3m1!4b1!4m6!3m5!1s0x3bba31f7fa3b9487:0x6988e1fe19cbb6d8!8m2!3d14.3997117!4d75.8075168!16s%2Fg%2F11g6p0lbz5?entry=ttu&g_ep=EgoyMDI1MDgwMy4wIKXMDSoASAFQAw%3D%3D"
  },
  {
    "name": "Jagannath Temple",
    "lat": 20.8472822,
    "lng": 83.9111746,
    "url": "https://www.google.com/maps/place/Jagannath+Temple/@20.8472822,83.9111746,17z/data=!3m1!4b1!4m6!3m5!1s0x3a23e774b4a7c6ad:0x4010cecc4401557f!8m2!3d20.8472822!4d83.9111746!16s%2Fg%2F11cn0rzj_w?entry=ttu&g_ep=EgoyMDI1MDgwMy4wIKXMDSoASAFQAw%3D%3D"
  },
  {
    "name": "SHRANG RISHI ASHRAM",
    "lat": 28.9698092,
    "lng": 77.9489952,
    "url": "https://www.google.com/maps/place/SHRANG+RISHI+ASHRAM/@28.9698092,77.9489952,17z/data=!3m1!4b1!4m6!3m5!1s0x390b874a5a269d1f:0x41830928bfe16251!8m2!3d28.9698092!4d77.9489952!16s%2Fg%2F1jgly0v01?entry=ttu&g_ep=EgoyMDI1MDgwMy4wIKXMDSoASAFQAw%3D%3D"
  },
  {
    "name": "Arulmigu South Kasi Sivan Temple",
    "lat": 8.9567034,
    "lng": 77.3078516,
    "url": "https://www.google.com/maps/place/Arulmigu+Kaasi+Viswanathar+Temple,+Tenkasi/@8.9567034,77.3078516,17z/data=!3m1!4b1!4m6!3m5!1s0x3b0429e841b94bab:0x698e5add1bb93502!8m2!3d8.9567034!4d77.3078516!16s%2Fg%2F11fy4gcc93?entry=ttu&g_ep=EgoyMDI1MDgwMy4wIKXMDSoASAFQAw%3D%3D"
  },
  {
    "name": "chamunda Mataji Mandir",
    "lat": 26.3543867,
    "lng": 73.032276,
    "url": "https://www.google.com/maps/place/chamunda+Mataji+Mandir/@26.3543867,73.032276,17z/data=!3m1!4b1!4m6!3m5!1s0x394192670269761f:0x6e490ac33a2deb2b!8m2!3d26.3543867!4d73.032276!16s%2Fg%2F11f15d2c98?entry=ttu&g_ep=EgoyMDI1MDgwMy4wIKXMDSoASAFQAw%3D%3D"
  },
  {
    "name": "Mamleshwar Mahadev Temple",
    "lat": 31.380337,
    "lng": 77.2188687,
    "url": "https://www.google.com/maps/place/Mamleshwar+Mahadev+Temple,+Mamel,+Karsog./@31.380337,77.2188687,17z/data=!3m1!4b1!4m6!3m5!1s0x3905a042422e914b:0x405d1b83294de0f3!8m2!3d31.380337!4d77.2188687!16s%2Fg%2F12ls_3n7b?entry=ttu&g_ep=EgoyMDI1MDgwMy4wIKXMDSoASAFQAw%3D%3D"
  },
  {
    "name": "Baba Rameswar Shiva Dham (Baba Rameswar Dham)",
    "lat": 22.5976903,
    "lng": 88.3622888,
    "url": "https://www.google.com/maps/place/Baba+Rameswar+Shiva+Dham+(Baba+Rameswar+Dham)/@22.5976903,88.3622888,17z/data=!3m1!4b1!4m6!3m5!1s0x3a0277cd30029365:0xb1640298e8f8351f!8m2!3d22.5976903!4d88.3622888!16s%2Fg%2F1jglzbzk9?entry=ttu&g_ep=EgoyMDI1MDgwMy4wIKXMDSoASAFQAw%3D%3D"
  },
  {
    "name": "Ancient Uma Maheshwara Temple",
    "lat": 14.3991453,
    "lng": 75.8087928,
    "url": "https://www.google.com/maps/place/Ancient+Uma+Maheshwara+Temple/@14.3991453,75.8087928,17z/data=!3m1!4b1!4m6!3m5!1s0x3bba31f79131b6f7:0xe01e7b05944c557a!8m2!3d14.3991453!4d75.8087928!16s%2Fg%2F11fzf3swgd?entry=ttu&g_ep=EgoyMDI1MDgwMy4wIKXMDSoASAFQAw%3D%3D"
  },
  {
    "name": "\u091c\u0941\u0928\u093e \u0915\u0947 \u092a\u094d\u0930\u093e\u091a\u0940\u0928 \u092e\u0928\u094d\u0926\u093f\u0930",
    "lat": 25.652085,
    "lng": 71.2235956,
    "url": "https://www.google.com/maps/place/%E0%A4%9C%E0%A5%81%E0%A4%A8%E0%A4%BE+%E0%A4%95%E0%A5%87+%E0%A4%AA%E0%A5%8D%E0%A4%B0%E0%A4%BE%E0%A4%9A%E0%A5%80%E0%A4%A8+%E0%A4%AE%E0%A4%A8%E0%A5%8D%E0%A4%A6%E0%A4%BF%E0%A4%B0/@25.652085,71.2235956,17z/data=!3m1!4b1!4m6!3m5!1s0x394433639531719d:0x61be8b74226861d6!8m2!3d25.652085!4d71.2235956!16s%2Fg%2F11f2xxzfrv?entry=ttu&g_ep=EgoyMDI1MDgwMy4wIKXMDSoASAFQAw%3D%3D"
  },
  {
    "name": "Ramgarh Mata Temple ( jai Kasnai Mata Ki )",
    "lat": 25.3324651,
    "lng": 76.6355938,
    "url": "https://www.google.com/maps/place/Ramgarh+Mata+Temple+(+Shri+Krishnai+Mata+Ji+)/@25.3324651,76.6355938,17z/data=!3m1!4b1!4m6!3m5!1s0x397019f61450b883:0x44fa5897fa5187f!8m2!3d25.3324651!4d76.6355938!16s%2Fg%2F11c2psw5kn?entry=ttu&g_ep=EgoyMDI1MDgwMy4wIKXMDSoASAFQAw%3D%3D"
  },
  {
    "name": "Sangameshwaram Lord Shiva temple",
    "lat": 16.0232497,
    "lng": 78.3301423,
    "url": "https://www.google.com/maps/place/Sri+Sangameshwaram+Lord+Shiva+temple/@16.0232497,78.3301423,17z/data=!3m1!4b1!4m6!3m5!1s0x3bb592848311061b:0x37034beacd135def!8m2!3d16.0232497!4d78.3301423!16s%2Fm%2F0c42b10?entry=ttu&g_ep=EgoyMDI1MDgwNC4wIKXMDSoASAFQAw%3D%3D"
  },
  {
    "name": "Omkar Ratneshwar Mahadev Mandir",
    "lat": 30.5193468,
    "lng": 79.1335633,
    "url": "https://www.google.com/maps/place/Omkar+Ratneshwar+Mahadev+Mandir/@30.5193468,79.1335633,17z/data=!3m1!4b1!4m6!3m5!1s0x390833c2bfb980a7:0xe417adbfc8f3c64a!8m2!3d30.5193468!4d79.1335633!16s%2Fg%2F11cs3_hc5z?entry=ttu&g_ep=EgoyMDI1MDgwMy4wIKXMDSoASAFQAw%3D%3D"
  },
  {
    "name": "Thirumohoor Shri Kalameghaperumal Temple",
    "lat": 9.9507999,
    "lng": 78.2071004,
    "url": "https://www.google.com/maps/place/Thirumogoor+Shri+Kalameghaperumal+Temple+-+Madurai/@9.9507999,78.2071004,17z/data=!3m1!4b1!4m6!3m5!1s0x3b00c3f984504dfd:0x5d78f0b1b270ee48!8m2!3d9.9507999!4d78.2071004!16s%2Fm%2F05mqngg?entry=ttu&g_ep=EgoyMDI1MDgwNC4wIKXMDSoASAFQAw%3D%3D"
  },
  {
    "name": "Ambikeshwar Mahadev Mandir,sagar road,amber",
    "lat": 26.9907754,
    "lng": 75.8512623,
    "url": "https://www.google.com/maps/place/Ambikeshwar+Mahadev+Mandir/@26.9907754,75.8512623,17z/data=!3m1!4b1!4m6!3m5!1s0x396db1b4e2ac5355:0xb5a07527ac855597!8m2!3d26.9907754!4d75.8512623!16s%2Fg%2F11c0vlp2sq?entry=ttu&g_ep=EgoyMDI1MDgwMy4wIKXMDSoASAFQAw%3D%3D"
  },
  {
    "name": "Shanta Mallappa Temple",
    "lat": 15.6352178,
    "lng": 77.2974001,
    "url": "https://www.google.com/maps/place/J7PX%2B422+Shanta+Mallappa+Temple,+Andhra+Pradesh+518302,+India/@15.6352178,77.2974001,17z/data=!3m1!4b1!4m6!3m5!1s0x3bb64e7ad057e9c9:0xdfa5071fd2782251!8m2!3d15.6352714!4d77.2974845!16s%2Fg%2F11bvtgns22?entry=ttu&g_ep=EgoyMDI1MDgwMy4wIKXMDSoASAFQAw%3D%3D"
  },
  {
    "name": "Revanasiddeswara Temple Navanagara Bagalkot",
    "lat": 16.168133,
    "lng": 75.6481294,
    "url": "https://www.google.com/maps/place/Revanasiddeswara+Temple+Navanagara+Bagalkot/@16.168133,75.6481294,17z/data=!3m1!4b1!4m6!3m5!1s0x3bc77913beb8999b:0xf6462ee27f023e25!8m2!3d16.168133!4d75.6481294!16s%2Fg%2F11c2r651bl?entry=ttu&g_ep=EgoyMDI1MDgwMy4wIKXMDSoASAFQAw%3D%3D"
  },
  {
    "name": "Baijnath temples",
    "lat": 29.9071843,
    "lng": 79.6149845,
    "url": "https://www.google.com/maps/place/Shri+Baijnath+Group+of+Temples/@29.9071843,79.6149845,17z/data=!3m1!4b1!4m6!3m5!1s0x39a749090fb2c32d:0xe73de87f91d98bb1!8m2!3d29.9071843!4d79.6149845!16s%2Fg%2F11c51w7m4l?entry=ttu&g_ep=EgoyMDI1MDgwMy4wIKXMDSoASAFQAw%3D%3D"
  },
  {
    "name": "Radhakanta Temple-kamarpol",
    "lat": 22.242628,
    "lng": 88.1712339,
    "url": "https://www.google.com/maps/place/Radhakanta+Temple-kamarpol/@22.242628,88.1712339,17z/data=!3m1!4b1!4m6!3m5!1s0x3a02601cf0a0b77b:0x42d6fc3d59ca3748!8m2!3d22.242628!4d88.1712339!16s%2Fg%2F11f4qyx4gz?entry=ttu&g_ep=EgoyMDI1MDgwNC4wIKXMDSoASAFQAw%3D%3D"
  },
  {
    "name": "Mahakaal Mandir",
    "lat": 24.0428499,
    "lng": 81.3999663,
    "url": "https://www.google.com/maps/place/Mahakaal+Mandir/@24.0428499,81.3999663,17z/data=!3m1!4b1!4m6!3m5!1s0x39842f484e66c159:0xe5bfa025f7033097!8m2!3d24.0428499!4d81.3999663!16s%2Fg%2F11fd_npzls?entry=ttu&g_ep=EgoyMDI1MDgwMy4wIKXMDSoASAFQAw%3D%3D"
  },
  {
    "name": "Mukteshwar dham",
    "lat": 28.7918815,
    "lng": 78.0955168,
    "url": "https://www.google.com/maps/place/Mukteshwar+dham/@28.7918815,78.0955168,17z/data=!3m1!4b1!4m6!3m5!1s0x390b7bd2a58e6671:0xf9f86153c07e4e9c!8m2!3d28.7918815!4d78.0955168!16s%2Fg%2F11k_295yk7?entry=ttu&g_ep=EgoyMDI1MDgwMy4wIKXMDSoASAFQAw%3D%3D"
  },
  {
    "name": "Manikyamba Temple",
    "lat": 16.7928723,
    "lng": 82.0633432,
    "url": "https://www.google.com/maps/place/Draksharama+Sri+Manikyambadevi+Sametha+Sri+Bheemeswara+swami+temple/@16.7928723,82.0633432,17z/data=!3m1!4b1!4m6!3m5!1s0x3a378d12c6558be3:0x8d61e2b9749eca81!8m2!3d16.7928723!4d82.0633432!16s%2Fg%2F12fgrlwhl?entry=ttu&g_ep=EgoyMDI1MDgwMy4wIKXMDSoASAFQAw%3D%3D"
  },
  {
    "name": "Jain Mandir Temple Ranipur",
    "lat": 25.2487469,
    "lng": 79.0621363,
    "url": "https://www.google.com/maps/place/Jain+Mandir+Temple+Ranipur/@25.2487469,79.0621363,17z/data=!3m1!4b1!4m6!3m5!1s0x39781fd37af38203:0x7e23696151e931c4!8m2!3d25.2487469!4d79.0621363!16s%2Fg%2F11bx2gd_dl?entry=ttu&g_ep=EgoyMDI1MDgwMy4wIKXMDSoASAFQAw%3D%3D"
  },
  {
    "name": "Lakshman Mandir",
    "lat": 27.4792602,
    "lng": 77.3255212,
    "url": "https://www.google.com/maps/place/Laxman+Mandir/@27.4792602,77.3255212,17z/data=!3m1!4b1!4m6!3m5!1s0x397304568db6d471:0x35d9a1c17b2abc54!8m2!3d27.4792602!4d77.3255212!16s%2Fg%2F12hrkrpqs?entry=ttu&g_ep=EgoyMDI1MDgwMy4wIKXMDSoASAFQAw%3D%3D"
  },
  {
    "name": "Ancient Sri Ranganatha Swamy Temple || Neerthadi || Davanagere",
    "lat": 14.353011,
    "lng": 76.146799,
    "url": "https://www.google.com/maps/place/Ancient+Shri+Ranganathaswamy+Temple+(Neerthadi)/@14.353011,76.146799,17z/data=!3m1!4b1!4m6!3m5!1s0x3bba1730a80e0a0d:0x38c338bc3f54c40e!8m2!3d14.353011!4d76.146799!16s%2Fg%2F11j4ct_rrn?entry=ttu&g_ep=EgoyMDI1MDgwMy4wIKXMDSoASAFQAw%3D%3D"
  },
  {
    "name": "Tollygunge Choto Rash Bari",
    "lat": 22.5087734,
    "lng": 88.3412415,
    "url": "https://www.google.com/maps/place/Tollygunge+Choto+Rash+Bari/@22.5087734,88.3412415,17z/data=!3m1!4b1!4m6!3m5!1s0x3a0270b644059fc5:0x62c10c91e183e5cc!8m2!3d22.5087734!4d88.3412415!16s%2Fg%2F11cs1dx803?entry=ttu&g_ep=EgoyMDI1MDgwNC4wIKXMDSoASAFQAw%3D%3D"
  },
  {
    "name": "Vevar Mahadev Temple",
    "lat": 25.3123149,
    "lng": 73.9172085,
    "url": "https://www.google.com/maps/place/Vevar+Mahadev+Temple/@25.3123149,73.9172085,17z/data=!3m1!4b1!4m6!3m5!1s0x3968467a203cd843:0x9b75ed645a903765!8m2!3d25.3123149!4d73.9172085!16s%2Fg%2F1jkybr37r?entry=ttu&g_ep=EgoyMDI1MDgwNC4wIKXMDSoASAFQAw%3D%3D"
  },
  {
    "name": "Shivalayam",
    "lat": 16.1829436,
    "lng": 81.1398992,
    "url": "https://www.google.com/maps/place/Shivalayam/@16.1829436,81.1398992,17z/data=!3m1!4b1!4m6!3m5!1s0x3a49e7c0444ee0d7:0x2113971a1c10a975!8m2!3d16.1829436!4d81.1398992!16s%2Fg%2F1tqcjmvx?entry=ttu&g_ep=EgoyMDI1MDgwMy4wIKXMDSoASAFQAw%3D%3D"
  },
  {
    "name": "Ancient Vishnu Varah Temple Ruins",
    "lat": 24.0601109,
    "lng": 80.7252607,
    "url": "https://www.google.com/maps/place/Shri+Katni+Ancient+Vishnu+Varah+Temple+-+Katni+district,+Madhya+Pradesh,+India/@24.0601109,80.7252607,17z/data=!3m1!4b1!4m6!3m5!1s0x3983f753b941e3dd:0xbc715dae64e30abc!8m2!3d24.0601109!4d80.7252607!16s%2Fg%2F11c2qls3p2?entry=ttu&g_ep=EgoyMDI1MDgwMy4wIKXMDSoASAFQAw%3D%3D"
  },
  {
    "name": "Jyothi Lakshmi Narasimha Swami Temple",
    "lat": 15.0608104,
    "lng": 78.7936467,
    "url": "https://www.google.com/maps/place/Jyothi+Lakshmi+Narasimha+Swami+Temple/@15.0608104,78.7936467,17z/data=!3m1!4b1!4m6!3m5!1s0x3bb48db4da080607:0x956c1e82ff3bb3cd!8m2!3d15.0608104!4d78.7936467!16s%2Fg%2F11g9f389w5?entry=ttu&g_ep=EgoyMDI1MDgwMy4wIKXMDSoASAFQAw%3D%3D"
  },
  {
    "name": "Narasimhaswami Temple",
    "lat": 16.1703347,
    "lng": 81.1286205,
    "url": "https://www.google.com/maps/place/Narasimhaswami+Temple/@16.1703347,81.1286205,17z/data=!3m1!4b1!4m6!3m5!1s0x3a49e7d05a6561f1:0x61a65a7e7bbb7818!8m2!3d16.1703347!4d81.1286205!16s%2Fg%2F11b6q3r645?entry=ttu&g_ep=EgoyMDI1MDgwMy4wIKXMDSoASAFQAw%3D%3D"
  },
  {
    "name": "Shri Bhavani Shankara and Shri Narayana Devasthana",
    "lat": 15.3382186,
    "lng": 75.1295556,
    "url": "https://www.google.com/maps/place/Shri+Bhavani+Shankara+and+Shri+Narayana+Devasthana/@15.3382186,75.1295556,17z/data=!3m1!4b1!4m6!3m5!1s0x3bb8d712e0e1a697:0xb31127de81abff03!8m2!3d15.3382186!4d75.1295556!16s%2Fg%2F11c45zt_jr?entry=ttu&g_ep=EgoyMDI1MDgwMy4wIKXMDSoASAFQAw%3D%3D"
  },
  {
    "name": "Ancient Kadamba Shri Shiva Temple/ Nandi Bull",
    "lat": 15.258105,
    "lng": 74.0549473,
    "url": "https://www.google.com/maps/place/Ancient+Kadamba+Shri+Shiva+Temple%2F+Nandi+Bull/@15.258105,74.0549473,17z/data=!3m1!4b1!4m6!3m5!1s0x3bbfada2f2a9c8db:0xe1cfe4d02c0cf794!8m2!3d15.258105!4d74.0549473!16s%2Fg%2F11bz011st6?entry=ttu&g_ep=EgoyMDI1MDgwMy4wIKXMDSoASAFQAw%3D%3D"
  },
  {
    "name": "Moghiya Raj Bari o Moth, Kochua, Bagerhat",
    "lat": 22.667278,
    "lng": 89.872556,
    "url": "https://www.google.com/maps/place/Moghiya+Raj+Bari+o+Moth,+Kochua,+Bagerhat/@22.667278,89.872556,17z/data=!3m1!4b1!4m6!3m5!1s0x39fff92b859eea67:0xec9d1a5c58a2e4e1!8m2!3d22.667278!4d89.872556!16s%2Fg%2F11fjb45kjj?entry=ttu&g_ep=EgoyMDI1MDgwMy4wIKXMDSoASAFQAw%3D%3D"
  },
  {
    "name": "Siva temple",
    "lat": 16.7147667,
    "lng": 80.1432249,
    "url": "https://www.google.com/maps/place/Siva+temple/@16.7147667,80.1432249,17z/data=!3m1!4b1!4m6!3m5!1s0x3a35a17f7166e9e1:0xd3d75040adb9ca4a!8m2!3d16.7147667!4d80.1432249!16s%2Fg%2F11g48xy6pw?entry=ttu&g_ep=EgoyMDI1MDgwMy4wIKXMDSoASAFQAw%3D%3D"
  },
  {
    "name": "Roda Temples",
    "lat": 23.6589384,
    "lng": 73.0830577,
    "url": "https://www.google.com/maps/place/The+Roda+Temples+-+Sabarkantha+District,+Gujarat,+India/@23.6589384,73.0830577,17z/data=!3m1!4b1!4m6!3m5!1s0x395dbe1c8a47cbaf:0x9be52612e08d66a9!8m2!3d23.6589384!4d73.0830577!16s%2Fg%2F11ddzx3zm9?entry=ttu&g_ep=EgoyMDI1MDgwMy4wIKXMDSoASAFQAw%3D%3D"
  },
  {
    "name": "Narsing Dwara",
    "lat": 25.0213896,
    "lng": 74.1151462,
    "url": "https://www.google.com/maps/place/Narsing+Dwara/@25.0213896,74.1151462,17z/data=!3m1!4b1!4m6!3m5!1s0x396865ec3af9881f:0xbdabffe9a18e1944!8m2!3d25.0213896!4d74.1151462!16s%2Fg%2F11t178xrr8?entry=ttu&g_ep=EgoyMDI1MDgwMy4wIKXMDSoASAFQAw%3D%3D"
  },
  {
    "name": "Sundha Mata Temple",
    "lat": 24.8331581,
    "lng": 72.3628084,
    "url": "https://www.google.com/maps/place/Sundha+Mata+Temple/@24.8331581,72.3628084,17z/data=!3m1!4b1!4m6!3m5!1s0x394338f630673f2d:0x5aba2eb27a5af8cd!8m2!3d24.8331581!4d72.3628084!16zL20vMGRzOXN6?entry=ttu&g_ep=EgoyMDI1MDgwNC4wIKXMDSoASAFQAw%3D%3D"
  },
  {
    "name": "Venu Gopala Swami Temple",
    "lat": 14.391946,
    "lng": 79.2032279,
    "url": "https://www.google.com/maps/place/Venu+Gopala+Swami+Temple/@14.391946,79.2032279,17z/data=!3m1!4b1!4m6!3m5!1s0x3bb337f43145b453:0xabb065e0b0e2da0d!8m2!3d14.391946!4d79.2032279!16s%2Fg%2F11c136s1jr?entry=ttu&g_ep=EgoyMDI1MDgwMy4wIKXMDSoASAFQAw%3D%3D"
  },
  {
    "name": "Siva Ganga Temple.",
    "lat": 16.1599012,
    "lng": 81.1061114,
    "url": "https://www.google.com/maps/place/Siva+Ganga+Temple./@16.1599012,81.1061114,17z/data=!3m1!4b1!4m6!3m5!1s0x3a49e89d7e9734f9:0xf4eb7a7d4b65725!8m2!3d16.1599012!4d81.1061114!16s%2Fg%2F1xpwh60b?entry=ttu&g_ep=EgoyMDI1MDgwMy4wIKXMDSoASAFQAw%3D%3D"
  },
  {
    "name": "FARARA MAHADEV MANDIR",
    "lat": 25.0209179,
    "lng": 73.805188,
    "url": "https://www.google.com/maps/place/FARARA+MAHADEV+MANDIR/@25.0209179,73.805188,17z/data=!3m1!4b1!4m6!3m5!1s0x3968130d1532f107:0x374e9524717a9b00!8m2!3d25.0209179!4d73.805188!16s%2Fg%2F11c2qbx_k9?entry=ttu&g_ep=EgoyMDI1MDgwMy4wIKXMDSoASAFQAw%3D%3D"
  },
  {
    "name": "Baneshwar temple",
    "lat": 17.7517106,
    "lng": 74.0537062,
    "url": "https://www.google.com/maps/place/Baneshwar+temple/@17.7517106,74.0537062,17z/data=!3m1!4b1!4m6!3m5!1s0x3bc23790f3c6da47:0xde97c04423e40d10!8m2!3d17.7517106!4d74.0537062!16s%2Fg%2F11f8kjwn3_?entry=ttu&g_ep=EgoyMDI1MDgwMy4wIKXMDSoASAFQAw%3D%3D"
  },
  {
    "name": "Sri Venugopalaswami Temple",
    "lat": 44.2423649,
    "lng": -119.8093025,
    "url": "https://www.google.com/maps/place//@44.2423649,-119.8093025,3z/data=!3m1!4b1?entry=ttu&g_ep=EgoyMDI1MDgwMy4wIKXMDSoASAFQAw%3D%3D"
  },
  {
    "name": "\u09b0\u09be\u09df\u09c7\u09b0\u0995\u09be\u09a0\u09c0 \u09ae\u09a0",
    "lat": 22.597331,
    "lng": 89.9866004,
    "url": "https://www.google.com/maps/place/Rayerkathee+Math/@22.597331,89.9866004,17z/data=!3m1!4b1!4m6!3m5!1s0x3a000181417eac1b:0x81f3bbd5afb1ba1b!8m2!3d22.597331!4d89.9866004!16s%2Fg%2F11f669kzvb?entry=ttu&g_ep=EgoyMDI1MDgwMy4wIKXMDSoASAFQAw%3D%3D"
  },
  {
    "name": "Rameshwar Mahadev",
    "lat": 24.6939308,
    "lng": 73.0666404,
    "url": "https://www.google.com/maps/place/M3V8%2BJMR+Rameshwar+Mahadev,+Rameshwar+Mahadev+Rd,+Waloriya,+Rajasthan+307019,+India/@24.6939308,73.0666404,17z/data=!3m1!4b1!4m6!3m5!1s0x3942cab7acc1a37b:0x8737d0793e341619!8m2!3d24.6940111!4d73.0666297!16s%2Fg%2F11bvtg5c7c?entry=ttu&g_ep=EgoyMDI1MDgwMy4wIKXMDSoASAFQAw%3D%3D"
  },
  {
    "name": "Mata mandir",
    "lat": 24.5617303,
    "lng": 76.3362231,
    "url": "https://www.google.com/maps/place/Mata+mandir/@24.5617303,76.3362231,17z/data=!3m1!4b1!4m6!3m5!1s0x396537cc9ef44989:0x169962785d64687f!8m2!3d24.5617303!4d76.3362231!16s%2Fg%2F11h1jdh788?entry=ttu&g_ep=EgoyMDI1MDgwMy4wIKXMDSoASAFQAw%3D%3D"
  },
  {
    "name": "Katanipara Shiv Mandir \u0995\u09be\u099f\u09be\u09a8\u09bf\u09aa\u09be\u09a1\u09bc\u09be \u09b6\u09bf\u09ac \u09ae\u09a8\u09cd\u09a6\u09bf\u09b0",
    "lat": 22.8757273,
    "lng": 89.5531926,
    "url": "https://www.google.com/maps/place/Katanipara+Shiv+Mandir+%E0%A6%95%E0%A6%BE%E0%A6%9F%E0%A6%BE%E0%A6%A8%E0%A6%BF%E0%A6%AA%E0%A6%BE%E0%A6%A1%E0%A6%BC%E0%A6%BE+%E0%A6%B6%E0%A6%BF%E0%A6%AC+%E0%A6%AE%E0%A6%A8%E0%A7%8D%E0%A6%A6%E0%A6%BF%E0%A6%B0/@22.8757273,89.5531926,17z/data=!3m1!4b1!4m6!3m5!1s0x39ff91002f3f3a81:0x78e0225073f1f17!8m2!3d22.8757273!4d89.5531926!16s%2Fg%2F11ldfy_1f7?entry=ttu&g_ep=EgoyMDI1MDgwMy4wIKXMDSoASAFQAw%3D%3D"
  },
  {
    "name": "Shree Aashapura Mata ji Mandir Nadol",
    "lat": 25.3769287,
    "lng": 73.4667895,
    "url": "https://www.google.com/maps/place/Shree+Aashapura+Mataji+Mandir,+Nadol/@25.3769287,73.4667895,17z/data=!3m1!4b1!4m6!3m5!1s0x39682a000b0a9e99:0xf9f37139c443a9ec!8m2!3d25.3769287!4d73.4667895!16s%2Fg%2F11b77jlk1z?entry=ttu&g_ep=EgoyMDI1MDgwMy4wIKXMDSoASAFQAw%3D%3D"
  },
  {
    "name": "Sri Panduranga Swamy Temple.",
    "lat": 16.1958608,
    "lng": 81.1586123,
    "url": "https://www.google.com/maps/place/Shri+Panduranga+Swamy+Temple/@16.1958608,81.1586123,17z/data=!3m1!4b1!4m6!3m5!1s0x3a49e788b7765a19:0xb78666ba0accf65e!8m2!3d16.1958608!4d81.1586123!16s%2Fg%2F1tggm1rb?entry=ttu&g_ep=EgoyMDI1MDgwMy4wIKXMDSoASAFQAw%3D%3D"
  },
  {
    "name": "Agastheswara Swami Temple",
    "lat": 13.3627185,
    "lng": 78.6580791,
    "url": "https://www.google.com/maps/place/Agastheswara+Swami+Temple+,+Nekkundi/@13.3627185,78.6580791,17z/data=!3m1!4b1!4m6!3m5!1s0x3bb280a73535ca2b:0x9f22c9e56625b503!8m2!3d13.3627185!4d78.6580791!16s%2Fg%2F11g6nrc_b5?entry=ttu&g_ep=EgoyMDI1MDgwMy4wIKXMDSoASAFQAw%3D%3D"
  },
  {
    "name": "Shri 5 Padmawati Puri Dham/prannath ji Temple, Panna",
    "lat": 24.724947,
    "lng": 80.186588,
    "url": "https://www.google.com/maps/place/Shree+108+Prannath+Ji+Mandir+%7C+Padmavatipuri+Dham+(Mukti+Peeth)/@24.724947,80.186588,17z/data=!3m1!4b1!4m6!3m5!1s0x3983037fedc341dd:0xd338bb5c5a69fcca!8m2!3d24.724947!4d80.186588!16s%2Fg%2F1tncr9l0?entry=ttu&g_ep=EgoyMDI1MDgwNC4wIKXMDSoASAFQAw%3D%3D"
  },
  {
    "name": "Kala Ram Mandir",
    "lat": 17.6799618,
    "lng": 73.9861671,
    "url": "https://www.google.com/maps/place/Kala+Ram+Mandir/@17.6799618,73.9861671,17z/data=!3m1!4b1!4m6!3m5!1s0x3bc2399cfe8ef473:0x9b8df73389c6d49f!8m2!3d17.6799618!4d73.9861671!16s%2Fg%2F1tg145ky?entry=ttu&g_ep=EgoyMDI1MDgwMy4wIKXMDSoASAFQAw%3D%3D"
  },
  {
    "name": "Shakuntaleshwar Mandir, Vaduth ( \u0936\u0915\u0941\u0902\u0924\u0932\u0947\u0936\u094d\u0935\u0930 \u092e\u0902\u0926\u093f\u0930 )",
    "lat": 17.7528785,
    "lng": 74.0511132,
    "url": "https://www.google.com/maps/place/Shakuntaleshwar+Mandir,+Vaduth+(+%E0%A4%B6%E0%A4%95%E0%A5%81%E0%A4%82%E0%A4%A4%E0%A4%B2%E0%A5%87%E0%A4%B6%E0%A5%8D%E0%A4%B5%E0%A4%B0+%E0%A4%AE%E0%A4%82%E0%A4%A6%E0%A4%BF%E0%A4%B0+)/@17.7528785,74.0511132,17z/data=!3m1!4b1!4m6!3m5!1s0x3bc237e7ce277529:0xce9f06a17cb144a5!8m2!3d17.7528785!4d74.0511132!16s%2Fg%2F11hd6p6r0c?entry=ttu&g_ep=EgoyMDI1MDgwMy4wIKXMDSoASAFQAw%3D%3D"
  },
  {
    "name": "Chenna Kesava Swamy Temple",
    "lat": 16.2097714,
    "lng": 81.0429196,
    "url": "https://www.google.com/maps/place/Chenna+Kesava+Swamy+Temple/@16.2097714,81.0429196,17z/data=!3m1!4b1!4m6!3m5!1s0x3a49e44dfdb3a42d:0x8da8ed22c85e5d36!8m2!3d16.2097714!4d81.0429196!16s%2Fg%2F11b6gp_s1n?entry=ttu&g_ep=EgoyMDI1MDgwMy4wIKXMDSoASAFQAw%3D%3D"
  },
  {
    "name": "Sri Lakshmi Narasimha Swami Temple",
    "lat": 44.2423649,
    "lng": -119.8093025,
    "url": "https://www.google.com/maps/place//@44.2423649,-119.8093025,3z/data=!3m1!4b1?entry=ttu&g_ep=EgoyMDI1MDgwMy4wIKXMDSoASAFQAw%3D%3D"
  },
  {
    "name": "Sri Rama Mandir",
    "lat": 15.6781061,
    "lng": 79.3009962,
    "url": "https://www.google.com/maps/place/Sri+Rama+Mandir/@15.6781061,79.3009962,17z/data=!3m1!4b1!4m6!3m5!1s0x3bb52ddcb11aa105:0x5ca8ef1851bdddbe!8m2!3d15.6781061!4d79.3009962!16s%2Fg%2F11cm47pm7j?entry=ttu&g_ep=EgoyMDI1MDgwMy4wIKXMDSoASAFQAw%3D%3D"
  },
  {
    "name": "Hateshwari Mata Temple",
    "lat": 44.2423649,
    "lng": -119.8093025,
    "url": "https://www.google.com/maps/place//@44.2423649,-119.8093025,3z/data=!3m1!4b1?entry=ttu&g_ep=EgoyMDI1MDgwMy4wIKXMDSoASAFQAw%3D%3D"
  },
  {
    "name": "Chatriyabavji",
    "lat": 25.5256744,
    "lng": 73.9163633,
    "url": "https://www.google.com/maps/place/Chatriyabavji+,Maharaj+kunwar/@25.5256744,73.9163633,17z/data=!3m1!4b1!4m6!3m5!1s0x3969b4b6917c91b1:0xfaa2229d4c057c4!8m2!3d25.5256744!4d73.9163633!16s%2Fg%2F11fzd0rxvg?entry=ttu&g_ep=EgoyMDI1MDgwMy4wIKXMDSoASAFQAw%3D%3D"
  },
  {
    "name": "Khalia Raja Ram Temple",
    "lat": 23.2236538,
    "lng": 90.0052612,
    "url": "https://www.google.com/maps/place/Khalia+Raja+Ram+Temple/@23.2236538,90.0052612,17z/data=!3m1!4b1!4m6!3m5!1s0x37557de494252d85:0xbc1f4eba6b7836a8!8m2!3d23.2236538!4d90.0052612!16s%2Fg%2F11c2y89szq?entry=ttu&g_ep=EgoyMDI1MDgwMy4wIKXMDSoASAFQAw%3D%3D"
  },
  {
    "name": "Shahapur Samarth Pratap Maruti Mandir (11 Maruti)",
    "lat": 17.3743065,
    "lng": 74.1684614,
    "url": "https://www.google.com/maps/place/Shahapur+Samarth+Pratap+Maruti+Mandir+(11+Maruti)/@17.3743065,74.1684614,17z/data=!3m1!4b1!4m6!3m5!1s0x3bc180f7ae7f85ef:0xcb8bc8cab5bd6b21!8m2!3d17.3743065!4d74.1684614!16s%2Fg%2F11yk5dhwh?entry=ttu&g_ep=EgoyMDI1MDgwMy4wIKXMDSoASAFQAw%3D%3D"
  },
  {
    "name": "Shri Balaji Sansthan mandir",
    "lat": 20.1046941,
    "lng": 77.129585,
    "url": "https://www.google.com/maps/place/Shri+Balaji+Sansthan+mandir/@20.1046941,77.129585,17z/data=!3m1!4b1!4m6!3m5!1s0x3bd0e3a33f9f07eb:0x9bddd6cc362ef580!8m2!3d20.1046941!4d77.129585!16s%2Fg%2F1thfcx4k?entry=ttu&g_ep=EgoyMDI1MDgwMy4wIKXMDSoASAFQAw%3D%3D"
  },
  {
    "name": "Sri Dharma Sastha Temple",
    "lat": 9.2561447,
    "lng": 76.5742098,
    "url": "https://www.google.com/maps/place/Kunnam+Sree+Dharma+Sastha+Temple/@9.2561447,76.5742098,17z/data=!3m1!4b1!4m6!3m5!1s0x3b0618e7deb3a675:0xe00a7b712efbc14a!8m2!3d9.2561447!4d76.5742098!16s%2Fg%2F11bxjvr7b6?entry=ttu&g_ep=EgoyMDI1MDgwMy4wIKXMDSoASAFQAw%3D%3D"
  },
  {
    "name": "Sri Bheemeshwara Temple",
    "lat": 18.4690677,
    "lng": 78.8669748,
    "url": "https://www.google.com/maps/place/Bhimeshver+temple/@18.4690677,78.8669748,17z/data=!3m1!4b1!4m6!3m5!1s0x3bcce322ce050421:0xc9124b9e04c244a0!8m2!3d18.4690677!4d78.8669748!16s%2Fg%2F11gy2yk5r7?entry=ttu&g_ep=EgoyMDI1MDgwNC4wIKXMDSoASAFQAw%3D%3D"
  },
  {
    "name": "shivalayam",
    "lat": 16.0142523,
    "lng": 80.0576075,
    "url": "https://www.google.com/maps/place/shivalayam/@16.0142523,80.0576075,17z/data=!3m1!4b1!4m6!3m5!1s0x3a4a8a2c6d607091:0x3657df3746df58cd!8m2!3d16.0142523!4d80.0576075!16s%2Fg%2F11c6zz37k6?entry=ttu&g_ep=EgoyMDI1MDgwMy4wIKXMDSoASAFQAw%3D%3D"
  },
  {
    "name": "Veer Singh Palace",
    "lat": 25.6709778,
    "lng": 78.4509468,
    "url": "https://www.google.com/maps/place/Veer+Singh+Palace/@25.6709778,78.4509468,17z/data=!3m1!4b1!4m6!3m5!1s0x39771221c07c85b1:0xf7ad5b7bbf35462a!8m2!3d25.6709778!4d78.4509468!16s%2Fg%2F1vjdngm7?entry=ttu&g_ep=EgoyMDI1MDgwMy4wIKXMDSoASAFQAw%3D%3D"
  },
  {
    "name": "Dat Mata Temple",
    "lat": 27.069438,
    "lng": 76.2752108,
    "url": "https://www.google.com/maps/place/Rundh+Bhangarh,+Rajasthan+303507,+India/@27.069438,76.2752108,17z/data=!3m1!4b1!4m6!3m5!1s0x396d85526af54ac9:0x667a344a6e73a0df!8m2!3d27.0694249!4d76.275156!16s%2Fm%2F05f49_2?entry=ttu&g_ep=EgoyMDI1MDgwNC4wIKXMDSoASAFQAw%3D%3D"
  },
  {
    "name": "\u09a8\u0993\u09df\u09be\u09aa\u09be\u09dc\u09be \u09ae\u09a8\u09cd\u09a6\u09bf\u09b0",
    "lat": 22.7387092,
    "lng": 89.6451798,
    "url": "https://www.google.com/maps/place/%E0%A6%A8%E0%A6%93%E0%A7%9F%E0%A6%BE%E0%A6%AA%E0%A6%BE%E0%A7%9C%E0%A6%BE+%E0%A6%AE%E0%A6%A8%E0%A7%8D%E0%A6%A6%E0%A6%BF%E0%A6%B0/@22.7387092,89.6451798,17z/data=!3m1!4b1!4m6!3m5!1s0x39ff8ded5e3123d7:0xb94cf23d43884ff9!8m2!3d22.7387092!4d89.6451798!16s%2Fg%2F11jh7081fd?entry=ttu&g_ep=EgoyMDI1MDgwMy4wIKXMDSoASAFQAw%3D%3D"
  },
  {
    "name": "Peddapavani Venugopala Swami Temple",
    "lat": 15.007309,
    "lng": 79.8139819,
    "url": "https://www.google.com/maps/place/Peddapavani+Venugopala+Swami+Temple/@15.007309,79.8139819,17z/data=!3m1!4b1!4m6!3m5!1s0x3a4b68bbe692bab9:0x3acfd80dde27251d!8m2!3d15.007309!4d79.8139819!16s%2Fg%2F12hn29rfm?entry=ttu&g_ep=EgoyMDI1MDgwMy4wIKXMDSoASAFQAw%3D%3D"
  },
  {
    "name": "Bhangarh bherv mandir",
    "lat": 27.0939355,
    "lng": 76.294721,
    "url": "https://www.google.com/maps/place/Bhangarh+bhairav+mandir/@27.0939355,76.294721,17z/data=!3m1!4b1!4m6!3m5!1s0x396d85de88548da9:0x201fe55528e35d0d!8m2!3d27.0939355!4d76.294721!16s%2Fg%2F11h5210cnd?entry=ttu&g_ep=EgoyMDI1MDgwMy4wIKXMDSoASAFQAw%3D%3D"
  },
  {
    "name": "Shri Wakeshwar Mandir",
    "lat": 17.9311752,
    "lng": 73.9067309,
    "url": "https://www.google.com/maps/place/Shri+Wakeshwar+Mandir/@17.9311752,73.9067309,17z/data=!3m1!4b1!4m6!3m5!1s0x3bc243340b20e29d:0xc2a24281a487dfd5!8m2!3d17.9311752!4d73.9067309!16s%2Fg%2F11cnb6bgtk?entry=ttu&g_ep=EgoyMDI1MDgwMy4wIKXMDSoASAFQAw%3D%3D"
  },
  {
    "name": "Dongrai devi Mandir, kadepur",
    "lat": 17.2694118,
    "lng": 74.3299851,
    "url": "https://www.google.com/maps/place/Dongrai+devi+Mandir,+kadepur/@17.2694118,74.3299851,17z/data=!3m1!4b1!4m6!3m5!1s0x3bc17bc634a30cbb:0x8dd9a39b6a40fe!8m2!3d17.2694118!4d74.3299851!16s%2Fg%2F11f5q7spx0?entry=ttu&g_ep=EgoyMDI1MDgwMy4wIKXMDSoASAFQAw%3D%3D"
  },
  {
    "name": "Kalbhairav Temple Adegaon And Fort",
    "lat": 22.6173543,
    "lng": 79.4878496,
    "url": "https://www.google.com/maps/place/Kalbhairav+Temple,+Adegaon/@22.6173543,79.4878496,17z/data=!3m1!4b1!4m6!3m5!1s0x398018dc9a273161:0x212ff4183a9ace24!8m2!3d22.6173543!4d79.4878496!16s%2Fg%2F11c5rl4fhg?entry=ttu&g_ep=EgoyMDI1MDgwNC4wIKXMDSoASAFQAw%3D%3D"
  },
  {
    "name": "Mullikulangara Devi Temple",
    "lat": 9.2206024,
    "lng": 76.5438558,
    "url": "https://www.google.com/maps/place/Mullikulangara+Bhagavathi+temple/@9.2206024,76.5438558,17z/data=!3m1!4b1!4m6!3m5!1s0x3b061eb5cfc4c8a5:0xa11d992fb018593b!8m2!3d9.2206024!4d76.5438558!16s%2Fg%2F1tfqzvs5?entry=ttu&g_ep=EgoyMDI1MDgwMy4wIKXMDSoASAFQAw%3D%3D"
  },
  {
    "name": "Shib Mondir, Bagerhat/\u09b6\u09bf\u09ac \u09ae\u09a8\u09cd\u09a6\u09bf\u09b0, \u09ac\u09be\u0997\u09c7\u09b0\u09b9\u09be\u099f",
    "lat": 22.6673247,
    "lng": 89.7894023,
    "url": "https://www.google.com/maps/place/Shib+Mondir,+Bagerhat%2F%E0%A6%B6%E0%A6%BF%E0%A6%AC+%E0%A6%AE%E0%A6%A8%E0%A7%8D%E0%A6%A6%E0%A6%BF%E0%A6%B0,+%E0%A6%AC%E0%A6%BE%E0%A6%97%E0%A7%87%E0%A6%B0%E0%A6%B9%E0%A6%BE%E0%A6%9F/@22.6673247,89.7894023,17z/data=!3m1!4b1!4m6!3m5!1s0x39fff662009391eb:0xc28935750be32367!8m2!3d22.6673247!4d89.7894023!16s%2Fg%2F11f358cc9l?entry=ttu&g_ep=EgoyMDI1MDgwNC4wIKXMDSoASAFQAw%3D%3D"
  },
  {
    "name": "Hanuman Mandir Nigadi",
    "lat": 17.4405285,
    "lng": 74.1879342,
    "url": "https://www.google.com/maps/place/Hanuman+Mandir+Nigadi/@17.4405285,74.1879342,17z/data=!3m1!4b1!4m6!3m5!1s0x3bc22aef4f466a77:0x17cdd58d5b1912b2!8m2!3d17.4405285!4d74.1879342!16s%2Fg%2F11c2pqqkg9?entry=ttu&g_ep=EgoyMDI1MDgwMy4wIKXMDSoASAFQAw%3D%3D"
  },
  {
    "name": "Kaleshwara Muktheshwara Swamy Temple",
    "lat": 18.811879,
    "lng": 79.9046178,
    "url": "https://www.google.com/maps/place/Shree+Kaleshwara+Mukteeshwara+Swamy+Devasthanam+-+Kaleshwaram+Temple/@18.811879,79.9046178,17z/data=!3m1!4b1!4m6!3m5!1s0x3a32ee0ed1c17795:0x667c3ece4fea3b3c!8m2!3d18.811879!4d79.9046178!16s%2Fg%2F11gdkmpj2c?entry=ttu&g_ep=EgoyMDI1MDgwMy4wIKXMDSoASAFQAw%3D%3D"
  },
  {
    "name": "Panchganga Ghat",
    "lat": 16.7045837,
    "lng": 74.2160331,
    "url": "https://www.google.com/maps/place/Panchganga+Ghat/@16.7045837,74.2160331,17z/data=!3m1!4b1!4m6!3m5!1s0x3bc1aa9de9220123:0x9ec025b576783184!8m2!3d16.7045837!4d74.2160331!16s%2Fg%2F11g697lw2_?entry=ttu&g_ep=EgoyMDI1MDgwMy4wIKXMDSoASAFQAw%3D%3D"
  },
  {
    "name": "Motupalle Kodandarama Swamy Temple",
    "lat": 15.7231808,
    "lng": 80.2891778,
    "url": "https://www.google.com/maps/place/Motupalle+Kodandarama+Swamy+Temple/@15.7231808,80.2891778,17z/data=!3m1!4b1!4m6!3m5!1s0x3a4a4fd155555555:0x7cbe594d3422a059!8m2!3d15.7231808!4d80.2891778!16s%2Fg%2F11cmt0f1jv?entry=ttu&g_ep=EgoyMDI1MDgwMy4wIKXMDSoASAFQAw%3D%3D"
  },
  {
    "name": "Sree Mahadevar Temple, Pavumba",
    "lat": 9.1102644,
    "lng": 76.5886974,
    "url": "https://www.google.com/maps/place/Sree+Mahadevar+Temple,+Pavumba/@9.1102644,76.5886974,17z/data=!3m1!4b1!4m6!3m5!1s0x3b0604d150505c8f:0xd81797e8705686c2!8m2!3d9.1102644!4d76.5886974!16s%2Fg%2F1vxvg90x?entry=ttu&g_ep=EgoyMDI1MDgwMy4wIKXMDSoASAFQAw%3D%3D"
  },
  {
    "name": "Ancient Shiva Temple",
    "lat": 16.9618667,
    "lng": 82.0518869,
    "url": "https://www.google.com/maps/place/Veerabhadra+Gudi+(Ancient+Chalukya+Shiva+Temple)/@16.9618667,82.0518869,17z/data=!3m1!4b1!4m6!3m5!1s0x3a378545891e1b7f:0xbf5a49f1ea2d0512!8m2!3d16.9618667!4d82.0518869!16s%2Fg%2F1tdc_2y5?entry=ttu&g_ep=EgoyMDI1MDgwMy4wIKXMDSoASAFQAw%3D%3D"
  },
  {
    "name": "Mangla Devi Temple",
    "lat": 27.0939158,
    "lng": 76.2905176,
    "url": "https://www.google.com/maps/place/37VR%2BH62,+Bhangarh,+Rundh+Bhangarh,+Rajasthan+301410,+India/@27.0939158,76.2905176,17z/data=!3m1!4b1!4m6!3m5!1s0x396d853cc29d8a1d:0xaea25f5f797d0460!8m2!3d27.0938991!4d76.2905179!16s%2Fg%2F11bvthbbd4?entry=ttu&g_ep=EgoyMDI1MDgwMy4wIKXMDSoASAFQAw%3D%3D"
  },
  {
    "name": "Bahe Borgav Cha Maruti (11 Maruti)",
    "lat": 17.1183525,
    "lng": 74.270086,
    "url": "https://www.google.com/maps/place/Bahe+Borgav+Cha+Maruti+(11+Maruti)/@17.1183525,74.270086,17z/data=!3m1!4b1!4m6!3m5!1s0x3bc174367e4bcb31:0xb6c62b67b644191a!8m2!3d17.1183525!4d74.270086!16s%2Fg%2F1hdzrgx0y?entry=ttu&g_ep=EgoyMDI1MDgwMy4wIKXMDSoASAFQAw%3D%3D"
  },
  {
    "name": "\u0906\u0908\u0938\u093e\u0939\u0947\u092c \u0936\u094d\u0930\u0940 \u092b\u093f\u0930\u0902\u0917\u093e\u0908 \u0926\u0947\u0935\u0940 \u092e\u0902\u0926\u093f\u0930,\u0915\u0942\u0930\u0915\u0941\u0902\u092d",
    "lat": 18.3947882,
    "lng": 74.5410644,
    "url": "https://www.google.com/maps/place/%E0%A4%86%E0%A4%88%E0%A4%B8%E0%A4%BE%E0%A4%B9%E0%A5%87%E0%A4%AC+%E0%A4%B6%E0%A5%8D%E0%A4%B0%E0%A5%80+%E0%A4%AB%E0%A4%BF%E0%A4%B0%E0%A4%82%E0%A4%97%E0%A4%BE%E0%A4%88+%E0%A4%A6%E0%A5%87%E0%A4%B5%E0%A5%80+%E0%A4%AE%E0%A4%82%E0%A4%A6%E0%A4%BF%E0%A4%B0,%E0%A4%95%E0%A5%82%E0%A4%B0%E0%A4%95%E0%A5%81%E0%A4%82%E0%A4%AD/@18.3947882,74.5410644,17z/data=!3m1!4b1!4m6!3m5!1s0x3bc3131741d4c701:0xe6197c3663cd35aa!8m2!3d18.3947882!4d74.5410644!16s%2Fg%2F11tc_kjwm6?entry=ttu&g_ep=EgoyMDI1MDgwMy4wIKXMDSoASAFQAw%3D%3D"
  },
  {
    "name": "Egaro Shiva Temple",
    "lat": 23.0098277,
    "lng": 89.4332299,
    "url": "https://www.google.com/maps/place/Egaro+Shiva+Temple/@23.0098277,89.4332299,17z/data=!3m1!4b1!4m6!3m5!1s0x39ffa028940b0835:0x73179639a7d29600!8m2!3d23.0098277!4d89.4332299!16s%2Fg%2F11c2y8f1zf?entry=ttu&g_ep=EgoyMDI1MDgwMy4wIKXMDSoASAFQAw%3D%3D"
  },
  {
    "name": "Veerabhadra Swamy Temple, Motupalle",
    "lat": 15.7212503,
    "lng": 80.2930269,
    "url": "https://www.google.com/maps/place/Veerabhadra+Swamy+Temple,+Motupalle/@15.7212503,80.2930269,17z/data=!3m1!4b1!4m6!3m5!1s0x3a4a4fd155555555:0xf9e24fbd28226cde!8m2!3d15.7212503!4d80.2930269!16s%2Fg%2F11clwlyh_m?entry=ttu&g_ep=EgoyMDI1MDgwMy4wIKXMDSoASAFQAw%3D%3D"
  },
  {
    "name": "Bakraalu Devta Temple",
    "lat": 31.263145,
    "lng": 77.7336735,
    "url": "https://www.google.com/maps/place/Bakraalu+Devta+Temple/@31.263145,77.7336735,17z/data=!3m1!4b1!4m6!3m5!1s0x3905ef9cd4de29d3:0x8b1ee912749ba65!8m2!3d31.263145!4d77.7336735!16s%2Fg%2F11cjk6_4nj?entry=ttu&g_ep=EgoyMDI1MDgwMy4wIKXMDSoASAFQAw%3D%3D"
  },
  {
    "name": "Kumaramkary Sri Dharma Sastha Temple",
    "lat": 9.4580423,
    "lng": 76.4951738,
    "url": "https://www.google.com/maps/place/Kumarankary+Sri+Dharma+Sastha+Temple/@9.4580423,76.4951738,17z/data=!3m1!4b1!4m6!3m5!1s0x3b0627d63f8c5edf:0x25ac50b70c3e65bc!8m2!3d9.4580423!4d76.4951738!16s%2Fg%2F1tj94vyz?entry=ttu&g_ep=EgoyMDI1MDgwMy4wIKXMDSoASAFQAw%3D%3D"
  },
  {
    "name": "Lakshminarayana Swamy Temple",
    "lat": 16.958463,
    "lng": 82.0500992,
    "url": "https://www.google.com/maps/place/Lakshminarayana+Swamy+Temple/@16.958463,82.0500992,17z/data=!3m1!4b1!4m6!3m5!1s0x3a37854fddb5fdc5:0x19a6e54daa482def!8m2!3d16.958463!4d82.0500992!16s%2Fg%2F1ths7s95?entry=ttu&g_ep=EgoyMDI1MDgwMy4wIKXMDSoASAFQAw%3D%3D"
  },
  {
    "name": "Tomb",
    "lat": 27.097762,
    "lng": 76.2965888,
    "url": "https://www.google.com/maps/place/37XW%2B4P7,+Ratna+Ka+Bas,+Rajasthan+301410,+India/@27.097762,76.2965888,17z/data=!3m1!4b1!4m6!3m5!1s0x396d851848dbdb2d:0x66eaa07d9eb5765d!8m2!3d27.0977851!4d76.2967843!16s%2Fg%2F11bvtjh98n?entry=ttu&g_ep=EgoyMDI1MDgwMy4wIKXMDSoASAFQAw%3D%3D"
  },
  {
    "name": "Jora Shiv Mandir (The dual lord Shiva's Temple)",
    "lat": 22.8261034,
    "lng": 89.5555806,
    "url": "https://www.google.com/maps/place/Jora+Shiv+Mandir+(The+dual+lord+Shiva's+Temple)/@22.8261034,89.5555806,17z/data=!3m1!4b1!4m6!3m5!1s0x39ff91c9a0d52437:0xfaea4d7d18c7ae06!8m2!3d22.8261034!4d89.5555806!16s%2Fg%2F11h79kw51w?entry=ttu&g_ep=EgoyMDI1MDgwMy4wIKXMDSoASAFQAw%3D%3D"
  },
  {
    "name": "Siddheshwar Temple",
    "lat": 18.6685202,
    "lng": 74.1522381,
    "url": "https://www.google.com/maps/place/Shavarsiddheshwar+Temple/@18.6685202,74.1522381,17z/data=!3m1!4b1!4m6!3m5!1s0x3bc2d9bf2312cd71:0xec841ac73bd4e7f5!8m2!3d18.6685202!4d74.1522381!16s%2Fg%2F11g9wdsjyf?entry=ttu&g_ep=EgoyMDI1MDgwMy4wIKXMDSoASAFQAw%3D%3D"
  },
  {
    "name": "Vakoba temple",
    "lat": 17.0471826,
    "lng": 74.269565,
    "url": "https://www.google.com/maps/place/Vakoba+temple+Ishwarpur/@17.0471826,74.269565,17z/data=!3m1!4b1!4m6!3m5!1s0x3bc174d4b9227ca7:0x6aac874217f8f150!8m2!3d17.0471826!4d74.269565!16s%2Fg%2F11clyzmxtx?entry=ttu&g_ep=EgoyMDI1MDgwMy4wIKXMDSoASAFQAw%3D%3D"
  },
  {
    "name": "Chenna kesava swamy temple koneru",
    "lat": 44.2423649,
    "lng": -119.8093025,
    "url": "https://www.google.com/maps/place//@44.2423649,-119.8093025,3z/data=!3m1!4b1?entry=ttu&g_ep=EgoyMDI1MDgwMy4wIKXMDSoASAFQAw%3D%3D"
  },
  {
    "name": "Manikandapuram Sree Krishnaswami Temple",
    "lat": 9.5179731,
    "lng": 76.5780357,
    "url": "https://www.google.com/maps/place/Manikandapuram+Sree+Krishnaswami+Temple,+Njaliankuzhi,+Pongamthanam,+Vakathanam,+Kerala+686538,+India/@9.5179731,76.5780357,17z/data=!3m1!4b1!4m6!3m5!1s0x3b062eef4b026ba9:0x84b62c3d2bef40f9!8m2!3d9.517982!4d76.5779912!16s%2Fg%2F11bvtbgsll?entry=ttu&g_ep=EgoyMDI1MDgwMy4wIKXMDSoASAFQAw%3D%3D"
  },
  {
    "name": "Patal Bhuvaneshwar Cave Temple",
    "lat": 29.6877883,
    "lng": 80.0940603,
    "url": "https://www.google.com/maps/place/Patal+Bhuvaneshwar+Cave+Temple/@29.6877883,80.0940603,17z/data=!3m1!4b1!4m6!3m5!1s0x39a0d603c1cc886d:0x2b81ee8027cc0d2!8m2!3d29.6877883!4d80.0940603!16s%2Fg%2F11xjhkqb5?entry=ttu&g_ep=EgoyMDI1MDgwMy4wIKXMDSoASAFQAw%3D%3D"
  },
  {
    "name": "Golingeswara Swami Temple",
    "lat": 16.9593948,
    "lng": 82.0486024,
    "url": "https://www.google.com/maps/place/Ancient+Chalukya+Shri+Golingeswara+Swamy+Temple/@16.9593948,82.0486024,17z/data=!3m1!4b1!4m6!3m5!1s0x3a37854e363eb6bd:0xaa4990d1208ce150!8m2!3d16.9593948!4d82.0486024!16s%2Fg%2F1tdr1qpj?entry=ttu&g_ep=EgoyMDI1MDgwMy4wIKXMDSoASAFQAw%3D%3D"
  },
  {
    "name": "Gopinath Temple",
    "lat": 27.0961993,
    "lng": 76.2881412,
    "url": "https://www.google.com/maps/place/Gopinath+Temple,+Bhangarh,+Rundh+Bhangarh,+Rajasthan+301410,+India/@27.0961993,76.2881412,17z/data=!3m1!4b1!4m6!3m5!1s0x396d8524a6b29345:0x1c8786065ce1d3c!8m2!3d27.0961645!4d76.2881425!16s%2Fg%2F11bvtggz0f?entry=ttu&g_ep=EgoyMDI1MDgwMy4wIKXMDSoASAFQAw%3D%3D"
  },
  {
    "name": "Jugal Kishore Mandir",
    "lat": 24.7229244,
    "lng": 80.1892804,
    "url": "https://www.google.com/maps/place/SHRI+JUGAL+KISHORE+JI+TEMPLE,+PANNA/@24.7229244,80.1892804,17z/data=!3m1!4b1!4m6!3m5!1s0x39830486b76a0f8f:0x9e63ef3a3ba68a5!8m2!3d24.7229244!4d80.1892804!16s%2Fg%2F12hv47sbt?entry=ttu&g_ep=EgoyMDI1MDgwMy4wIKXMDSoASAFQAw%3D%3D"
  },
  {
    "name": "SOMLINGESHWAR TEMPLE",
    "lat": 18.1666198,
    "lng": 77.2200036,
    "url": "https://www.google.com/maps/place/SOMLINGESHWAR+TEMPLE/@18.1666198,77.2200036,17z/data=!3m1!4b1!4m6!3m5!1s0x3bcee2c056054fb3:0xcc58458c06db0715!8m2!3d18.1666198!4d77.2200036!16s%2Fg%2F11dfllwbfw?entry=ttu&g_ep=EgoyMDI1MDgwMy4wIKXMDSoASAFQAw%3D%3D"
  },
  {
    "name": "Mahadev Temple",
    "lat": 17.0504125,
    "lng": 74.263193,
    "url": "https://www.google.com/maps/place/Mahadev+Temple/@17.0504125,74.263193,17z/data=!3m1!4b1!4m6!3m5!1s0x3bc175a9169df189:0xa479e999c18bb074!8m2!3d17.0504125!4d74.263193!16s%2Fg%2F11pq_t6zmh?entry=ttu&g_ep=EgoyMDI1MDgwMy4wIKXMDSoASAFQAw%3D%3D"
  },
  {
    "name": "Zakoba temple",
    "lat": 18.5031519,
    "lng": 73.7972957,
    "url": "https://www.google.com/maps/place/Zakoba+temple/@18.5031519,73.7972957,17z/data=!3m1!4b1!4m6!3m5!1s0x3bc2bfb50ce85ab1:0x589d0a88171d9cee!8m2!3d18.5031519!4d73.7972957!16s%2Fg%2F11f106gt6_?entry=ttu&g_ep=EgoyMDI1MDgwMy4wIKXMDSoASAFQAw%3D%3D"
  },
  {
    "name": "Andhra Konda temple",
    "lat": 15.4619825,
    "lng": 79.6398346,
    "url": "https://www.google.com/maps/place/Andra+Konda+Temple/@15.4619825,79.6398346,17z/data=!3m1!4b1!4m6!3m5!1s0x3a4b26b0b2ddef85:0xcd0ab2944aad8c6!8m2!3d15.4619825!4d79.6398346!16s%2Fg%2F11hbkb4y8s?entry=ttu&g_ep=EgoyMDI1MDgwMy4wIKXMDSoASAFQAw%3D%3D"
  },
  {
    "name": "Sri Kodanda Rama Swami Devalayam",
    "lat": 14.4682746,
    "lng": 78.9737565,
    "url": "https://www.google.com/maps/place/Sri+Kodanda+Rama+Swami+Devalayam/@14.4682746,78.9737565,17z/data=!3m1!4b1!4m6!3m5!1s0x3bb36bb555dd1e05:0x226ea52e5e344331!8m2!3d14.4682746!4d78.9737565!16s%2Fg%2F11c75sbg29?entry=ttu&g_ep=EgoyMDI1MDgwMy4wIKXMDSoASAFQAw%3D%3D"
  },
  {
    "name": "Madathilkavu Bhagavathi Temple",
    "lat": 9.443905,
    "lng": 76.617039,
    "url": "https://www.google.com/maps/place/Madathilkavu+Bhagavathi+Temple,+Manthanam-Shanthipuram+Rd,+Kerala+689581,+India/@9.443905,76.617039,17z/data=!3m1!4b1!4m6!3m5!1s0x3b06256a959ec333:0x879d743302588984!8m2!3d9.4439204!4d76.6170371!16s%2Fg%2F11b8tdkq9_?entry=ttu&g_ep=EgoyMDI1MDgwMy4wIKXMDSoASAFQAw%3D%3D"
  },
  {
    "name": "Somesvara Temple",
    "lat": 27.0952118,
    "lng": 76.2867919,
    "url": "https://www.google.com/maps/place/Somesvara+Temple,+Bhangarh,+Rundh+Bhangarh,+Rajasthan+301410,+India/@27.0952118,76.2867919,17z/data=!3m1!4b1!4m6!3m5!1s0x396d8524cba62f8b:0xf8abb0d735b2bb56!8m2!3d27.0952192!4d76.2867851!16s%2Fg%2F11bvtgg9nh?entry=ttu&g_ep=EgoyMDI1MDgwMy4wIKXMDSoASAFQAw%3D%3D"
  },
  {
    "name": "Shri Sangameshwara Swamy Temple",
    "lat": 18.1629136,
    "lng": 77.2407948,
    "url": "https://www.google.com/maps/place/Shri+Sangameshwara+Swamy+Temple/@18.1629136,77.2407948,17z/data=!3m1!4b1!4m6!3m5!1s0x3bcee31fa45c64b1:0x1f841644e1eaa393!8m2!3d18.1629136!4d77.2407948!16s%2Fg%2F11c0y11s8w?entry=ttu&g_ep=EgoyMDI1MDgwMy4wIKXMDSoASAFQAw%3D%3D"
  },
  {
    "name": "Baba Mukteshwar Nath Temple Campus",
    "lat": 26.4105175,
    "lng": 86.2707304,
    "url": "https://www.google.com/maps/place/Surha+-+Deohar+Rd,+Baba+Mukteshwar+Nath+Sthan+Campus,+Babu+Barhi,+Deohar,+Bihar+847224,+India/@26.4105175,86.2707304,17z/data=!3m1!4b1!4m6!3m5!1s0x39ee80313dc56d2f:0xeae4bb0281860b05!8m2!3d26.4105299!4d86.2706919!16s%2Fg%2F11bvt85yv8?entry=ttu&g_ep=EgoyMDI1MDgwMy4wIKXMDSoASAFQAw%3D%3D"
  },
  {
    "name": "Ancient Shiv Temple",
    "lat": 18.3755169,
    "lng": 73.4051003,
    "url": "https://www.google.com/maps/place/Ancient+Shiv+Temple/@18.3755169,73.4051003,17z/data=!3m1!4b1!4m6!3m5!1s0x3be8218f5a09d08d:0xb4545592f734ff7e!8m2!3d18.3755169!4d73.4051003!16s%2Fg%2F11fnb0_1_w?entry=ttu&g_ep=EgoyMDI1MDgwMy4wIKXMDSoASAFQAw%3D%3D"
  },
  {
    "name": "Shree Ganesh Tample Angapur Vandan",
    "lat": 17.5883587,
    "lng": 74.1360402,
    "url": "https://www.google.com/maps/place/Shree+Ganesh+Tample+Angapur+Vandan/@17.5883587,74.1360402,17z/data=!3m1!4b1!4m6!3m5!1s0x3bc233cb94aa5b19:0x14cc8c48a9ab61c2!8m2!3d17.5883587!4d74.1360402!16s%2Fg%2F11h2hmz0l4?entry=ttu&g_ep=EgoyMDI1MDgwNC4wIKXMDSoASAFQAw%3D%3D"
  },
  {
    "name": "Shri Kodandaramaswamy Vari Devasthanam(\u0c36\u0c4d\u0c30\u0c40 \u0c15\u0c4b\u0c26\u0c02\u0c21\u0c30\u0c3e\u0c2e\u0c38\u0c4d\u0c35\u0c3e\u0c2e\u0c3f \u0c35\u0c47\u0c30\u0c3f \u0c26\u0c47\u0c35\u0c38\u0c4d\u0c25\u0c3e\u0c28\u0c02)",
    "lat": 15.9366293,
    "lng": 80.2282031,
    "url": "https://www.google.com/maps/place/Sri+Kodandaramaswamy+Vari+Devasthanam/@15.9366293,80.2282031,17z/data=!3m1!4b1!4m6!3m5!1s0x3a4a677f60e3da9f:0xd8685da158f29f1e!8m2!3d15.9366293!4d80.2282031!16s%2Fg%2F11nmt6bkfr?entry=ttu&g_ep=EgoyMDI1MDgwNC4wIKXMDSoASAFQAw%3D%3D"
  },
  {
    "name": "Nethalloor Sri Bhagavathi Temple",
    "lat": 9.5137034,
    "lng": 76.6381325,
    "url": "https://www.google.com/maps/place/Nethalloor+Sree+Bhagavathi+Temple/@9.5137034,76.6381325,17z/data=!3m1!4b1!4m6!3m5!1s0x3b062e2bd5b4498b:0xd15a192ce83adee2!8m2!3d9.5137034!4d76.6381325!16s%2Fm%2F03d3wkg?entry=ttu&g_ep=EgoyMDI1MDgwMy4wIKXMDSoASAFQAw%3D%3D"
  },
  {
    "name": "Jalandhar Nath Ji Temple Maha Mandir",
    "lat": 26.3072436,
    "lng": 73.0426029,
    "url": "https://www.google.com/maps/place/Jalandhar+Nath+Ji+Temple+Maha+Mandir/@26.3072436,73.0426029,17z/data=!3m1!4b1!4m6!3m5!1s0x39418d0a25dee4b7:0xf008af5980f49444!8m2!3d26.3072436!4d73.0426029!16s%2Fg%2F1td9thq3?entry=ttu&g_ep=EgoyMDI1MDgwMy4wIKXMDSoASAFQAw%3D%3D"
  },
  {
    "name": "Jakh Devta Shib Temple",
    "lat": 31.1958801,
    "lng": 78.0567598,
    "url": "https://www.google.com/maps/place/Jakh+Devta+Shib+Temple/@31.1958801,78.0567598,17z/data=!3m1!4b1!4m6!3m5!1s0x3906045087051731:0xd2802ab807d04609!8m2!3d31.1958801!4d78.0567598!16s%2Fg%2F11f4_5hmbz?entry=ttu&g_ep=EgoyMDI1MDgwNC4wIKXMDSoASAFQAw%3D%3D"
  },
  {
    "name": "Someshwar Temple",
    "lat": 17.5608226,
    "lng": 77.1166787,
    "url": "https://www.google.com/maps/place/Someshwar+Temple/@17.5608226,77.1166787,17z/data=!3m1!4b1!4m6!3m5!1s0x3bc8d46e55b4a041:0xdedf09c739052571!8m2!3d17.5608226!4d77.1166787!16s%2Fg%2F11cmt3lv5l?entry=ttu&g_ep=EgoyMDI1MDgwMy4wIKXMDSoASAFQAw%3D%3D"
  },
  {
    "name": "Gaitor Ki Chhatriyan",
    "lat": 26.9430691,
    "lng": 75.8246528,
    "url": "https://www.google.com/maps/place/Gaitor+Ki+Chhatriyan/@26.9430691,75.8246528,17z/data=!3m1!4b1!4m6!3m5!1s0x396db1418be047c5:0x4d3bfabe899e5ae5!8m2!3d26.9430691!4d75.8246528!16s%2Fg%2F1ttyv43s?entry=ttu&g_ep=EgoyMDI1MDgwMy4wIKXMDSoASAFQAw%3D%3D"
  },
  {
    "name": "Lord Shiva temple",
    "lat": 15.9362296,
    "lng": 80.2280506,
    "url": "https://www.google.com/maps/place/Sivalayam/@15.9362296,80.2280506,17z/data=!3m1!4b1!4m6!3m5!1s0x3a4a677bafbb402f:0x135ec34fc8c070fc!8m2!3d15.9362296!4d80.2280506!16s%2Fg%2F11j1p8vk72?entry=ttu&g_ep=EgoyMDI1MDgwMy4wIKXMDSoASAFQAw%3D%3D"
  },
  {
    "name": "Jora Shiv Mandir",
    "lat": 23.1458168,
    "lng": 89.2339785,
    "url": "https://www.google.com/maps/place/Jora+Shiva+Temple/@23.1458168,89.2339785,17z/data=!3m1!4b1!4m6!3m5!1s0x39ff1033a587f051:0x42c3491bd3275577!8m2!3d23.1458168!4d89.2339785!16s%2Fg%2F11h0jpxmq?entry=ttu&g_ep=EgoyMDI1MDgwMy4wIKXMDSoASAFQAw%3D%3D"
  },
  {
    "name": "ANNPURNA DEVI TEMPLE",
    "lat": 19.3336935,
    "lng": 76.9962553,
    "url": "https://www.google.com/maps/place/ANNPURNA+DEVI+TEMPLE/@19.3336935,76.9962553,17z/data=!3m1!4b1!4m6!3m5!1s0x3bd03a89e8a5f09d:0xca44580181906fbc!8m2!3d19.3336935!4d76.9962553!16s%2Fg%2F11bw4t8qdf?entry=ttu&g_ep=EgoyMDI1MDgwMy4wIKXMDSoASAFQAw%3D%3D"
  },
  {
    "name": "Sree RAGUPATHI NARAYANA PERUMAL Temple, Madavilagam",
    "lat": 11.0277951,
    "lng": 77.6162908,
    "url": "https://www.google.com/maps/place/Sree+RAGUPATHI+NARAYANA+PERUMAL+Temple,+Madavilagam/@11.0277951,77.6162908,17z/data=!3m1!4b1!4m6!3m5!1s0x3ba99ee4fe32b7ad:0xed65ad392e054166!8m2!3d11.0277951!4d77.6162908!16s%2Fg%2F1hdzd9j3z?entry=ttu&g_ep=EgoyMDI1MDgwMy4wIKXMDSoASAFQAw%3D%3D"
  },
  {
    "name": "Vennimala Sri Rama Lakshmana Swamy Temple",
    "lat": 9.5685598,
    "lng": 76.602715,
    "url": "https://www.google.com/maps/place/Vennimala+Sri+Rama+Lakshmana+Swamy+Temple/@9.5685598,76.602715,17z/data=!3m1!4b1!4m6!3m5!1s0x3b062dc9729b7a9b:0xe1743646658abc!8m2!3d9.5685598!4d76.602715!16s%2Fg%2F1thtn0jx?entry=ttu&g_ep=EgoyMDI1MDgwMy4wIKXMDSoASAFQAw%3D%3D"
  },
  {
    "name": "Shri Gudde Hanumantha Temple",
    "lat": 16.0940665,
    "lng": 75.788369,
    "url": "https://www.google.com/maps/place/Shri+Gudde+Hanumantha+Temple/@16.0940665,75.788369,17z/data=!3m1!4b1!4m6!3m5!1s0x3bc780dc14a12b55:0x53a14059497697d2!8m2!3d16.0940665!4d75.788369!16s%2Fg%2F11g8w65h6j?entry=ttu&g_ep=EgoyMDI1MDgwMy4wIKXMDSoASAFQAw%3D%3D"
  },
  {
    "name": "KunjAgarwal Bihari Temple",
    "lat": 26.2935282,
    "lng": 73.0199116,
    "url": "https://www.google.com/maps/place/Kunj+Bihari+Temple/@26.2935282,73.0199116,17z/data=!3m1!4b1!4m6!3m5!1s0x39418db6880e9881:0x580e0f6a43cbe7e9!8m2!3d26.2935282!4d73.0199116!16s%2Fg%2F1hjgnqx0y?entry=ttu&g_ep=EgoyMDI1MDgwMy4wIKXMDSoASAFQAw%3D%3D"
  },
  {
    "name": "Bhavanammapally",
    "lat": 17.6667183,
    "lng": 77.4982183,
    "url": "https://www.google.com/maps/place/Bhavanammapally/@17.6667183,77.4982183,17z/data=!3m1!4b1!4m6!3m5!1s0x3bcecb32fa05f3a1:0x99dd03c8c3fed9fc!8m2!3d17.6667183!4d77.4982183!16s%2Fg%2F11vc7n68z1?entry=ttu&g_ep=EgoyMDI1MDgwMy4wIKXMDSoASAFQAw%3D%3D"
  },
  {
    "name": "Shri Dev Patekar Temple",
    "lat": 15.9063592,
    "lng": 73.8247149,
    "url": "https://www.google.com/maps/place/Shri+Dev+Patekar+Temple/@15.9063592,73.8247149,17z/data=!3m1!4b1!4m6!3m5!1s0x3bbff574094f7463:0x4288bd64b5bbd338!8m2!3d15.9063592!4d73.8247149!16s%2Fg%2F11g3_2w_35?entry=ttu&g_ep=EgoyMDI1MDgwMy4wIKXMDSoASAFQAw%3D%3D"
  },
  {
    "name": "Shri Mahalaxmi Temple",
    "lat": 19.6309263,
    "lng": 75.5494379,
    "url": "https://www.google.com/maps/place/Shri+Mahalaxmi+Temple/@19.6309263,75.5494379,17z/data=!3m1!4b1!4m6!3m5!1s0x3bdb05e849fa084b:0xd41ff06bba824181!8m2!3d19.6309263!4d75.5494379!16s%2Fg%2F11gcx_64yx?entry=ttu&g_ep=EgoyMDI1MDgwMy4wIKXMDSoASAFQAw%3D%3D"
  },
  {
    "name": "Pathar Masjid, Kurukshetra",
    "lat": 29.9759144,
    "lng": 76.8277282,
    "url": "https://www.google.com/maps/place/Pathar+Masjid,+Kurukshetra/@29.9759144,76.8277282,17z/data=!3m1!4b1!4m6!3m5!1s0x390e475fbf37dfe5:0xcac52ce10b560bd!8m2!3d29.9759144!4d76.8277282!16s%2Fg%2F11fylscj7z?entry=ttu&g_ep=EgoyMDI1MDgwMy4wIKXMDSoASAFQAw%3D%3D"
  },
  {
    "name": "Shri Jeyam Konda Easwaran Temple",
    "lat": 11.0879255,
    "lng": 77.6637912,
    "url": "https://www.google.com/maps/place/Shri+Jeyam+Konda+Easwaran+Temple/@11.0879255,77.6637912,17z/data=!3m1!4b1!4m6!3m5!1s0x3ba97602a728df5b:0xd0e5be9165bfa363!8m2!3d11.0879255!4d77.6637912!16s%2Fg%2F1tghn0ww?entry=ttu&g_ep=EgoyMDI1MDgwMy4wIKXMDSoASAFQAw%3D%3D"
  },
  {
    "name": "Banshi Narayan Mandir",
    "lat": 44.2423649,
    "lng": -119.8093025,
    "url": "https://www.google.com/maps/place//@44.2423649,-119.8093025,3z/data=!3m1!4b1?entry=ttu&g_ep=EgoyMDI1MDgwMy4wIKXMDSoASAFQAw%3D%3D"
  },
  {
    "name": "Kumaranalloor Karthyayani Devi Temple",
    "lat": 9.6234724,
    "lng": 76.5279123,
    "url": "https://www.google.com/maps/place/Kumaranalloor+Devi+Temple/@9.6234724,76.5279123,17z/data=!3m1!4b1!4m6!3m5!1s0x3b062b47df1624c9:0x9e86887616568013!8m2!3d9.6234724!4d76.5279123!16s%2Fg%2F11hv4d9w0?entry=ttu&g_ep=EgoyMDI1MDgwMy4wIKXMDSoASAFQAw%3D%3D"
  },
  {
    "name": "Maniya Dev Temple",
    "lat": 25.2882953,
    "lng": 79.8698622,
    "url": "https://www.google.com/maps/place/Maniya+Dev+temple/@25.2882953,79.8698622,17z/data=!3m1!4b1!4m6!3m5!1s0x3982cce749000001:0xcc0368fb567d2fc3!8m2!3d25.2882953!4d79.8698622!16s%2Fg%2F11fxfv_yxm?entry=ttu&g_ep=EgoyMDI1MDgwMy4wIKXMDSoASAFQAw%3D%3D"
  },
  {
    "name": "Ancient Maruti Temple",
    "lat": 19.9330235,
    "lng": 73.531618,
    "url": "https://www.google.com/maps/place/Ancient+Maruti+Temple/@19.9330235,73.531618,17z/data=!3m1!4b1!4m6!3m5!1s0x3bddf585a741280f:0x129dc496093c4e78!8m2!3d19.9330235!4d73.531618!16s%2Fg%2F11kwjn6xhb?entry=ttu&g_ep=EgoyMDI1MDgwMy4wIKXMDSoASAFQAw%3D%3D"
  },
  {
    "name": "Kaalikaamatha Temple",
    "lat": 17.6132883,
    "lng": 78.025841,
    "url": "https://www.google.com/maps/place/Kaalikaamatha+Temple/@17.6132883,78.025841,17z/data=!3m1!4b1!4m6!3m5!1s0x3bcbf93687b26b0d:0x56f2c95c7252aa21!8m2!3d17.6132883!4d78.025841!16s%2Fg%2F11dx8nfs7j?entry=ttu&g_ep=EgoyMDI1MDgwMy4wIKXMDSoASAFQAw%3D%3D"
  },
  {
    "name": "Selvakumara Swamy Temple",
    "lat": 11.0587187,
    "lng": 77.7435418,
    "url": "https://www.google.com/maps/place/Selvakumara+Swamy+Temple/@11.0587187,77.7435418,17z/data=!3m1!4b1!4m6!3m5!1s0x3ba99d3296edca11:0xb1f2715735a57e4b!8m2!3d11.0587187!4d77.7435418!16s%2Fg%2F1tcy2q_x?entry=ttu&g_ep=EgoyMDI1MDgwMy4wIKXMDSoASAFQAw%3D%3D"
  },
  {
    "name": "Jama Masjid \u0645\u0633\u062c\u062f",
    "lat": 24.7103771,
    "lng": 78.1351737,
    "url": "https://www.google.com/maps/place/Jama+Masjid+chanderi+%D9%85%D8%B3%D8%AC%D8%AF%E2%80%AD/@24.7103771,78.1351737,17z/data=!3m1!4b1!4m6!3m5!1s0x3979918b67a3fe1b:0x6a7e8f26b1d46a62!8m2!3d24.7103771!4d78.1351737!16s%2Fg%2F11cnrgj1gl?entry=ttu&g_ep=EgoyMDI1MDgwMy4wIKXMDSoASAFQAw%3D%3D"
  },
  {
    "name": "Achal Nath Temple",
    "lat": 26.2940576,
    "lng": 73.0196915,
    "url": "https://www.google.com/maps/place/Achal+Nath+Temple/@26.2940576,73.0196915,17z/data=!3m1!4b1!4m6!3m5!1s0x39418db6609b8c3b:0x7206ce1f32e17dc7!8m2!3d26.2940576!4d73.0196915!16s%2Fg%2F1hjh3vsfb?entry=ttu&g_ep=EgoyMDI1MDgwNC4wIKXMDSoASAFQAw%3D%3D"
  },
  {
    "name": "Narasimhaswamy Temple",
    "lat": 9.6124232,
    "lng": 76.4967245,
    "url": "https://www.google.com/maps/place/Narasimham's+Temple+Aymanam/@9.6124232,76.4967245,17z/data=!3m1!4b1!4m6!3m5!1s0x3b062adde265df0b:0xe908e1a17e183b9d!8m2!3d9.6124232!4d76.4967245!16s%2Fg%2F1tf22j2b?entry=ttu&g_ep=EgoyMDI1MDgwMy4wIKXMDSoASAFQAw%3D%3D"
  },
  {
    "name": "BhayaBhanjan Parshvanaath Jain Temple (Haathi Pole)",
    "lat": 25.0072836,
    "lng": 72.2643461,
    "url": "https://www.google.com/maps/place/108+Shri+Bhaybhanjan+Parshwanath+Shwetambar+Jain+Derasar+Tirth/@25.0072836,72.2643461,17z/data=!3m1!4b1!4m6!3m5!1s0x39436bb438fffffd:0xf154606dd6d9f905!8m2!3d25.0072836!4d72.2643461!16s%2Fg%2F11b8_tx9k1?entry=ttu&g_ep=EgoyMDI1MDgwMy4wIKXMDSoASAFQAw%3D%3D"
  },
  {
    "name": "Ancient Shri Kalmeshwara Temple (Rakkasagi)",
    "lat": 16.0589565,
    "lng": 75.9734942,
    "url": "https://www.google.com/maps/place/Ancient+Shri+Kalmeshwara+Temple+(Rakkasagi)/@16.0589565,75.9734942,17z/data=!3m1!4b1!4m6!3m5!1s0x3bb876190959a40d:0xe10b0a513332b256!8m2!3d16.0589565!4d75.9734942!16s%2Fg%2F11c71p3sjv?entry=ttu&g_ep=EgoyMDI1MDgwNC4wIKXMDSoASAFQAw%3D%3D"
  },
  {
    "name": "Mahavirswami Swetamber Jain Temple",
    "lat": 26.7239759,
    "lng": 72.909409,
    "url": "https://www.google.com/maps/place/Osiyan+Mahavir+Swami+Shwetamber+Jain+Temple/@26.7239759,72.909409,17z/data=!3m1!4b1!4m6!3m5!1s0x3941b02e16a037cb:0x553d942e3b566177!8m2!3d26.7239759!4d72.909409!16s%2Fg%2F1tznkrgm?entry=ttu&g_ep=EgoyMDI1MDgwMy4wIKXMDSoASAFQAw%3D%3D"
  },
  {
    "name": "Shree Vishanu mandir",
    "lat": 18.4390419,
    "lng": 74.9243136,
    "url": "https://www.google.com/maps/place/Shree+Vishanu+mandir/@18.4390419,74.9243136,17z/data=!3m1!4b1!4m6!3m5!1s0x3bc36392f1fd7baf:0xee7b0395b9c50e62!8m2!3d18.4390419!4d74.9243136!16s%2Fg%2F11t2_6g1s9?entry=ttu&g_ep=EgoyMDI1MDgwNC4wIKXMDSoASAFQAw%3D%3D"
  },
  {
    "name": "Shree Savleshwar Mandir(Mahadev Mandir)",
    "lat": 17.4609587,
    "lng": 74.3160748,
    "url": "https://www.google.com/maps/place/Shree+Savleshwar+Mandir(Mahadev+Mandir)/@17.4609587,74.3160748,17z/data=!3m1!4b1!4m6!3m5!1s0x3bc3d771d9145707:0x4da959533cb237cf!8m2!3d17.4609587!4d74.3160748!16s%2Fg%2F11h0tw_x22?entry=ttu&g_ep=EgoyMDI1MDgwNC4wIKXMDSoASAFQAw%3D%3D"
  },
  {
    "name": "Tungnath",
    "lat": 30.4885019,
    "lng": 79.2167708,
    "url": "https://www.google.com/maps/place/Shri+Tungnath+Temple,+Panch+Kedar/@30.4885019,79.2167708,17z/data=!3m1!4b1!4m6!3m5!1s0x39082d76a94ee437:0xc9d695bd8994120a!8m2!3d30.4885019!4d79.2167708!16s%2Fm%2F02qldtc?entry=ttu&g_ep=EgoyMDI1MDgwMy4wIKXMDSoASAFQAw%3D%3D"
  },
  {
    "name": "Pandavam Sree Dharma Sastha Temple",
    "lat": 44.2423649,
    "lng": -119.8093025,
    "url": "https://www.google.com/maps/place//@44.2423649,-119.8093025,3z/data=!3m1!4b1?entry=ttu&g_ep=EgoyMDI1MDgwMy4wIKXMDSoASAFQAw%3D%3D"
  },
  {
    "name": "Shahzadi Ka Roza",
    "lat": 24.7198375,
    "lng": 78.1335321,
    "url": "https://www.google.com/maps/place/Shahzadi+Ka+Roza/@24.7198375,78.1335321,17z/data=!3m1!4b1!4m6!3m5!1s0x3979921f606bf52b:0xfccc5e9c66dc7f18!8m2!3d24.7198375!4d78.1335321!16s%2Fg%2F11cmcxkzfb?entry=ttu&g_ep=EgoyMDI1MDgwNC4wIKXMDSoASAFQAw%3D%3D"
  },
  {
    "name": "Ancient Buddhist Vihara (Santagar)",
    "lat": 21.4254317,
    "lng": 78.0105046,
    "url": "https://www.google.com/maps/place/Ancient+Buddhist+Vihara+(Santagar)/@21.4254317,78.0105046,17z/data=!3m1!4b1!4m6!3m5!1s0x3bd5d5a59199814b:0x67d1dda922d8d368!8m2!3d21.4254317!4d78.0105046!16s%2Fg%2F11k0rstwnw?entry=ttu&g_ep=EgoyMDI1MDgwMy4wIKXMDSoASAFQAw%3D%3D"
  },
  {
    "name": "Arulmigu Kariyakali Amman Temple",
    "lat": 11.0796342,
    "lng": 77.5954431,
    "url": "https://www.google.com/maps/place/Arulmigu+Kariyakali+Amman+Temple/@11.0796342,77.5954431,17z/data=!3m1!4b1!4m6!3m5!1s0x3ba99fd9f72a84f9:0x64c3f4deb80e82b1!8m2!3d11.0796342!4d77.5954431!16s%2Fg%2F1tgx50xf?entry=ttu&g_ep=EgoyMDI1MDgwMy4wIKXMDSoASAFQAw%3D%3D"
  },
  {
    "name": "Kedareshwar Mandir",
    "lat": 44.2423649,
    "lng": -119.8093025,
    "url": "https://www.google.com/maps/place//@44.2423649,-119.8093025,3z/data=!3m1!4b1?entry=ttu&g_ep=EgoyMDI1MDgwMy4wIKXMDSoASAFQAw%3D%3D"
  },
  {
    "name": "Sun Temple Osian",
    "lat": 26.7235846,
    "lng": 72.9106477,
    "url": "https://www.google.com/maps/place/Sun+Temple+Osian/@26.7235846,72.9106477,17z/data=!3m1!4b1!4m6!3m5!1s0x3941b1e03ba66883:0xbb80e4b4e7aa88c4!8m2!3d26.7235846!4d72.9106477!16s%2Fg%2F11jgdfwrg5?entry=ttu&g_ep=EgoyMDI1MDgwMy4wIKXMDSoASAFQAw%3D%3D"
  },
  {
    "name": "Old Shiva Temple",
    "lat": 19.8207478,
    "lng": 73.5611289,
    "url": "https://www.google.com/maps/place/Old+Shiva+Temple/@19.8207478,73.5611289,17z/data=!3m1!4b1!4m6!3m5!1s0x3bdd8f00116b660b:0xd6c426a9d47ae31a!8m2!3d19.8207478!4d73.5611289!16s%2Fg%2F11vzfn7mnl?entry=ttu&g_ep=EgoyMDI1MDgwMy4wIKXMDSoASAFQAw%3D%3D"
  },
  {
    "name": "Kulavilakku Amman Temple",
    "lat": 11.2582042,
    "lng": 77.8344602,
    "url": "https://www.google.com/maps/place/Kulavilakku+Amman+Temple/@11.2582042,77.8344602,17z/data=!3m1!4b1!4m6!3m5!1s0x3ba97b590688e9c1:0x5926b3ba74f4c091!8m2!3d11.2582042!4d77.8344602!16s%2Fg%2F1tj87w7n?entry=ttu&g_ep=EgoyMDI1MDgwMy4wIKXMDSoASAFQAw%3D%3D"
  },
  {
    "name": "Ancient Shri Giri Parshwanath Digambar Jain Temple",
    "lat": 17.1268045,
    "lng": 74.4028142,
    "url": "https://www.google.com/maps/place/Ancient+Shri+Giri+Parshwanath+Digambar+Jain+Temple/@17.1268045,74.4028142,17z/data=!3m1!4b1!4m6!3m5!1s0x3bc1720adfb42849:0xeb03edefe136cdc5!8m2!3d17.1268045!4d74.4028142!16s%2Fg%2F11b5qr5lcr?entry=ttu&g_ep=EgoyMDI1MDgwMy4wIKXMDSoASAFQAw%3D%3D"
  },
  {
    "name": "Sree Subrahmanya Swamy Temple",
    "lat": 44.2423649,
    "lng": -119.8093025,
    "url": "https://www.google.com/maps/place//@44.2423649,-119.8093025,3z/data=!3m1!4b1?entry=ttu&g_ep=EgoyMDI1MDgwMy4wIKXMDSoASAFQAw%3D%3D"
  },
  {
    "name": "Mahadev Mandir (Sat Kothri)",
    "lat": 22.3646458,
    "lng": 75.390554,
    "url": "https://www.google.com/maps/place/Mahadev+Mandir+(Sat+Kothri)/@22.3646458,75.390554,17z/data=!3m1!4b1!4m6!3m5!1s0x39624137500673bd:0xc0808647b533265e!8m2!3d22.3646458!4d75.390554!16s%2Fg%2F11h565m6rx?entry=ttu&g_ep=EgoyMDI1MDgwMy4wIKXMDSoASAFQAw%3D%3D"
  },
  {
    "name": "Harshad Mata Temple",
    "lat": 27.0075711,
    "lng": 76.6052282,
    "url": "https://www.google.com/maps/place/Harshad+Mata+Temple/@27.0075711,76.6052282,17z/data=!3m1!4b1!4m6!3m5!1s0x397271859e555555:0x8e1e8921924a9bad!8m2!3d27.0075711!4d76.6052282!16s%2Fg%2F11bxdt4rzv?entry=ttu&g_ep=EgoyMDI1MDgwMy4wIKXMDSoASAFQAw%3D%3D"
  },
  {
    "name": "Vitthal Mandir",
    "lat": 17.2514085,
    "lng": 74.3570895,
    "url": "https://www.google.com/maps/place/Vitthal+Mandir/@17.2514085,74.3570895,17z/data=!3m1!4b1!4m6!3m5!1s0x3bc17a625ef6779f:0xb7600f94ff20b5a!8m2!3d17.2514085!4d74.3570895!16s%2Fg%2F11dxrwpm9j?entry=ttu&g_ep=EgoyMDI1MDgwMy4wIKXMDSoASAFQAw%3D%3D"
  },
  {
    "name": "Old Shivji Ki Dary",
    "lat": 26.7239858,
    "lng": 72.9136014,
    "url": "https://www.google.com/maps/place/Old+Shivji+Ki+Deri+Rameshwar+Mahadev/@26.7239858,72.9136014,17z/data=!3m1!4b1!4m6!3m5!1s0x3941b0310a70c08f:0x3d7d303b609166e7!8m2!3d26.7239858!4d72.9136014!16s%2Fg%2F11gdt_dvcf?entry=ttu&g_ep=EgoyMDI1MDgwMy4wIKXMDSoASAFQAw%3D%3D"
  },
  {
    "name": "Baba Awadhdas Mandir, Rambag Ghat",
    "lat": 26.4685223,
    "lng": 83.0041096,
    "url": "https://www.google.com/maps/place/Baba+Awadhdas+Mandir,+Rambag+Ghat/@26.4685223,83.0041096,17z/data=!3m1!4b1!4m6!3m5!1s0x39911b6f62e32f8b:0x13f59c0c1af71a7e!8m2!3d26.4685223!4d83.0041096!16s%2Fg%2F11bbrlyxxt?entry=ttu&g_ep=EgoyMDI1MDgwMy4wIKXMDSoASAFQAw%3D%3D"
  },
  {
    "name": "Manarcadu Bhagavathy Temple \u0d2e\u0d23\u0d7c\u0d15\u0d3e\u0d1f\u0d4d \u0d2d\u0d17\u0d35\u0d24\u0d3f \u0d15\u0d4d\u0d37\u0d47\u0d24\u0d4d\u0d30\u0d02",
    "lat": 9.600482,
    "lng": 76.5889462,
    "url": "https://www.google.com/maps/place/Must+add/@9.600482,76.5889462,17z/data=!3m1!4b1!4m6!3m5!1s0x3b062cfb6b7b0b09:0x66c5ee3059b86ba4!8m2!3d9.600482!4d76.5889462!16s%2Fg%2F1td4bzvp?entry=ttu&g_ep=EgoyMDI1MDgwMy4wIKXMDSoASAFQAw%3D%3D"
  },
  {
    "name": "Madavilagam Angala Parameswari Aalayam",
    "lat": 11.0275747,
    "lng": 77.6183049,
    "url": "https://www.google.com/maps/place/Madavilagam+Angala+Parameswari+Aalayam/@11.0275747,77.6183049,17z/data=!3m1!4b1!4m6!3m5!1s0x3ba99ee59db36e4b:0x6244ef23e74d0d8a!8m2!3d11.0275747!4d77.6183049!16s%2Fg%2F11fxz4w0qv?entry=ttu&g_ep=EgoyMDI1MDgwMy4wIKXMDSoASAFQAw%3D%3D"
  },
  {
    "name": "Shree Datta Mandir",
    "lat": 19.8162667,
    "lng": 77.9302411,
    "url": "https://www.google.com/maps/place/Shree+Datta+Mandir/@19.8162667,77.9302411,17z/data=!3m1!4b1!4m6!3m5!1s0x3bd229fc71b8ac0d:0x47df3597686d3cc8!8m2!3d19.8162667!4d77.9302411!16s%2Fg%2F1hf87p2kg?entry=ttu&g_ep=EgoyMDI1MDgwNC4wIKXMDSoASAFQAw%3D%3D"
  },
  {
    "name": "Datia Palace Gulzaar Shaa Dargah",
    "lat": 25.674017,
    "lng": 78.4541483,
    "url": "https://www.google.com/maps/place/Datia+Palace/@25.674017,78.4541483,17z/data=!3m1!4b1!4m6!3m5!1s0x3977121fbf21c539:0xad8ff4dfed97df6f!8m2!3d25.674017!4d78.4541483!16s%2Fm%2F0gysv5j?entry=ttu&g_ep=EgoyMDI1MDgwMy4wIKXMDSoASAFQAw%3D%3D"
  },
  {
    "name": "Varaha Temple",
    "lat": 26.4905625,
    "lng": 74.5576875,
    "url": "https://www.google.com/maps/place/Varaha+Temple/@26.4905625,74.5576875,17z/data=!3m1!4b1!4m6!3m5!1s0x396bdd22d426d693:0xea19c4209f0a494d!8m2!3d26.4905625!4d74.5576875!16s%2Fg%2F11bt_hhdd0?entry=ttu&g_ep=EgoyMDI1MDgwMy4wIKXMDSoASAFQAw%3D%3D"
  },
  {
    "name": "Osiyan Mata Temple (Shri Sachchiyay Mataji)",
    "lat": 26.7260135,
    "lng": 72.9123903,
    "url": "https://www.google.com/maps/place/Sacchiyay+Mata+Temple/@26.7260135,72.9123903,17z/data=!3m1!4b1!4m6!3m5!1s0x3941b0322256c07f:0x93360a6e9801af43!8m2!3d26.7260135!4d72.9123903!16s%2Fm%2F025vlzf?entry=ttu&g_ep=EgoyMDI1MDgwMy4wIKXMDSoASAFQAw%3D%3D"
  },
  {
    "name": "Mahadev mandir",
    "lat": 44.2423649,
    "lng": -119.8093025,
    "url": "https://www.google.com/maps/place//@44.2423649,-119.8093025,3z/data=!3m1!4b1?entry=ttu&g_ep=EgoyMDI1MDgwMy4wIKXMDSoASAFQAw%3D%3D"
  },