[
  {
    "name": "Mohajmata Temple terai",
    "lat": 25.0456312,
    "lng": 77.9492467,
    "url": "https://www.google.com/maps/place/Mohajmata+Temple+terai/@25.0456312,77.9492467,17z/data=!3m1!4b1!4m6!3m5!1s0x3979f8949c195da3:0xc5e76247b7bca146!8m2!3d25.0456312!4d77.9492467!16s%2Fg%2F11vwm0yt01?entry=ttu&g_ep=EgoyMDI1MDgwMy4wIKXMDSoASAFQAw%3D%3D"
  },
  {
    "name": "Torana With A Sun Image",
    "lat": 23.6640642,
    "lng": 72.4353471,
    "url": "https://www.google.com/maps/place/Torana+With+A+Sun+Image/@23.6640642,72.4353471,17z/data=!3m1!4b1!4m6!3m5!1s0x395c459dde04574f:0x5fb4ff9591be21cf!8m2!3d23.6640642!4d72.4353471!16s%2Fg%2F11hqwl8y7d?entry=ttu&g_ep=EgoyMDI1MDgwMy4wIKXMDSoASAFQAw%3D%3D"
  },
  {
    "name": "Hindola Toran",
    "lat": 23.6667312,
    "lng": 78.1157253,
    "url": "https://www.google.com/maps/place/Hindola+Toran/@23.6667312,78.1157253,17z/data=!3m1!4b1!4m6!3m5!1s0x397eb3f05d21b3cb:0x32b3bf19620fddce!8m2!3d23.6667312!4d78.1157253!16s%2Fg%2F11mvr_6cpq?entry=ttu&g_ep=EgoyMDI1MDgwNC4wIKXMDSoASAFQAw%3D%3D"
  },
  {
    "name": "GADARMAL DEVI TEMPLE",
    "lat": 23.9182813,
    "lng": 78.2224866,
    "url": "https://www.google.com/maps/place/GADARMAL+TEMPLE/@23.9182813,78.2224866,17z/data=!3m1!4b1!4m6!3m5!1s0x3979466704563feb:0x9ad4c0ceb206d2dc!8m2!3d23.9182813!4d78.2224866!16s%2Fg%2F11qmr0jjy5?entry=ttu&g_ep=EgoyMDI1MDgwMy4wIKXMDSoASAFQAw%3D%3D"
  },
  {
    "name": "Nadavavi Well",
    "lat": 12.7915625,
    "lng": 79.6611406,
    "url": "https://www.google.com/maps/place/Nadavavi+Well/@12.7915625,79.6611406,17z/data=!3m1!4b1!4m6!3m5!1s0x3a52c3da4c75230b:0x560bc500f4394b44!8m2!3d12.7915625!4d79.6611406!16s%2Fg%2F11pzf_fv8q?entry=ttu&g_ep=EgoyMDI1MDgwMy4wIKXMDSoASAFQAw%3D%3D"
  },
  {
    "name": "Kirti Toran",
    "lat": 23.7907983,
    "lng": 72.6417759,
    "url": "https://www.google.com/maps/place/Kirti+Toran/@23.7907983,72.6417759,17z/data=!3m1!4b1!4m6!3m5!1s0x395c5393828f4d0b:0x236265f78c6ca8f4!8m2!3d23.7907983!4d72.6417759!16s%2Fg%2F11c529cdl_?entry=ttu&g_ep=EgoyMDI1MDgwMy4wIKXMDSoASAFQAw%3D%3D"
  }
]